timestamp(unix),attitude_roll(radians),attitude_pitch(radians),attitude_yaw(radians),rotation_rate_x(radians/s),rotation_rate_y(radians/s),rotation_rate_z(radians/s),gravity_x(G),gravity_y(G),gravity_z(G),user_acc_x(G),user_acc_y(G),user_acc_z(G),magnetic_field_x(microteslas),magnetic_field_y(microteslas),magnetic_field_z(microteslas),latitude(degree),longitude(degree),altitude(meter),speed(m/s),course(degree),timestamp(unix),User Mark
1508183853.260042,-0.048534,-0.043642,3.056038,0.023961,0.009389,-0.046270,-0.048468,0.043628,-0.997871,-0.004007,0.001706,0.000313,23.553177,26.121964,-35.534988,,,,,,,
1508183853.280056,-0.048782,-0.043125,3.054990,0.022921,-0.008706,-0.053471,-0.048717,0.043112,-0.997882,-0.002583,0.000910,0.002383,23.517870,26.126173,-35.555275,,,,,,,
1508183853.300051,-0.049061,-0.042837,3.054138,0.010124,-0.011920,-0.042752,-0.048997,0.042824,-0.997880,0.000092,0.002296,0.001283,23.498632,26.131168,-35.564320,,,,,,,
1508183853.320041,-0.049269,-0.042960,3.053196,-0.004826,-0.027887,-0.048905,-0.049204,0.042947,-0.997865,0.005335,0.004462,-0.003691,23.451830,26.158691,-35.574978,,,,,,,
1508183853.340059,-0.049377,-0.042993,3.052260,0.009101,-0.030026,-0.045685,-0.049312,0.042980,-0.997858,0.014461,-0.001125,0.000422,23.417530,26.190866,-35.573895,,,,,,,
1508183853.360059,-0.049519,-0.042767,3.051513,0.000570,-0.024724,-0.031894,-0.049454,0.042754,-0.997861,0.019608,-0.004333,-0.000567,23.407352,26.197002,-35.576080,,,,,,,
1508183853.380073,-0.049348,-0.042863,3.050911,-0.008007,-0.021519,-0.034066,-0.049282,0.042850,-0.997865,0.014675,0.002789,0.003343,23.382774,26.215317,-35.578751,,,,,,,
1508183853.400091,-0.048446,-0.043065,3.050399,0.009078,0.004020,-0.021654,-0.048382,0.043051,-0.997901,0.025738,0.006418,-0.003473,23.385992,26.237303,-35.560429,,,,,,,
1508183853.420076,-0.048137,-0.042587,3.050170,0.026337,-0.025839,-0.006305,-0.048075,0.042574,-0.997936,0.028223,0.000090,0.002025,23.402557,26.241518,-35.546413,,,,,,,
1508183853.440101,-0.047987,-0.041829,3.050402,0.018950,-0.042911,0.009943,-0.047927,0.041817,-0.997975,0.004775,-0.006615,0.017735,23.414558,26.209314,-35.562267,,,,,,,
1508183853.460111,-0.048312,-0.041627,3.050413,-0.005849,0.008249,-0.001444,-0.048252,0.041615,-0.997968,0.000202,-0.007710,0.018583,23.407772,26.191523,-35.579838,,,,,,,
1508183853.480104,-0.048085,-0.041652,3.050325,-0.004751,-0.004528,-0.004458,-0.048025,0.041640,-0.997978,0.012533,-0.005324,0.002418,23.411316,26.193701,-35.575901,,,,,,,
1508183853.500099,-0.048237,-0.041562,3.050430,0.002877,-0.038638,0.006694,-0.048177,0.041550,-0.997974,-0.004634,0.006836,0.001819,23.412975,26.189913,-35.577599,,,,,,,
1508183853.520116,-0.048766,-0.041480,3.050269,-0.001607,0.004020,-0.017380,-0.048705,0.041468,-0.997952,-0.005784,0.000356,0.005475,23.399910,26.187771,-35.587769,,,,,,,
1508183853.540132,-0.047895,-0.041616,3.049813,-0.001758,0.053024,-0.019157,-0.047836,0.041604,-0.997988,0.007232,0.004813,0.000445,23.391211,26.195223,-35.588009,,,,,,,
1508183853.560127,-0.046945,-0.041388,3.049824,0.015644,-0.013075,0.007380,-0.046887,0.041376,-0.998043,-0.003833,-0.002649,0.002056,23.433403,26.204071,-35.553715,,,,,,,
1508183853.580148,-0.047979,-0.040845,3.050044,0.021040,-0.026929,0.008643,-0.047921,0.040833,-0.998016,-0.017738,-0.003327,0.007095,23.434973,26.187716,-35.564732,,,,,,,
1508183853.600130,-0.048403,-0.040802,3.049662,-0.015679,0.038147,-0.035992,-0.048344,0.040791,-0.997997,-0.021724,0.000576,0.020809,23.383177,26.172470,-35.610023,,,,,,,
1508183853.620155,-0.047146,-0.041734,3.048754,-0.033948,0.061592,-0.038451,-0.047087,0.041721,-0.998019,0.017424,0.012432,0.000018,23.388340,26.217731,-35.573315,,,,,,,
1508183853.640167,-0.046257,-0.042060,3.048425,0.014506,-0.004529,-0.005539,-0.046199,0.042048,-0.998047,0.017589,0.011953,-0.000412,23.418444,26.249538,-35.530025,,,,,,,
1508183853.660158,-0.046705,-0.041761,3.048695,0.000806,-0.048249,0.019630,-0.046647,0.041749,-0.998039,0.007203,-0.005692,0.006599,23.429655,26.253626,-35.519611,,,,,,,
1508183853.680153,-0.047562,-0.042105,3.048933,-0.013243,-0.016263,0.006381,-0.047501,0.042093,-0.997984,-0.008529,0.003577,0.001478,23.408615,26.241049,-35.542770,,,,,,,
1508183853.700185,-0.047600,-0.042261,3.048872,-0.022994,0.011459,-0.005743,-0.047539,0.042248,-0.997976,-0.005623,-0.008419,0.000386,23.399750,26.251001,-35.541260,,,,,,,
1508183853.720182,-0.047388,-0.042409,3.048563,-0.014501,0.016815,-0.021821,-0.047327,0.042397,-0.997979,-0.011984,-0.004570,-0.008094,23.398918,26.257965,-35.536667,,,,,,,
1508183853.740181,-0.047141,-0.042514,3.047907,-0.009246,0.034948,-0.034884,-0.047081,0.042502,-0.997986,0.000755,0.008341,-0.017715,23.388388,26.279951,-35.527340,,,,,,,
1508183853.760204,-0.046257,-0.042438,3.047322,0.028259,0.026400,-0.026257,-0.046199,0.042426,-0.998031,0.005275,0.009271,-0.018098,23.405518,26.299967,-35.501236,,,,,,,
1508183853.780184,-0.045936,-0.041586,3.047135,0.045565,-0.006679,0.000867,-0.045880,0.041574,-0.998081,0.009763,-0.008905,0.000416,23.405972,26.293772,-35.505527,,,,,,,
1508183853.800209,-0.046243,-0.040492,3.047480,0.042449,-0.022685,0.014963,-0.046189,0.040481,-0.998112,-0.005615,-0.006530,0.010273,23.412298,26.237848,-35.542709,,,,,,,
1508183853.820222,-0.046975,-0.039655,3.047677,0.004922,-0.006681,0.006229,-0.046921,0.039644,-0.998112,-0.008850,-0.004122,0.006977,23.395155,26.197920,-35.583424,,,,,,,
1508183853.840212,-0.046885,-0.039841,3.047633,-0.004835,0.025298,-0.003824,-0.046830,0.039831,-0.998108,-0.008483,0.002665,0.006379,23.387320,26.193644,-35.591724,,,,,,,
1508183853.860223,-0.046840,-0.039599,3.047710,0.010274,-0.002431,0.010428,-0.046786,0.039588,-0.998120,0.000156,-0.001456,-0.005725,23.390932,26.194984,-35.588360,,,,,,,
1508183853.880223,-0.047966,-0.038797,3.048007,0.028627,-0.052511,0.014340,-0.047911,0.038787,-0.998098,-0.011812,-0.008605,0.001516,23.376167,26.168804,-35.617313,,,,,,,
1508183853.900240,-0.048815,-0.038407,3.048107,0.010233,-0.004535,-0.004470,-0.048760,0.038397,-0.998072,-0.011742,-0.001685,0.005946,23.351212,26.149570,-35.647797,,,,,,,
1508183853.920227,-0.048340,-0.038553,3.047758,-0.003915,0.059412,-0.019248,-0.048285,0.038544,-0.998090,0.008688,0.004563,0.005612,23.332680,26.147755,-35.661266,,,,,,,
1508183853.940259,-0.047157,-0.038300,3.047786,0.017779,-0.002443,0.014688,-0.047105,0.038291,-0.998156,0.020860,-0.002478,-0.002516,23.356529,26.154301,-35.640839,,,,,,,
1508183853.960237,-0.047767,-0.037671,3.048454,0.028725,-0.062140,0.035805,-0.047715,0.037662,-0.998151,-0.001082,-0.003772,0.001660,23.388269,26.123806,-35.642395,,,,,,,
1508183853.980253,-0.049625,-0.037190,3.048842,0.006003,-0.012009,0.004172,-0.049570,0.037182,-0.998078,-0.009726,0.001042,0.004457,23.327593,26.079638,-35.714428,,,,,,,
1508183854.000279,-0.049077,-0.037391,3.048526,-0.019933,0.048762,-0.019082,-0.049023,0.037382,-0.998098,-0.003315,-0.000304,0.004659,23.321224,26.083206,-35.715984,,,,,,,
1508183854.020284,-0.048411,-0.037610,3.048394,0.005962,0.002903,0.005022,-0.048358,0.037601,-0.998122,0.018451,0.009030,-0.004594,23.346537,26.104872,-35.683601,,,,,,,
1508183854.040271,-0.048429,-0.037129,3.048879,0.040439,-0.050414,0.029228,-0.048377,0.037121,-0.998139,-0.007043,-0.004025,0.008591,23.359871,26.087376,-35.687668,,,,,,,
1508183854.060297,-0.049446,-0.036417,3.049473,0.028543,-0.014183,0.023380,-0.049394,0.036409,-0.998116,-0.016036,-0.001573,0.010399,23.353575,26.054996,-35.715431,,,,,,,
1508183854.080286,-0.049620,-0.036198,3.049488,-0.010201,0.026367,-0.008101,-0.049567,0.036190,-0.998115,-0.011987,-0.008358,0.009361,23.340153,26.031841,-35.741081,,,,,,,
1508183854.100309,-0.049069,-0.036365,3.049277,-0.028375,0.022109,-0.006960,-0.049016,0.036357,-0.998136,0.003194,0.000157,-0.003649,23.341669,26.039124,-35.734791,,,,,,,
1508183854.120315,-0.048752,-0.037043,3.049321,-0.001480,-0.010948,0.007361,-0.048699,0.037035,-0.998127,0.010735,0.013029,-0.008465,23.351355,26.050398,-35.720242,,,,,,,
1508183854.140319,-0.049166,-0.036877,3.049818,0.032936,-0.044025,0.031274,-0.049113,0.036869,-0.998113,0.008219,0.000424,-0.006099,23.365597,26.061594,-35.702755,,,,,,,
1508183854.160316,-0.050499,-0.035902,3.050559,0.026508,-0.037641,0.034385,-0.050445,0.035895,-0.998082,-0.012192,-0.008383,0.009251,23.340620,26.006680,-35.759090,,,,,,,
1508183854.180334,-0.051399,-0.035543,3.050938,-0.003676,0.011413,0.010237,-0.051344,0.035536,-0.998049,-0.013719,-0.004698,0.009844,23.312464,25.973421,-35.801609,,,,,,,
1508183854.200336,-0.050995,-0.035803,3.050860,-0.025177,0.025303,-0.008075,-0.050940,0.035796,-0.998060,-0.004434,-0.005293,0.007200,23.308271,25.970821,-35.806217,,,,,,,
1508183854.220344,-0.050111,-0.036392,3.050885,0.003912,-0.022672,0.009660,-0.050057,0.036384,-0.998083,0.015663,0.007058,-0.004129,23.339863,25.997322,-35.766384,,,,,,,
1508183854.240330,-0.050734,-0.035926,3.051595,0.042659,-0.062161,0.043259,-0.050679,0.035918,-0.998069,0.013524,0.004686,-0.007058,23.343336,25.987297,-35.771408,,,,,,,
1508183854.260347,-0.051818,-0.035194,3.052322,0.037196,-0.041887,0.026974,-0.051763,0.035187,-0.998039,-0.008815,-0.001678,0.006172,23.333324,25.944302,-35.809132,,,,,,,
1508183854.280342,-0.052266,-0.034877,3.052447,-0.012386,0.042344,-0.007265,-0.052210,0.034869,-0.998027,-0.004339,0.000958,0.012325,23.314590,25.907370,-35.848053,,,,,,,
1508183854.300371,-0.051107,-0.035372,3.051935,-0.033881,0.054104,-0.025547,-0.051053,0.035364,-0.998070,0.003155,-0.003306,0.009315,23.323034,25.922771,-35.831417,,,,,,,
1508183854.320375,-0.050388,-0.035587,3.051811,0.008119,0.000761,0.007187,-0.050335,0.035580,-0.998098,0.015057,0.007374,0.000876,23.358122,25.950680,-35.788338,,,,,,,
1508183854.340355,-0.050815,-0.035086,3.052244,0.022165,-0.029098,0.021471,-0.050762,0.035079,-0.998095,-0.008122,-0.001662,0.010897,23.366114,25.928535,-35.799168,,,,,,,
1508183854.360390,-0.051205,-0.034921,3.052368,-0.003711,0.008243,-0.004642,-0.051151,0.034914,-0.998080,-0.010601,-0.001695,0.009891,23.353628,25.912992,-35.818562,,,,,,,
1508183854.380373,-0.050748,-0.035277,3.052046,-0.019857,0.029571,-0.014536,-0.050694,0.035270,-0.998091,0.009740,0.003091,-0.000307,23.347189,25.915833,-35.820705,,,,,,,
1508183854.400403,-0.049596,-0.035828,3.052115,0.005996,0.002879,0.014622,-0.049544,0.035821,-0.998129,0.012664,0.010139,-0.016046,23.379320,25.944317,-35.779106,,,,,,,
1508183854.420409,-0.049870,-0.035383,3.052678,0.031821,-0.030178,0.028944,-0.049818,0.035375,-0.998132,0.006987,0.004939,-0.007865,23.398670,25.935452,-35.772881,,,,,,,
1508183854.440401,-0.049913,-0.034909,3.053164,0.023104,0.010326,0.017700,-0.049862,0.034902,-0.998146,-0.002705,0.000911,0.004005,23.401119,25.911812,-35.788410,,,,,,,
1508183854.460396,-0.049266,-0.034335,3.053476,0.016646,0.022049,0.016469,-0.049217,0.034328,-0.998198,0.011818,-0.005016,0.005461,23.427382,25.873894,-35.798660,,,,,,,
1508183854.480397,-0.048940,-0.033566,3.054077,0.051036,-0.008886,0.033952,-0.048893,0.033560,-0.998240,0.008015,-0.001501,0.007441,23.463837,25.835587,-35.802448,,,,,,,
1508183854.500431,-0.049725,-0.032377,3.054900,0.041536,-0.046179,0.039832,-0.049678,0.032371,-0.998241,-0.007893,-0.006096,0.015758,23.470558,25.790926,-35.830231,,,,,,,
1508183854.520423,-0.051121,-0.032090,3.055230,-0.007968,0.005041,-0.000327,-0.051073,0.032085,-0.998179,-0.022581,-0.003536,0.004909,23.433249,25.743069,-35.889019,,,,,,,
1508183854.540446,-0.050324,-0.032764,3.054933,-0.008217,0.067927,-0.019366,-0.050276,0.032758,-0.998198,0.000044,0.012378,-0.019365,23.425905,25.760403,-35.881378,,,,,,,
1508183854.560426,-0.049404,-0.032155,3.054497,0.052910,0.021045,-0.020865,-0.049359,0.032149,-0.998264,0.002835,0.004335,-0.016949,23.445415,25.774284,-35.858654,,,,,,,
1508183854.580452,-0.049842,-0.031020,3.054282,0.042240,0.018899,-0.013362,-0.049797,0.031015,-0.998278,-0.017616,0.003973,-0.000639,23.448292,25.731981,-35.887146,,,,,,,
1508183854.600439,-0.049396,-0.030538,3.053599,0.024890,0.060511,-0.045941,-0.049352,0.030533,-0.998315,-0.016688,0.004837,-0.000297,23.439207,25.724501,-35.898441,,,,,,,
1508183854.620451,-0.048321,-0.029920,3.052812,0.029221,0.056225,-0.034153,-0.048281,0.029915,-0.998386,0.003801,-0.001152,-0.007016,23.441376,25.730404,-35.892799,,,,,,,
1508183854.640449,-0.047283,-0.029197,3.052394,0.025109,0.021036,-0.014446,-0.047245,0.029192,-0.998457,0.003788,-0.001315,-0.002306,23.471684,25.718594,-35.881451,,,,,,,
1508183854.660482,-0.046935,-0.028710,3.052558,0.036001,-0.004603,0.021105,-0.046899,0.028706,-0.998487,0.005730,0.002666,-0.006625,23.484991,25.705971,-35.881786,,,,,,,
1508183854.680483,-0.047488,-0.027850,3.053190,0.056494,-0.046176,0.033422,-0.047452,0.027847,-0.998485,-0.002551,-0.000015,-0.007695,23.496910,25.674231,-35.896709,,,,,,,
1508183854.700477,-0.049056,-0.026863,3.053839,0.036094,-0.032309,0.024706,-0.049019,0.026859,-0.998437,-0.019264,-0.001423,0.007027,23.466320,25.605751,-35.965565,,,,,,,
1508183854.720501,-0.049876,-0.026867,3.053962,0.004872,0.000775,-0.003474,-0.049838,0.026864,-0.998396,-0.010541,0.009757,0.014311,23.431147,25.585093,-36.003178,,,,,,,
1508183854.740480,-0.049702,-0.026835,3.053611,0.035802,0.013589,-0.022877,-0.049664,0.026832,-0.998406,-0.002705,0.014886,0.013573,23.421761,25.593479,-36.003326,,,,,,,
1508183854.760505,-0.049425,-0.025966,3.053341,0.028401,-0.002413,-0.009843,-0.049388,0.025963,-0.998442,0.013682,-0.013070,0.029021,23.417007,25.589191,-36.009468,,,,,,,
1508183854.780520,-0.048756,-0.025108,3.053404,0.007125,-0.023745,0.008609,-0.048721,0.025106,-0.998497,0.024170,-0.012243,0.033714,23.430622,25.557482,-36.023121,,,,,,,
1508183854.800508,-0.048877,-0.025175,3.053846,-0.029120,-0.047210,0.029236,-0.048842,0.025173,-0.998489,0.031127,-0.010753,0.028763,23.442471,25.544077,-36.024925,,,,,,,
1508183854.820531,-0.048670,-0.026211,3.054590,-0.040863,-0.044030,0.040929,-0.048634,0.026208,-0.998473,0.020955,0.009376,0.000151,23.464502,25.545927,-36.009266,,,,,,,
1508183854.840538,-0.048814,-0.027069,3.055468,-0.034409,-0.048302,0.047384,-0.048777,0.027066,-0.998443,0.017389,0.001498,-0.006272,23.485682,25.560398,-35.985184,,,,,,,
1508183854.860535,-0.049426,-0.028196,3.056442,-0.033341,-0.048301,0.047383,-0.049386,0.028192,-0.998382,0.004800,0.011298,-0.013184,23.500441,25.567890,-35.970222,,,,,,,
1508183854.880531,-0.050104,-0.029175,3.057167,-0.025949,-0.032294,0.032217,-0.050062,0.029171,-0.998320,0.002150,0.006825,-0.002748,23.494909,25.586266,-35.960770,,,,,,,
1508183854.900557,-0.050128,-0.030048,3.057577,-0.034690,0.008225,0.013509,-0.050085,0.030043,-0.998293,0.003515,0.010637,0.000246,23.496895,25.595877,-35.952629,,,,,,,
1508183854.920564,-0.049531,-0.030926,3.057804,-0.029375,0.023132,0.016488,-0.049487,0.030921,-0.998296,0.010715,0.005944,0.003041,23.520845,25.629129,-35.913254,,,,,,,
1508183854.940569,-0.048368,-0.031305,3.058605,-0.026953,-0.030201,0.054580,-0.048326,0.031300,-0.998341,0.015748,-0.005376,-0.000225,23.581612,25.635626,-35.868744,,,,,,,
1508183854.960575,-0.049297,-0.031889,3.059907,-0.038618,-0.050465,0.068745,-0.049252,0.031884,-0.998277,0.002483,-0.005685,0.004060,23.593342,25.622503,-35.870407,,,,,,,
1508183854.980583,-0.049966,-0.032829,3.061039,-0.050572,-0.008882,0.050023,-0.049918,0.032823,-0.998214,-0.012262,0.001127,0.000564,23.590734,25.615248,-35.877304,,,,,,,
1508183855.000588,-0.050356,-0.033761,3.061810,-0.032428,-0.003542,0.040336,-0.050306,0.033754,-0.998163,-0.002687,-0.006289,-0.005590,23.607399,25.632540,-35.853981,,,,,,,
1508183855.020573,-0.050871,-0.034124,3.062740,-0.021557,-0.044055,0.055843,-0.050820,0.034118,-0.998125,-0.000892,-0.009047,-0.009611,23.610874,25.634165,-35.850533,,,,,,,
1508183855.040601,-0.052089,-0.034352,3.063966,-0.014017,-0.055784,0.060273,-0.052035,0.034345,-0.998055,-0.013944,-0.004560,-0.008400,23.608137,25.619173,-35.863052,,,,,,,
1508183855.060606,-0.054455,-0.034772,3.064740,-0.022767,-0.024836,0.029974,-0.054395,0.034765,-0.997914,-0.023272,-0.000235,-0.008479,23.549999,25.593681,-35.919434,,,,,,,
1508183855.080613,-0.054976,-0.035172,3.065080,-0.022865,-0.004575,0.017950,-0.054914,0.035165,-0.997872,-0.019213,-0.004281,-0.013374,23.532579,25.598389,-35.927494,,,,,,,
1508183855.100619,-0.055718,-0.035313,3.065417,0.010386,-0.032279,0.017261,-0.055655,0.035305,-0.997826,-0.016306,0.004947,-0.024269,23.509130,25.601355,-35.940727,,,,,,,
1508183855.120625,-0.057494,-0.034995,3.065595,0.039224,-0.031196,0.002295,-0.057427,0.034988,-0.997736,-0.024772,0.001572,-0.001684,23.468983,25.581324,-35.981209,,,,,,,
1508183855.140632,-0.058841,-0.034283,3.065485,0.015586,-0.007741,-0.006558,-0.058773,0.034276,-0.997683,-0.020024,-0.003301,0.010088,23.409956,25.562487,-36.033009,,,,,,,
1508183855.160633,-0.059367,-0.033825,3.065250,0.014489,-0.007726,-0.015088,-0.059298,0.033818,-0.997667,-0.017820,-0.006734,0.009310,23.388876,25.556734,-36.050774,,,,,,,
1508183855.180641,-0.060862,-0.032850,3.064843,0.011346,-0.040731,-0.025270,-0.060792,0.032844,-0.997610,-0.024398,-0.010062,0.015356,23.328789,25.535347,-36.104820,,,,,,,
1508183855.200650,-0.062308,-0.032343,3.064077,0.002680,-0.024717,-0.043624,-0.062235,0.032337,-0.997537,-0.012334,-0.007191,0.016306,23.249580,25.527489,-36.161430,,,,,,,
1508183855.220633,-0.062737,-0.032465,3.063125,-0.013414,-0.016189,-0.049063,-0.062663,0.032460,-0.997507,0.003108,0.001384,0.006845,23.206228,25.538546,-36.181461,,,,,,,
1508183855.240639,-0.062619,-0.032633,3.062321,-0.022962,-0.022614,-0.029770,-0.062545,0.032627,-0.997509,0.014709,-0.002903,0.000103,23.170990,25.576473,-36.177254,,,,,,,
1508183855.260668,-0.063156,-0.033070,3.062076,-0.012064,-0.061016,-0.003630,-0.063079,0.033064,-0.997461,0.016738,0.002779,-0.005164,23.157877,25.594488,-36.172909,,,,,,,
1508183855.280672,-0.064356,-0.033233,3.062074,0.000776,-0.061018,-0.003639,-0.064276,0.033227,-0.997379,0.001242,0.005607,-0.001248,23.136950,25.604336,-36.179333,,,,,,,
1508183855.300667,-0.065253,-0.033538,3.061910,-0.010100,-0.011998,-0.012872,-0.065170,0.033532,-0.997311,-0.004242,0.003242,-0.001957,23.077795,25.617744,-36.207611,,,,,,,
1508183855.320688,-0.065413,-0.033401,3.061502,0.006952,0.001863,-0.021617,-0.065330,0.033395,-0.997305,-0.002190,-0.003930,0.007620,23.059498,25.630596,-36.210171,,,,,,,
1508183855.340694,-0.065058,-0.032962,3.060942,0.020775,0.022117,-0.030451,-0.064977,0.032956,-0.997342,0.001577,-0.004560,0.016904,23.053167,25.630470,-36.214294,,,,,,,
1508183855.360699,-0.064328,-0.032256,3.060427,-0.004826,0.004001,-0.022705,-0.064250,0.032250,-0.997413,0.019420,-0.018105,0.028891,23.054352,25.626760,-36.216164,,,,,,,
1508183855.380702,-0.063633,-0.032000,3.060275,-0.007960,-0.004575,0.000881,-0.063557,0.031995,-0.997465,0.018834,-0.010526,0.021467,23.074041,25.618057,-36.209782,,,,,,,
1508183855.400697,-0.063547,-0.031894,3.060285,-0.028234,-0.020551,0.003261,-0.063472,0.031889,-0.997474,0.021404,-0.020383,0.022834,23.085405,25.612619,-36.206387,,,,,,,
1508183855.420718,-0.063033,-0.032214,3.060530,-0.059212,-0.023760,0.016126,-0.062959,0.032209,-0.997496,0.018784,0.000781,-0.004579,23.100103,25.612074,-36.197395,,,,,,,
1508183855.440724,-0.062939,-0.033269,3.060868,-0.030354,-0.005669,0.022240,-0.062863,0.033263,-0.997468,0.016614,0.005616,-0.012267,23.112799,25.628452,-36.177696,,,,,,,
1508183855.460731,-0.062374,-0.033690,3.061262,-0.001551,0.018835,0.017598,-0.062298,0.033683,-0.997489,0.012463,0.007378,-0.016671,23.148632,25.648157,-36.140800,,,,,,,
1508183855.480737,-0.060980,-0.034070,3.061782,0.003829,0.020945,0.029292,-0.060906,0.034064,-0.997562,0.010964,0.012201,-0.007763,23.205976,25.640648,-36.109337,,,,,,,
1508183855.500743,-0.060402,-0.034215,3.062428,0.022025,0.019873,0.030360,-0.060330,0.034209,-0.997592,0.007305,0.018022,-0.005170,23.238016,25.634617,-36.093014,,,,,,,
1508183855.520750,-0.059804,-0.034110,3.063063,0.028395,0.031598,0.025920,-0.059733,0.034103,-0.997632,-0.002721,0.017991,0.004407,23.279230,25.631031,-36.068989,,,,,,,
1508183855.540748,-0.059411,-0.034393,3.063519,0.020828,0.043326,0.019350,-0.059341,0.034387,-0.997645,-0.006912,0.010199,0.011302,23.317591,25.610298,-36.058941,,,,,,,
1508183855.560761,-0.058555,-0.034075,3.063849,0.029377,0.044393,0.017195,-0.058488,0.034069,-0.997707,-0.006683,0.007435,0.011348,23.344751,25.601021,-36.047955,,,,,,,
1508183855.580747,-0.058131,-0.033745,3.064366,0.011266,0.029462,0.028088,-0.058065,0.033739,-0.997743,-0.006480,0.000151,0.026887,23.376820,25.579214,-36.042648,,,,,,,
1508183855.600763,-0.057839,-0.034257,3.064837,-0.025186,0.046524,0.022537,-0.057772,0.034250,-0.997742,-0.006864,0.005148,0.025589,23.405924,25.567343,-36.032181,,,,,,,
1508183855.620781,-0.056600,-0.035251,3.065304,-0.036972,0.059295,0.029824,-0.056535,0.035244,-0.997778,0.004396,0.007282,0.011481,23.450302,25.587631,-35.988899,,,,,,,
1508183855.640779,-0.055976,-0.036029,3.066084,0.002824,0.008121,0.046531,-0.055911,0.036022,-0.997786,-0.004804,0.004307,0.002836,23.497452,25.609646,-35.942459,,,,,,,
1508183855.660782,-0.056941,-0.036177,3.067105,-0.000333,-0.007866,0.048898,-0.056873,0.036169,-0.997726,-0.023709,0.009500,0.008087,23.514452,25.580885,-35.951820,,,,,,,
1508183855.680800,-0.057126,-0.036890,3.067582,-0.030564,0.040153,0.009837,-0.057056,0.036881,-0.997690,-0.027066,0.015960,0.008584,23.512098,25.577356,-35.955872,,,,,,,
1508183855.700777,-0.055837,-0.037990,3.067245,-0.040538,0.109467,-0.021050,-0.055768,0.037981,-0.997721,-0.017627,0.012846,0.007777,23.518276,25.602081,-35.934227,,,,,,,
1508183855.720811,-0.053058,-0.039138,3.067104,-0.037114,0.068933,0.008326,-0.052992,0.039128,-0.997828,0.023207,0.002803,0.010676,23.613115,25.677267,-35.818199,,,,,,,
1508183855.740817,-0.052292,-0.039350,3.067886,-0.006777,-0.009988,0.052100,-0.052228,0.039339,-0.997860,0.004727,-0.007220,0.027569,23.683794,25.681793,-35.768253,,,,,,,
1508183855.760825,-0.052527,-0.039769,3.069017,-0.039990,0.004931,0.052975,-0.052461,0.039759,-0.997831,-0.006835,-0.007196,0.027799,23.696215,25.667156,-35.770535,,,,,,,
1508183855.780829,-0.052529,-0.041057,3.069605,-0.075442,0.025227,0.028182,-0.052461,0.041045,-0.997779,-0.002761,-0.004439,0.005302,23.726276,25.678621,-35.742367,,,,,,,
1508183855.800837,-0.052263,-0.042588,3.070045,-0.075395,0.004995,0.024210,-0.052192,0.042575,-0.997729,-0.003625,-0.002811,-0.003186,23.741325,25.708906,-35.710587,,,,,,,
1508183855.820843,-0.052373,-0.043922,3.070425,-0.062558,0.002867,0.021032,-0.052299,0.043908,-0.997666,-0.008721,-0.001061,-0.013717,23.749538,25.746872,-35.677761,,,,,,,
1508183855.840848,-0.052578,-0.045347,3.070650,-0.045480,0.002888,0.008223,-0.052499,0.045332,-0.997591,-0.004767,0.014864,-0.023267,23.758667,25.792410,-35.638767,,,,,,,
1508183855.860855,-0.052328,-0.046228,3.070505,-0.023185,0.030650,-0.011439,-0.052249,0.046211,-0.997564,-0.000486,0.002648,-0.015329,23.757942,25.835033,-35.608368,,,,,,,
1508183855.880861,-0.051204,-0.046620,3.070247,-0.025372,0.048757,-0.009567,-0.051126,0.046603,-0.997604,0.010766,-0.004809,-0.009064,23.767315,25.847820,-35.592827,,,,,,,
1508183855.900867,-0.049590,-0.046598,3.070497,-0.018769,0.023129,0.022788,-0.049516,0.046581,-0.997687,0.020463,-0.011898,0.003866,23.837561,25.864948,-35.533363,,,,,,,
1508183855.920874,-0.048868,-0.046121,3.071242,-0.019700,-0.000345,0.043389,-0.048796,0.046105,-0.997744,0.011549,-0.020882,0.008135,23.889219,25.836586,-35.519299,,,,,,,
1508183855.940878,-0.048671,-0.046463,3.072202,-0.043216,-0.002479,0.048769,-0.048599,0.046446,-0.997738,0.007782,-0.019301,0.007549,23.909100,25.818306,-35.519215,,,,,,,
1508183855.960885,-0.048616,-0.047033,3.073110,-0.051749,-0.013125,0.046798,-0.048543,0.047015,-0.997714,0.001958,-0.004184,-0.006253,23.950148,25.806065,-35.500454,,,,,,,
1508183855.980892,-0.048766,-0.047874,3.074061,-0.026086,-0.002487,0.050889,-0.048691,0.047856,-0.997667,-0.002960,0.001415,-0.016158,23.972307,25.808264,-35.483891,,,,,,,
1508183856.000899,-0.048962,-0.047940,3.074904,0.004897,-0.002466,0.035937,-0.048886,0.047922,-0.997654,-0.007098,-0.002374,-0.015072,23.982391,25.804159,-35.480061,,,,,,,
1508183856.020881,-0.049224,-0.047506,3.075393,-0.009124,0.008279,0.018678,-0.049148,0.047489,-0.997662,-0.002686,-0.000965,-0.007526,23.989944,25.762102,-35.505508,,,,,,,
1508183856.040910,-0.048877,-0.047948,3.075506,-0.017789,0.023232,0.000341,-0.048802,0.047930,-0.997658,0.002049,0.005461,-0.005135,23.998188,25.763540,-35.498898,,,,,,,
1508183856.060852,-0.048002,-0.048559,3.075607,-0.001744,0.032801,0.007654,-0.047927,0.048540,-0.997671,0.004043,0.011961,-0.016215,24.022858,25.783352,-35.467812,,,,,,,
1508183856.080859,-0.047580,-0.048878,3.075812,0.006899,0.008292,0.011202,-0.047505,0.048859,-0.997675,-0.002315,0.009659,-0.009130,24.060377,25.792866,-35.435444,,,,,,,
1508183856.100866,-0.047388,-0.048891,3.075945,0.018608,0.017895,0.001457,-0.047314,0.048872,-0.997684,-0.003391,0.015078,-0.007306,24.067596,25.790537,-35.432240,,,,,,,
1508183856.120873,-0.046760,-0.048770,3.076039,0.020730,0.031728,0.008719,-0.046687,0.048751,-0.997719,0.007320,0.013429,0.003304,24.075781,25.790888,-35.426426,,,,,,,
1508183856.140878,-0.046114,-0.048738,3.076405,0.034775,-0.001320,0.020918,-0.046043,0.048719,-0.997751,0.002113,-0.000196,0.016901,24.124613,25.785194,-35.397335,,,,,,,
1508183856.160870,-0.046398,-0.048453,3.077049,0.001683,-0.015184,0.032873,-0.046327,0.048434,-0.997751,-0.006209,0.003385,0.024286,24.131519,25.760551,-35.410568,,,,,,,
1508183856.180892,-0.046422,-0.049039,3.077552,-0.027356,0.022128,0.021690,-0.046350,0.049019,-0.997722,-0.006141,0.004768,0.019969,24.135395,25.748579,-35.416634,,,,,,,
1508183856.200897,-0.045854,-0.049980,3.077899,-0.012400,0.028518,0.020520,-0.045781,0.049959,-0.997701,0.002141,0.005934,0.000952,24.165037,25.776892,-35.375801,,,,,,,
1508183856.220903,-0.046137,-0.049893,3.078517,0.017837,-0.047153,0.036523,-0.046064,0.049872,-0.997693,0.004194,0.003335,0.001034,24.181475,25.773605,-35.366966,,,,,,,
1508183856.240887,-0.047004,-0.049948,3.079106,-0.017627,-0.017279,0.016923,-0.046928,0.049928,-0.997650,-0.019265,0.001922,0.011352,24.166721,25.750019,-35.394215,,,,,,,
1508183856.260898,-0.047198,-0.051048,3.078826,-0.049057,0.071222,-0.024857,-0.047119,0.051026,-0.997585,-0.002091,0.009048,0.000118,24.156698,25.776024,-35.382126,,,,,,,
1508183856.280922,-0.045271,-0.051864,3.078406,-0.038211,0.041361,-0.007371,-0.045195,0.051841,-0.997632,0.018568,-0.002524,-0.013339,24.188185,25.827368,-35.323128,,,,,,,
1508183856.300903,-0.045296,-0.052000,3.078800,0.008188,-0.047141,0.031199,-0.045220,0.051977,-0.997624,0.013420,-0.001119,-0.017681,24.213316,25.836380,-35.299313,,,,,,,
1508183856.320935,-0.046581,-0.051489,3.079338,0.017674,-0.025730,0.016942,-0.046502,0.051467,-0.997591,-0.023948,-0.009169,-0.006513,24.201824,25.803343,-35.331345,,,,,,,
1508183856.340941,-0.047013,-0.051281,3.079192,-0.001854,0.026539,-0.017923,-0.046934,0.051258,-0.997582,-0.011202,-0.000492,-0.017616,24.171705,25.790365,-35.361423,,,,,,,
1508183856.360931,-0.046523,-0.051407,3.078627,-0.001892,0.027625,-0.028602,-0.046445,0.051384,-0.997598,-0.002292,0.004921,-0.022787,24.168077,25.800034,-35.356850,,,,,,,
1508183856.380953,-0.046307,-0.051197,3.078142,0.043108,0.013754,-0.023103,-0.046230,0.051175,-0.997619,-0.005116,0.007831,-0.017151,24.169436,25.816277,-35.344063,,,,,,,
1508183856.400959,-0.046347,-0.050241,3.077783,0.068805,0.010547,-0.020943,-0.046272,0.050219,-0.997666,-0.004738,0.005490,0.005616,24.159189,25.798456,-35.364071,,,,,,,
1508183856.420966,-0.046070,-0.049126,3.077366,0.047374,0.016950,-0.024219,-0.045998,0.049106,-0.997734,-0.000511,0.002331,0.014076,24.154282,25.783693,-35.378189,,,,,,,
1508183856.440972,-0.045624,-0.048555,3.077075,0.028193,0.007336,-0.008070,-0.045554,0.048536,-0.997782,0.004813,-0.005323,0.021540,24.156578,25.755011,-35.397511,,,,,,,
1508183856.460971,-0.046170,-0.048161,3.077167,0.012315,-0.035299,0.006422,-0.046100,0.048142,-0.997776,-0.006054,0.001647,0.018986,24.154625,25.738409,-35.410915,,,,,,,
1508183856.480985,-0.047167,-0.048100,3.077072,0.002625,-0.035261,-0.011699,-0.047094,0.048081,-0.997733,-0.010248,0.002700,0.011465,24.137508,25.735449,-35.424736,,,,,,,
1508183856.500989,-0.047280,-0.048575,3.076716,-0.011420,-0.000086,-0.020729,-0.047207,0.048556,-0.997704,0.009380,0.007337,0.007165,24.089737,25.753473,-35.444149,,,,,,,
1508183856.520985,-0.046913,-0.048987,3.076370,-0.011422,0.009485,-0.012337,-0.046839,0.048968,-0.997701,0.013621,0.007123,0.005560,24.089968,25.772934,-35.429840,,,,,,,
1508183856.541003,-0.046598,-0.049158,3.076448,0.003708,-0.014002,0.012518,-0.046525,0.049138,-0.997708,0.017930,0.007396,-0.000629,24.113199,25.793074,-35.399372,,,,,,,
1508183856.561008,-0.046537,-0.049185,3.076858,0.005913,-0.028926,0.019130,-0.046464,0.049165,-0.997709,0.001786,0.003051,0.010878,24.120281,25.781633,-35.402882,,,,,,,
1508183856.581016,-0.046738,-0.049076,3.077212,-0.013401,-0.009748,0.019933,-0.046665,0.049056,-0.997705,0.003498,-0.006332,0.012598,24.122822,25.771889,-35.408241,,,,,,,
1508183856.601022,-0.047109,-0.049340,3.077580,-0.018697,-0.029983,0.018098,-0.047035,0.049320,-0.997675,0.000358,-0.006534,0.008585,24.126606,25.768381,-35.408218,,,,,,,
1508183856.621026,-0.048121,-0.049515,3.077857,-0.030516,-0.021445,0.010519,-0.048043,0.049495,-0.997618,-0.014975,-0.005397,0.003172,24.105053,25.767906,-35.423244,,,,,,,
1508183856.641035,-0.048364,-0.050069,3.077586,-0.036094,0.019101,-0.023121,-0.048285,0.050048,-0.997579,-0.003763,-0.001418,-0.005458,24.080639,25.783812,-35.428272,,,,,,,
1508183856.661016,-0.047735,-0.050509,3.077058,-0.017899,0.021222,-0.019966,-0.047656,0.050488,-0.997587,0.007357,-0.001995,-0.013430,24.079159,25.801319,-35.416534,,,,,,,
1508183856.681036,-0.047117,-0.050374,3.076935,0.000422,-0.001189,-0.000461,-0.047039,0.050353,-0.997623,0.007138,0.002610,-0.013378,24.098104,25.823339,-35.387581,,,,,,,
1508183856.701053,-0.047060,-0.049956,3.077026,0.009011,-0.002271,0.007012,-0.046984,0.049935,-0.997647,0.001894,-0.009957,-0.010349,24.108929,25.812611,-35.388039,,,,,,,
1508183856.721059,-0.047028,-0.049889,3.077182,-0.011325,0.003054,0.010149,-0.046953,0.049868,-0.997652,0.000306,-0.009509,-0.009276,24.111679,25.801065,-35.394585,,,,,,,
1508183856.741064,-0.047246,-0.049755,3.077384,0.029331,0.005173,0.010088,-0.047170,0.049734,-0.997648,-0.007929,-0.001761,-0.003207,24.116434,25.794138,-35.396393,,,,,,,
1508183856.761072,-0.047424,-0.048785,3.077633,0.026151,-0.002288,0.012331,-0.047349,0.048765,-0.997687,-0.007231,-0.014784,0.002524,24.115492,25.770775,-35.414047,,,,,,,
1508183856.781078,-0.047624,-0.048283,3.077804,0.001524,-0.003335,0.005966,-0.047551,0.048264,-0.997702,-0.009563,-0.015366,0.002478,24.112848,25.742559,-35.436363,,,,,,,
1508183856.801082,-0.047839,-0.048214,3.077771,0.005719,0.013728,-0.004947,-0.047765,0.048196,-0.997695,-0.004237,0.006736,-0.007981,24.100006,25.719627,-35.461742,,,,,,,
1508183856.821089,-0.047476,-0.047791,3.077588,0.032436,0.017995,-0.011427,-0.047404,0.047773,-0.997733,-0.000905,0.005953,-0.005395,24.103521,25.718801,-35.459949,,,,,,,
1508183856.841096,-0.047301,-0.047180,3.077540,0.020800,-0.011856,0.002876,-0.047231,0.047162,-0.997770,0.010793,-0.004758,0.001127,24.108316,25.709511,-35.463425,,,,,,,
1508183856.861102,-0.047434,-0.046797,3.077817,0.008027,-0.020400,0.015806,-0.047364,0.046780,-0.997782,-0.002242,-0.000591,0.003321,24.116379,25.677574,-35.481079,,,,,,,
1508183856.881079,-0.047819,-0.046630,3.078065,0.019742,-0.008673,0.009229,-0.047749,0.046613,-0.997771,-0.009945,0.002627,0.001983,24.109457,25.667124,-35.493343,,,,,,,
1508183856.901115,-0.048002,-0.046302,3.078100,0.019658,0.004138,-0.004819,-0.047932,0.046285,-0.997778,-0.006969,0.004069,0.006155,24.104721,25.657232,-35.503708,,,,,,,
1508183856.921120,-0.047786,-0.046445,3.077966,0.021753,0.015859,-0.007123,-0.047716,0.046428,-0.997781,0.003100,0.009159,0.002405,24.098991,25.654568,-35.509521,,,,,,,
1508183856.941127,-0.047710,-0.045798,3.078003,0.028327,-0.021451,0.006209,-0.047642,0.045782,-0.997815,0.007694,-0.002218,0.002148,24.105158,25.648724,-35.509560,,,,,,,
1508183856.961134,-0.048232,-0.045394,3.078208,0.013344,-0.018256,0.008306,-0.048163,0.045378,-0.997808,-0.001565,-0.002165,0.007604,24.097321,25.622829,-35.533569,,,,,,,
1508183856.981139,-0.048686,-0.045275,3.078186,0.000395,0.003078,-0.005855,-0.048617,0.045260,-0.997792,-0.000516,0.000211,0.006901,24.076189,25.611198,-35.556267,,,,,,,
1508183857.001145,-0.048670,-0.045369,3.078015,-0.000667,-0.004370,-0.010012,-0.048601,0.045353,-0.997788,0.000017,0.003383,0.000519,24.075100,25.614653,-35.554516,,,,,,,
1508183857.021151,-0.048780,-0.045338,3.077861,0.017520,-0.003309,-0.010041,-0.048711,0.045323,-0.997784,-0.000026,0.007427,-0.007694,24.068182,25.625851,-35.551132,,,,,,,
1508183857.041131,-0.048531,-0.044832,3.077590,0.019588,0.014811,-0.015636,-0.048464,0.044817,-0.997819,0.004350,-0.004244,0.000733,24.062111,25.617170,-35.561497,,,,,,,
1508183857.061164,-0.048030,-0.044578,3.077304,-0.000732,0.013747,-0.013473,-0.047964,0.044564,-0.997854,0.009955,-0.004494,0.008658,24.067648,25.611250,-35.562012,,,,,,,
1508183857.081146,-0.047233,-0.044999,3.077238,0.004744,-0.013974,0.000787,-0.047168,0.044984,-0.997874,0.021488,0.009918,0.005244,24.091648,25.620728,-35.538925,,,,,,,
1508183857.101175,-0.046955,-0.044818,3.077662,0.034813,-0.022552,0.026480,-0.046890,0.044803,-0.997895,0.014557,0.006863,0.012482,24.113375,25.614437,-35.528725,,,,,,,
1508183857.121182,-0.046888,-0.044198,3.078157,0.019789,-0.017203,0.017884,-0.046825,0.044183,-0.997925,0.013561,-0.004831,0.019761,24.128336,25.584883,-35.539860,,,,,,,
1508183857.141189,-0.046604,-0.044386,3.078482,-0.027340,-0.007591,0.012448,-0.046541,0.044372,-0.997930,0.023150,-0.002334,0.014196,24.137365,25.572247,-35.542824,,,,,,,
1508183857.161195,-0.045099,-0.045303,3.078979,-0.035839,-0.008682,0.030598,-0.045037,0.045287,-0.997958,0.047067,0.006593,-0.003949,24.182842,25.586428,-35.501682,,,,,,,
1508183857.181200,-0.044260,-0.045843,3.080135,-0.001345,-0.048182,0.072732,-0.044199,0.045827,-0.997971,0.078012,0.014247,-0.010421,24.278996,25.590097,-35.433342,,,,,,,
1508183857.201184,-0.045730,-0.045045,3.082267,0.072799,-0.099429,0.121403,-0.045668,0.045030,-0.997941,0.096327,0.011839,-0.004866,24.279963,25.568607,-35.448189,,,,,,,
1508183857.221213,-0.047465,-0.044090,3.084883,0.019262,-0.066433,0.141224,-0.047401,0.044076,-0.997903,0.160820,-0.042672,0.028207,24.270992,25.419083,-35.561687,,,,,,,
1508183857.241219,-0.048144,-0.045394,3.089384,-0.089465,-0.053904,0.281876,-0.048075,0.045378,-0.997812,0.193980,-0.036803,-0.005651,24.335186,25.344873,-35.570782,,,,,,,
1508183857.261226,-0.050638,-0.047118,3.095784,-0.046066,-0.186131,0.345606,-0.050560,0.047101,-0.997610,0.199028,-0.026211,-0.018122,24.384676,25.305710,-35.564777,,,,,,,
1508183857.281231,-0.054206,-0.047720,3.104179,-0.004945,-0.207689,0.467446,-0.054118,0.047702,-0.997394,0.198680,-0.064487,-0.003643,24.473827,25.075195,-35.666664,,,,,,,
1508183857.301223,-0.057916,-0.049459,3.113931,-0.078764,-0.174718,0.502212,-0.057813,0.049439,-0.997102,0.208067,-0.063157,-0.015532,24.559467,24.867931,-35.752804,,,,,,,
1508183857.321245,-0.059439,-0.052340,3.124343,-0.124007,-0.051121,0.532367,-0.059322,0.052317,-0.996867,0.203091,-0.053125,-0.021581,24.628792,24.773073,-35.770969,,,,,,,
1508183857.341250,-0.057943,-0.054461,3.135184,-0.038734,0.089417,0.557988,-0.057824,0.054434,-0.996842,0.220483,-0.011832,-0.039337,24.994850,24.484331,-35.715816,,,,,,,
1508183857.361256,-0.054888,-0.054519,-3.136721,0.066015,0.136247,0.564695,-0.054779,0.054492,-0.997010,0.230331,-0.007175,-0.023543,25.346615,24.200134,-35.661564,,,,,,,
1508183857.381263,-0.050381,-0.053047,-3.124292,0.125996,0.215944,0.655196,-0.050289,0.053022,-0.997326,0.220669,-0.015043,-0.027668,25.537243,24.028097,-35.641891,,,,,,,
1508183857.401268,-0.045193,-0.050948,-3.109795,0.144508,0.209363,0.748046,-0.045119,0.050926,-0.997683,0.205488,-0.014397,-0.025724,26.241165,23.374868,-35.564884,,,,,,,
1508183857.421257,-0.039924,-0.048925,-3.094174,0.124337,0.189069,0.779278,-0.039866,0.048905,-0.998008,0.178431,0.016525,-0.000406,26.759121,22.869247,-35.507626,,,,,,,
1508183857.441282,-0.035347,-0.047559,-3.078694,0.079326,0.190186,0.759036,-0.035300,0.047541,-0.998245,0.165442,0.025030,0.006546,27.003819,22.617197,-35.483810,,,,,,,
1508183857.461279,-0.028650,-0.047233,-3.063403,0.019222,0.273254,0.779203,-0.028614,0.047216,-0.998475,0.106297,-0.000020,-0.002609,27.732224,21.919102,-35.359886,,,,,,,
1508183857.481276,-0.022172,-0.046868,-3.046407,0.054826,0.279445,0.875053,-0.022146,0.046851,-0.998656,0.073110,0.033868,0.013000,28.334160,21.433146,-35.180111,,,,,,,
1508183857.501281,-0.015783,-0.045690,-3.028956,0.082589,0.265652,0.844310,-0.015766,0.045674,-0.998832,0.075183,0.049419,0.016608,28.620504,21.162050,-35.112377,,,,,,,
1508183857.521306,-0.010690,-0.045682,-3.013524,-0.048107,0.181776,0.721933,-0.010679,0.045666,-0.998900,0.086103,0.057697,0.056578,29.403046,20.384947,-34.925053,,,,,,,
1508183857.541310,-0.004062,-0.049051,-2.999830,-0.223245,0.398110,0.697601,-0.004057,0.049032,-0.998789,0.029508,0.072764,-0.003683,29.853176,20.058632,-34.731594,,,,,,,
1508183857.561320,0.004764,-0.052958,-2.984215,-0.148861,0.352032,0.825104,0.004757,0.052933,-0.998587,0.011982,0.085998,-0.039804,30.138916,19.922705,-34.562637,,,,,,,
1508183857.581325,0.008964,-0.052764,-2.967650,0.091649,0.061189,0.812080,0.008951,0.052740,-0.998568,-0.049433,0.101145,-0.035825,30.924570,19.284901,-34.228764,,,,,,,
1508183857.601321,0.008958,-0.049894,-2.950644,0.114797,-0.083841,0.888807,0.008947,0.049873,-0.998715,-0.123235,0.025825,-0.013080,31.234995,18.679037,-34.282841,,,,,,,
1508183857.621338,0.007799,-0.048480,-2.932215,0.020704,-0.071103,0.922815,0.007790,0.048461,-0.998795,-0.190376,0.011857,-0.010467,31.367300,18.361126,-34.333744,,,,,,,
1508183857.641343,0.009510,-0.048337,-2.915996,-0.007338,0.142357,0.719275,0.009499,0.048318,-0.998787,-0.335411,0.110007,-0.005455,31.798170,17.497234,-34.388481,,,,,,,
1508183857.661349,0.016980,-0.048259,-2.904488,0.011384,0.461269,0.513106,0.016960,0.048240,-0.998692,-0.296287,0.101418,0.006016,32.197327,17.102213,-34.215363,,,,,,,
1508183857.681357,0.027455,-0.047450,-2.894398,0.052064,0.449552,0.507913,0.027421,0.047432,-0.998498,-0.276978,0.079353,-0.012061,32.449799,16.933558,-34.060387,,,,,,,
1508183857.701362,0.032725,-0.044346,-2.885208,0.196014,0.139750,0.399270,0.032687,0.044331,-0.998482,-0.341006,0.104045,-0.011009,33.089775,16.366758,-33.720032,,,,,,,
1508183857.721347,0.035845,-0.039317,-2.880170,0.243368,0.183825,0.192799,0.035810,0.039307,-0.998585,-0.386182,0.038680,0.050191,33.281376,16.004217,-33.705486,,,,,,,
1508183857.741375,0.040887,-0.036228,-2.877697,0.085505,0.266086,0.093625,0.040849,0.036220,-0.998509,-0.358507,0.006245,0.047291,33.377838,15.867514,-33.674713,,,,,,,
1508183857.761381,0.046528,-0.036575,-2.877121,-0.064704,0.286572,-0.011057,0.046480,0.036567,-0.998250,-0.309664,0.004433,0.035695,33.586487,15.725678,-33.533501,,,,,,,
1508183857.781384,0.052854,-0.038056,-2.877839,-0.062799,0.329248,-0.044732,0.052792,0.038046,-0.997881,-0.256542,0.073511,0.023607,33.879917,15.794240,-33.204483,,,,,,,
1508183857.801391,0.057530,-0.038645,-2.879089,-0.006811,0.170591,-0.082993,0.057455,0.038635,-0.997600,-0.211874,0.076675,0.026241,33.977734,15.828415,-33.088058,,,,,,,
1508183857.821399,0.059245,-0.039191,-2.880676,-0.044920,0.051256,-0.064173,0.059165,0.039181,-0.997479,-0.132835,0.007847,0.028378,34.096432,15.924541,-32.919403,,,,,,,
1508183857.841384,0.059408,-0.041016,-2.881585,-0.108906,-0.006280,-0.049429,0.059323,0.041005,-0.997396,-0.123685,0.030895,0.008856,34.095074,16.009302,-32.879673,,,,,,,
1508183857.861387,0.059072,-0.043083,-2.882949,-0.084432,-0.014708,-0.099441,0.058982,0.043069,-0.997329,-0.125099,0.044791,0.000412,34.084217,16.062868,-32.864796,,,,,,,
1508183857.881414,0.059165,-0.044785,-2.885685,-0.079413,0.030154,-0.160875,0.059071,0.044770,-0.997249,-0.103413,0.026427,-0.017155,34.026283,16.257687,-32.829018,,,,,,,
1508183857.901418,0.059745,-0.046920,-2.889109,-0.100922,0.039795,-0.185523,0.059644,0.046902,-0.997117,-0.081037,0.039081,-0.040129,34.001732,16.386414,-32.790428,,,,,,,
1508183857.921431,0.059701,-0.048535,-2.892640,-0.046107,-0.029482,-0.173897,0.059595,0.048516,-0.997043,-0.075708,0.047508,-0.045224,33.974792,16.528515,-32.747002,,,,,,,
1508183857.941436,0.058022,-0.049231,-2.895829,-0.021247,-0.088122,-0.150673,0.057919,0.049211,-0.997108,-0.110959,0.031234,-0.043008,33.851791,16.747149,-32.763298,,,,,,,
1508183857.961416,0.056171,-0.049581,-2.898110,0.005716,-0.099955,-0.096140,0.056073,0.049561,-0.997196,-0.165585,0.045898,-0.067639,33.753613,16.845575,-32.814095,,,,,,,
1508183857.981449,0.053749,-0.048137,-2.900548,0.123333,-0.110563,-0.133395,0.053661,0.048119,-0.997399,-0.188411,0.060905,-0.060172,33.701599,16.872595,-32.853649,,,,,,,
1508183858.001455,0.051443,-0.045004,-2.903352,0.172572,-0.114838,-0.132303,0.051368,0.044989,-0.997666,-0.240013,0.041116,-0.051757,33.471497,15.886765,-19.771505,,,,,,,
1508183858.021456,0.047634,-0.041621,-2.907956,0.179807,-0.222076,-0.308826,0.047575,0.041609,-0.998001,-0.256880,0.065767,-0.027024,33.392910,15.912373,-19.883480,,,,,,,
1508183858.041468,0.043901,-0.038910,-2.917251,0.138128,-0.104477,-0.515230,0.043854,0.038901,-0.998280,-0.266128,0.054346,-0.000560,33.254490,16.013969,-20.033333,,,,,,,
1508183858.061473,0.042147,-0.036809,-2.928255,0.129352,-0.079887,-0.559298,0.042106,0.036801,-0.998435,-0.233527,0.072635,-0.002419,32.941525,16.437399,-20.206703,,,,,,,
1508183858.081467,0.038305,-0.034117,-2.940619,0.175517,-0.220347,-0.640468,0.038273,0.034110,-0.998685,-0.228581,0.073922,0.028806,32.762077,16.680002,-20.299431,,,,,,,
1508183858.101487,0.033022,-0.030745,-2.953621,0.195957,-0.255508,-0.638907,0.033000,0.030740,-0.998982,-0.230632,0.075889,0.036916,32.536011,16.938692,-20.448271,,,,,,,
1508183858.121493,0.027854,-0.027781,-2.967285,0.148600,-0.242568,-0.711567,0.027839,0.027778,-0.999226,-0.134514,0.092858,0.041753,32.048435,17.458706,-20.778215,,,,,,,
1508183858.141482,0.021313,-0.025920,-2.982253,0.065262,-0.334068,-0.756029,0.021304,0.025917,-0.999437,-0.101596,0.019677,0.052751,31.771049,17.763407,-20.945280,,,,,,,
1508183858.161506,0.012540,-0.026566,-2.996946,-0.058399,-0.450224,-0.717997,0.012536,0.026563,-0.999569,-0.087914,0.011553,0.032833,31.349157,18.217218,-21.189766,,,,,,,
1508183858.181511,0.004289,-0.027352,-3.010654,0.006726,-0.350199,-0.672579,0.004287,0.027348,-0.999617,-0.106979,0.071773,0.013441,30.797905,18.788651,-21.496944,,,,,,,
1508183858.201502,-0.003381,-0.025969,-3.025099,0.109314,-0.402241,-0.762537,-0.003380,0.025966,-0.999657,-0.019417,0.055348,0.012154,30.380383,19.197628,-21.728470,,,,,,,
1508183858.221524,-0.014233,-0.023976,-3.042744,0.058872,-0.569075,-0.960545,-0.014229,0.023973,-0.999611,0.006203,0.047956,0.025902,30.380383,19.197628,-21.728470,,,,,,,
1508183858.241522,-0.024284,-0.024134,-3.063043,-0.079789,-0.431491,-1.027480,-0.024274,0.024132,-0.999414,0.000593,-0.012032,0.053918,29.221292,20.239809,-22.363121,,,,,,,
1508183858.261508,-0.031964,-0.026292,-3.083698,-0.173222,-0.317487,-1.027997,-0.031948,0.026289,-0.999144,0.128002,0.006396,0.041289,28.769575,20.722214,-22.506544,,,,,,,
1508183858.281530,-0.039387,-0.030447,-3.103873,-0.273471,-0.357011,-0.960172,-0.039359,0.030443,-0.998761,0.171699,-0.004854,0.036618,28.335442,21.221563,-22.591835,,,,,,,
1508183858.301549,-0.048495,-0.035321,-3.120864,-0.272592,-0.466009,-0.787984,-0.048445,0.035313,-0.998201,0.248778,0.027568,-0.011000,27.475761,22.177578,-22.735008,,,,,,,
1508183858.321536,-0.058543,-0.039179,-3.138634,-0.232532,-0.453904,-0.954595,-0.058465,0.039169,-0.997521,0.393914,0.000015,0.006691,27.041397,22.597481,-22.842058,,,,,,,
1508183858.341562,-0.066871,-0.043403,3.125285,-0.311708,-0.352876,-0.860033,-0.066758,0.043389,-0.996825,0.462418,-0.053872,0.001021,26.562420,23.059763,-22.941843,,,,,,,
1508183858.361567,-0.075514,-0.049839,3.112683,-0.374376,-0.426110,-0.452664,-0.075348,0.049818,-0.995912,0.472779,-0.054457,-0.070632,25.742128,23.905136,-23.011522,,,,,,,
1508183858.381564,-0.086525,-0.055175,3.108534,-0.217397,-0.598459,-0.048286,-0.086286,0.055147,-0.994743,0.390073,-0.020098,-0.100640,25.455738,24.153193,-23.071011,,,,,,,
1508183858.401580,-0.099246,-0.057607,3.109048,-0.075687,-0.629615,0.066154,-0.098919,0.057575,-0.993428,0.347744,-0.022373,-0.108256,25.227524,24.250874,-23.218744,,,,,,,
1508183858.421586,-0.108520,-0.059129,3.110399,-0.076595,-0.330269,0.058614,-0.108118,0.059095,-0.992380,0.205622,-0.005567,-0.124090,24.869560,24.261091,-23.591257,,,,,,,
1508183858.441583,-0.111473,-0.059690,3.110455,0.018658,-0.064885,-0.024212,-0.111044,0.059654,-0.992023,0.163870,0.043572,-0.116131,24.795204,24.269978,-23.660282,,,,,,,
1508183858.461599,-0.110710,-0.057198,3.109514,0.171049,0.097085,-0.070394,-0.110304,0.057167,-0.992253,0.140196,0.039482,-0.099361,24.762844,24.271185,-23.692909,,,,,,,
1508183858.481605,-0.107611,-0.053212,3.108456,0.196420,0.184460,-0.086608,-0.107252,0.053187,-0.992808,0.105482,-0.011546,-0.021627,24.788166,24.204809,-23.734297,,,,,,,
1508183858.501590,-0.102969,-0.049399,3.106408,0.157442,0.288953,-0.131813,-0.102661,0.049379,-0.993490,0.096604,-0.022692,0.046468,24.821238,24.174309,-23.730820,,,,,,,
1508183858.521617,-0.096490,-0.046682,3.105105,0.113835,0.309004,-0.031839,-0.096236,0.046665,-0.994264,0.105452,-0.014454,0.055665,24.905771,24.161711,-23.654959,,,,,,,
1508183858.541623,-0.092768,-0.044561,3.106268,0.111604,0.113818,0.092552,-0.092543,0.044546,-0.994712,0.110152,-0.013037,0.068335,25.055260,24.094362,-23.565622,,,,,,,
1508183858.561618,-0.091259,-0.043379,3.109207,0.028484,0.066842,0.156207,-0.091047,0.043365,-0.994902,0.104123,-0.033203,0.067076,25.128338,24.014290,-23.569546,,,,,,,
1508183858.581636,-0.087843,-0.044982,3.112237,-0.113238,0.231980,0.160317,-0.087641,0.044967,-0.995137,0.121577,-0.030196,0.055439,25.245249,23.932981,-23.527273,,,,,,,
1508183858.601633,-0.081721,-0.047931,3.115200,-0.132764,0.322528,0.161151,-0.081537,0.047912,-0.995518,0.219903,0.011551,-0.012569,25.492058,23.902666,-23.290777,,,,,,,
1508183858.621646,-0.074671,-0.050326,3.119132,-0.086551,0.346850,0.245001,-0.074507,0.050304,-0.995951,0.267028,-0.013897,-0.040594,25.670004,23.878206,-23.119801,,,,,,,
1508183858.641632,-0.053408,-0.049726,3.126541,-0.037669,0.260333,0.386975,-0.053317,0.049705,-0.997340,0.261462,-0.036720,-0.053029,25.877262,23.812246,-22.956202,,,,,,,
1508183858.661659,-0.047190,-0.050358,3.135680,0.021333,0.327215,0.493658,-0.047113,0.050337,-0.997620,0.228708,-0.040816,-0.057494,26.704643,23.452694,-22.371323,,,,,,,
1508183858.681661,-0.038209,-0.049247,-3.137488,0.100022,0.492311,0.491204,-0.038154,0.049227,-0.998059,0.235358,-0.021472,-0.040256,27.107391,23.159189,-22.191984,,,,,,,
1508183858.701673,-0.026336,-0.047387,-3.127830,0.106047,0.602072,0.469348,-0.026304,0.047369,-0.998531,0.270933,-0.007513,-0.013874,27.569929,22.847023,-21.944372,,,,,,,
1508183858.721678,-0.012480,-0.046294,-3.118402,0.030823,0.735200,0.491999,-0.012467,0.046277,-0.998851,0.291702,-0.009397,0.017070,28.058371,22.552874,-21.627268,,,,,,,
1508183858.741671,0.003318,-0.046229,-3.106038,-0.010183,0.732636,0.713858,0.003314,0.046212,-0.998926,0.315228,-0.012017,0.001795,28.483578,22.319098,-21.311659,,,,,,,
1508183858.761686,0.015082,-0.046193,-3.087703,0.007818,0.414570,1.025552,0.015065,0.046176,-0.998820,0.286220,-0.016681,-0.010885,28.951990,22.012850,-20.996660,,,,,,,
1508183858.781697,0.021876,-0.044999,-3.065527,0.049263,0.263090,1.129016,0.021852,0.044984,-0.998749,0.088027,0.024459,0.033005,29.867277,21.094528,-20.654528,,,,,,,
1508183858.801692,0.028640,-0.044198,-3.043549,-0.027097,0.315448,1.057938,0.028608,0.044184,-0.998614,0.072847,0.021108,0.047396,30.302633,20.574774,-20.544394,,,,,,,
1508183858.821710,0.038008,-0.046102,-3.022751,-0.177407,0.496554,1.068220,0.037959,0.046086,-0.998216,0.061544,0.008449,0.029817,30.723539,20.099380,-20.389263,,,,,,,
1508183858.841716,0.048448,-0.048967,-2.998383,-0.181730,0.380024,1.278908,0.048371,0.048947,-0.997629,-0.036500,0.041476,-0.070287,31.661394,19.164175,-19.847755,,,,,,,
1508183858.861697,0.054636,-0.049906,-2.972996,-0.071190,0.206480,1.220563,0.054541,0.049885,-0.997265,-0.130148,0.076015,-0.078037,32.118179,18.594501,-19.654770,,,,,,,
1508183858.881729,0.058841,-0.047980,-2.950073,0.069811,0.161938,1.103810,0.058740,0.047962,-0.997120,-0.155221,0.093258,-0.060787,32.630810,17.829977,-19.518328,,,,,,,
1508183858.901734,0.064727,-0.045521,-2.929189,0.049015,0.256863,1.047001,0.064615,0.045505,-0.996872,-0.229303,0.049756,-0.046798,33.198654,16.912683,-19.376616,,,,,,,
1508183858.921725,0.068572,-0.043816,-2.908415,0.011983,0.068410,1.004977,0.068452,0.043802,-0.996692,-0.306077,0.110663,-0.053433,33.524940,16.375708,-19.275827,,,,,,,
1508183858.941748,0.070530,-0.042125,-2.890962,0.022986,0.098652,0.795535,0.070409,0.042112,-0.996629,-0.363164,0.139956,-0.013549,33.863903,15.711049,-19.236475,,,,,,,
1508183858.961752,0.073846,-0.040379,-2.877263,0.024403,0.156514,0.625153,0.073719,0.040368,-0.996462,-0.355625,0.095557,-0.005476,34.207779,15.052373,-19.154554,,,,,,,
1508183858.981753,0.077392,-0.039698,-2.866307,-0.002593,0.134342,0.529528,0.077254,0.039687,-0.996221,-0.406219,0.070008,-0.044504,34.385532,14.750618,-19.070850,,,,,,,
1508183859.001763,0.080261,-0.038212,-2.856981,0.079375,0.134584,0.398308,0.080116,0.038203,-0.996053,-0.432564,0.110128,-0.051081,34.540562,14.477607,-18.999777,,,,,,,
1508183859.021765,0.083982,-0.035299,-2.852697,0.133945,0.205408,0.131731,0.083831,0.035292,-0.995855,-0.359512,0.096818,0.010976,34.776161,14.060046,-18.883240,,,,,,,
1508183859.041751,0.088551,-0.033662,-2.851026,0.022515,0.209778,0.091231,0.088385,0.033655,-0.995518,-0.282462,0.048315,0.014515,34.861065,13.971902,-18.791889,,,,,,,
1508183859.061786,0.091170,-0.033731,-2.848663,-0.013320,0.071221,0.133787,0.090992,0.033724,-0.995280,-0.267505,0.061918,0.014766,34.938236,13.916460,-18.689432,,,,,,,
1508183859.081776,0.090474,-0.032231,-2.847114,0.118365,-0.073461,0.022759,0.090304,0.032225,-0.995393,-0.292162,0.103364,0.038362,35.009346,13.787914,-18.651596,,,,,,,
1508183859.101779,0.089859,-0.030237,-2.848720,0.069532,0.004590,-0.115890,0.089697,0.030233,-0.995510,-0.202612,0.007105,0.060299,34.988976,13.762805,-18.708281,,,,,,,
1508183859.121777,0.090031,-0.031371,-2.852116,-0.108380,0.010124,-0.197942,0.089865,0.031365,-0.995460,-0.099234,-0.011239,0.043006,34.965466,13.805155,-18.721031,,,,,,,
1508183859.141810,0.089740,-0.034802,-2.855955,-0.157521,-0.022876,-0.202758,0.089565,0.034795,-0.995373,-0.075420,0.033870,0.013424,34.886345,14.071304,-18.670412,,,,,,,
1508183859.161807,0.088056,-0.037262,-2.859319,-0.076881,-0.115640,-0.168417,0.087882,0.037253,-0.995434,-0.053000,0.057504,-0.007175,34.833561,14.210445,-18.663586,,,,,,,
1508183859.181822,0.085070,-0.038526,-2.863036,-0.038411,-0.141137,-0.207530,0.084904,0.038517,-0.995644,-0.042988,0.057385,-0.009498,34.764969,14.321650,-18.706432,,,,,,,
1508183859.201827,0.082871,-0.039987,-2.867057,-0.070673,-0.078295,-0.199886,0.082710,0.039976,-0.995772,-0.020821,0.035006,-0.020906,34.605747,14.558405,-18.818562,,,,,,,
1508183859.221818,0.081422,-0.041944,-2.870980,-0.083593,-0.062294,-0.209706,0.081260,0.041932,-0.995811,-0.028205,0.055069,-0.027307,34.542107,14.683385,-18.838366,,,,,,,
1508183859.241842,0.080456,-0.043428,-2.875000,-0.031227,-0.026114,-0.197474,0.080293,0.043414,-0.995825,-0.041338,0.059064,-0.027933,34.478752,14.815052,-18.851336,,,,,,,
1508183859.261847,0.078909,-0.043111,-2.879083,0.063110,-0.097484,-0.209305,0.078754,0.043098,-0.995962,-0.056247,0.057168,-0.035791,34.362061,15.031507,-18.893003,,,,,,,
1508183859.281843,0.076023,-0.041723,-2.883154,0.099726,-0.158245,-0.192457,0.075884,0.041711,-0.996244,-0.124727,0.066245,-0.020358,34.283794,15.116632,-18.967125,,,,,,,
1508183859.301859,0.073149,-0.039518,-2.888063,0.139970,-0.102706,-0.271133,0.073027,0.039507,-0.996547,-0.162001,0.068082,0.001659,34.195366,15.188820,-19.068811,,,,,,,
1508183859.321865,0.072159,-0.037692,-2.894826,0.093336,-0.002327,-0.364308,0.072045,0.037683,-0.996689,-0.219689,0.049582,0.024308,34.015732,15.404708,-19.216343,,,,,,,
1508183859.341861,0.072097,-0.037181,-2.903153,0.034208,0.007426,-0.440112,0.071985,0.037173,-0.996713,-0.237939,0.061079,0.013726,33.928417,15.578448,-19.230635,,,,,,,
1508183859.361878,0.070492,-0.037570,-2.913374,0.014845,-0.093520,-0.563391,0.070384,0.037561,-0.996813,-0.246028,0.077704,-0.004011,33.781448,15.874094,-19.247591,,,,,,,
1508183859.381883,0.068849,-0.038407,-2.925816,-0.002751,-0.027299,-0.649642,0.068744,0.038397,-0.996895,-0.275836,0.085260,0.000405,33.508286,16.363754,-19.314903,,,,,,,
1508183859.401889,0.067842,-0.039154,-2.939650,0.017415,-0.039961,-0.712386,0.067738,0.039144,-0.996935,-0.236058,0.077051,0.004366,33.336960,16.698200,-19.325115,,,,,,,
1508183859.421894,0.065165,-0.039671,-2.954042,0.027368,-0.148619,-0.711884,0.065068,0.039661,-0.997092,-0.223332,0.069516,0.010703,33.073917,17.165779,-19.367367,,,,,,,
1508183859.441900,0.060496,-0.039727,-2.967154,0.047186,-0.232967,-0.616841,0.060411,0.039716,-0.997383,-0.232561,0.053972,0.020531,32.690693,17.715031,-19.522789,,,,,,,
1508183859.461886,0.054347,-0.039498,-2.978840,0.045467,-0.321479,-0.567572,0.054278,0.039487,-0.997745,-0.223620,0.027621,0.011996,32.455753,17.995403,-19.657885,,,,,,,
1508183859.481916,0.046600,-0.039645,-2.991419,0.015213,-0.365951,-0.698060,0.046546,0.039635,-0.998129,-0.200309,0.057884,0.029349,32.205067,18.260237,-19.825245,,,,,,,
1508183859.501920,0.038842,-0.040036,-3.007543,0.017961,-0.359287,-0.834645,0.038801,0.040025,-0.998445,-0.138441,0.020354,0.041215,31.586168,18.939850,-20.180166,,,,,,,
1508183859.521912,0.029461,-0.040726,-3.023312,-0.026310,-0.511741,-0.766290,0.029432,0.040715,-0.998737,-0.102750,-0.009770,0.037388,31.236378,19.320995,-20.362484,,,,,,,
1508183859.541934,0.017590,-0.043036,-3.039353,-0.146271,-0.554172,-0.840226,0.017573,0.043023,-0.998920,-0.082759,0.014579,0.036365,30.719730,19.818396,-20.668150,,,,,,,
1508183859.561939,0.007423,-0.047082,-3.057926,-0.210317,-0.398353,-0.979991,0.007415,0.047065,-0.998864,-0.001403,0.043893,0.044763,30.005505,20.570831,-20.979836,,,,,,,
1508183859.581942,-0.000779,-0.051696,-3.078076,-0.230715,-0.401497,-1.003388,-0.000778,0.051672,-0.998664,0.146926,0.005197,-0.020639,29.579891,21.085875,-21.072704,,,,,,,
1508183859.601953,-0.012412,-0.057321,-3.097354,-0.333724,-0.592285,-0.934433,-0.012391,0.057290,-0.998281,0.170961,-0.008233,-0.039058,28.971886,21.770306,-21.220898,,,,,,,
1508183859.621958,-0.025853,-0.063081,-3.115741,-0.258851,-0.564639,-0.918896,-0.025799,0.063039,-0.997678,0.194484,0.077449,-0.024814,28.134447,22.600170,-21.478550,,,,,,,
1508183859.641940,-0.036245,-0.066164,-3.135612,-0.162218,-0.429168,-1.024364,-0.036157,0.066116,-0.997157,0.363916,-0.024795,-0.037298,27.646549,23.067696,-21.614645,,,,,,,
1508183859.661971,-0.046953,-0.069868,3.128636,-0.280088,-0.517950,-0.825723,-0.046821,0.069811,-0.996461,0.476676,-0.116946,-0.073974,26.985233,23.695217,-21.771011,,,,,,,
1508183859.681977,-0.060062,-0.075299,3.115383,-0.279862,-0.662293,-0.557054,-0.059856,0.075228,-0.995368,0.422542,-0.036577,-0.103539,26.230793,24.356504,-21.962450,,,,,,,
1508183859.701968,-0.072626,-0.078302,3.106582,-0.128788,-0.505082,-0.353651,-0.072340,0.078222,-0.994308,0.332166,0.017009,-0.082093,25.828804,24.631107,-22.131975,,,,,,,
1508183859.721990,-0.080870,-0.079425,3.101731,-0.059107,-0.341430,-0.165209,-0.080527,0.079341,-0.993590,0.246299,-0.021297,-0.079439,25.450233,24.852253,-22.322500,,,,,,,
1508183859.741996,-0.085899,-0.079667,3.100121,0.010364,-0.190408,-0.053357,-0.085521,0.079582,-0.993153,0.138194,0.009468,-0.063320,25.323240,24.914455,-22.397465,,,,,,,
1508183859.761996,-0.087581,-0.078246,3.097535,0.076665,0.014413,-0.209925,-0.087201,0.078166,-0.993119,0.105603,0.019933,-0.004058,25.123035,24.974096,-22.555944,,,,,,,
1508183859.782008,-0.084581,-0.076891,3.092043,0.006249,0.234000,-0.275968,-0.084231,0.076815,-0.993481,0.120913,-0.042208,0.004147,25.032419,25.056442,-22.565361,,,,,,,
1508183859.801987,-0.081130,-0.076852,3.088134,-0.002664,0.128295,-0.150737,-0.080802,0.076777,-0.993769,0.123465,-0.005610,-0.020391,25.001890,25.207600,-22.430456,,,,,,,
1508183859.821994,-0.079671,-0.075687,3.086001,0.078989,0.083414,-0.090435,-0.079359,0.075615,-0.993974,0.055708,-0.004158,0.003190,24.979794,25.257423,-22.399006,,,,,,,
1508183859.842010,-0.077587,-0.073814,3.084869,0.077971,0.112091,-0.048198,-0.077298,0.073747,-0.994277,0.050809,-0.010606,0.012069,24.978754,25.259445,-22.397882,,,,,,,
1508183859.862033,-0.075162,-0.072823,3.084450,0.034162,0.131202,-0.011122,-0.074893,0.072759,-0.994534,0.069857,-0.029973,0.014919,25.023361,25.245182,-22.364147,,,,,,,
1508183859.882011,-0.072075,-0.072288,3.084592,0.024493,0.170570,0.012840,-0.071824,0.072225,-0.994799,0.081224,-0.007619,0.016131,25.087242,25.232399,-22.306931,,,,,,,
1508183859.902038,-0.068227,-0.072182,3.085689,0.002219,0.185341,0.087283,-0.067997,0.072120,-0.995075,0.101902,-0.007834,0.021229,25.131395,25.223095,-22.267721,,,,,,,
1508183859.922052,-0.065540,-0.072255,3.088776,0.011414,0.078618,0.185857,-0.065323,0.072192,-0.995249,0.158371,0.012739,0.009913,25.318987,25.140802,-22.147955,,,,,,,
1508183859.942045,-0.063890,-0.072730,3.093332,-0.032219,0.078482,0.259467,-0.063678,0.072666,-0.995321,0.177447,-0.001377,0.013632,25.453529,25.033405,-22.115368,,,,,,,
1508183859.962065,-0.060831,-0.074672,3.100057,-0.095182,0.166646,0.392590,-0.060624,0.074603,-0.995369,0.193177,0.003812,0.006508,25.541611,24.972437,-22.082718,,,,,,,
1508183859.982070,-0.056626,-0.076231,3.109578,0.000474,0.161047,0.517356,-0.056432,0.076157,-0.995498,0.212773,0.028487,-0.031816,25.952984,24.704529,-21.903694,,,,,,,
1508183860.002078,-0.052552,-0.075630,3.120386,0.071129,0.172707,0.537394,-0.052378,0.075558,-0.995765,0.216990,-0.021481,-0.001153,26.200182,24.487530,-21.853016,,,,,,,
1508183860.022084,-0.046886,-0.075730,3.130746,-0.013913,0.302763,0.499317,-0.046735,0.075658,-0.996038,0.231259,-0.040150,0.009664,26.454044,24.253778,-21.807817,,,,,,,
1508183860.042088,-0.037902,-0.077380,3.140664,-0.086044,0.468924,0.516155,-0.037779,0.077302,-0.996292,0.288222,-0.039201,0.009582,27.027861,23.866350,-21.529865,,,,,,,
1508183860.062075,-0.027081,-0.079376,-3.129965,-0.059751,0.478110,0.713268,-0.026993,0.079293,-0.996486,0.304092,-0.006417,-0.009496,27.382511,23.668427,-21.298979,,,,,,,
1508183860.082102,-0.018450,-0.079719,-3.112994,0.031340,0.287016,0.911104,-0.018391,0.079634,-0.996655,0.290729,0.000429,-0.020618,27.922102,23.277027,-21.028057,,,,,,,
1508183860.102108,-0.012036,-0.079262,-3.093096,0.036090,0.253764,1.025677,-0.011998,0.079179,-0.996788,0.146352,-0.031251,-0.021065,28.328726,22.883842,-20.915449,,,,,,,
1508183860.122110,-0.003000,-0.078942,-3.072877,0.018255,0.445601,0.980256,-0.002991,0.078860,-0.996881,0.086914,0.008496,-0.023428,29.040634,22.139687,-20.739307,,,,,,,
1508183860.142121,0.008716,-0.078827,-3.053500,-0.008698,0.510593,0.977201,0.008689,0.078745,-0.996857,0.086190,-0.028132,-0.029861,29.657112,21.560764,-20.475159,,,,,,,
1508183860.162109,0.017575,-0.079724,-3.033662,-0.090343,0.257087,0.977740,0.017518,0.079640,-0.996670,0.062850,-0.035923,-0.054401,29.970798,21.272039,-20.319809,,,,,,,
1508183860.182105,0.024464,-0.081837,-3.014428,-0.116346,0.341292,0.955212,0.024380,0.081746,-0.996355,-0.073421,0.012447,-0.059630,30.775427,20.428902,-19.979393,,,,,,,
1508183860.202111,0.034460,-0.081262,-2.994775,0.074021,0.413612,0.989209,0.034339,0.081173,-0.996108,-0.114997,0.056553,-0.086762,31.166643,20.017159,-19.788803,,,,,,,
1508183860.222144,0.043193,-0.077781,-2.975696,0.144645,0.343417,0.925129,0.043050,0.077703,-0.996047,-0.074300,0.058848,-0.071275,31.972017,19.045105,-19.460657,,,,,,,
