timestamp(unix),attitude_roll(radians),attitude_pitch(radians),attitude_yaw(radians),rotation_rate_x(radians/s),rotation_rate_y(radians/s),rotation_rate_z(radians/s),gravity_x(G),gravity_y(G),gravity_z(G),user_acc_x(G),user_acc_y(G),user_acc_z(G),magnetic_field_x(microteslas),magnetic_field_y(microteslas),magnetic_field_z(microteslas),latitude(degree),longitude(degree),altitude(meter),speed(m/s),course(degree),timestamp(unix),User Mark
1508183985.348765,0.011357,-0.036922,-3.119957,0.005988,0.009338,-0.025216,0.011349,0.036914,-0.999254,0.012257,0.002194,-0.001005,12.829268,27.407658,-46.549778,,,,,,,
1508183985.368767,0.011592,-0.036649,-3.120232,0.024321,-0.015213,-0.003541,0.011584,0.036641,-0.999261,0.015851,0.006511,0.003458,12.828699,27.403128,-46.552601,,,,,,,
1508183985.388788,0.011569,-0.036254,-3.120006,0.032930,-0.010991,0.015585,0.011561,0.036246,-0.999276,0.011953,0.009683,0.004662,12.849946,27.388483,-46.555359,,,,,,,
1508183985.408796,0.011684,-0.036036,-3.119758,0.006119,0.001812,0.009022,0.011676,0.036029,-0.999283,0.006115,-0.003009,0.009247,12.858477,27.372473,-46.562424,,,,,,,
1508183985.428787,0.012129,-0.036047,-3.119565,-0.000285,-0.000321,0.012257,0.012121,0.036039,-0.999277,0.010493,0.001070,0.004007,12.875640,27.363289,-46.563076,,,,,,,
1508183985.448809,0.012161,-0.036010,-3.119244,0.007233,-0.002466,0.018680,0.012153,0.036002,-0.999278,0.006035,0.001885,0.004191,12.887442,27.362022,-46.560555,,,,,,,
1508183985.468791,0.012314,-0.035875,-3.118895,0.011438,0.017781,0.014118,0.012306,0.035867,-0.999281,-0.002113,0.003363,0.003706,12.901268,27.355522,-46.560547,,,,,,,
1508183985.488816,0.012754,-0.035638,-3.118514,0.011520,-0.001407,0.021860,0.012746,0.035630,-0.999284,0.005748,-0.003480,0.005403,12.933121,27.337917,-46.562050,,,,,,,
1508183985.508802,0.012648,-0.035380,-3.118126,0.005083,-0.000332,0.017584,0.012639,0.035373,-0.999294,-0.001028,-0.004230,0.008877,12.945520,27.325539,-46.565868,,,,,,,
1508183985.528819,0.012764,-0.035270,-3.117852,-0.005682,0.017786,0.014131,0.012756,0.035263,-0.999297,-0.005340,-0.008560,0.008681,12.949432,27.306805,-46.575768,,,,,,,
1508183985.548832,0.013069,-0.035252,-3.117584,0.000745,0.014591,0.013106,0.013060,0.035245,-0.999293,-0.000762,0.000567,0.001964,12.977865,27.303270,-46.569927,,,,,,,
1508183985.568850,0.013189,-0.035178,-3.117263,0.008283,-0.001390,0.013332,0.013180,0.035171,-0.999294,-0.000118,0.002854,0.001354,12.991406,27.298512,-46.568939,,,,,,,
1508183985.588834,0.013212,-0.035046,-3.116942,0.001857,0.004994,0.017509,0.013204,0.035039,-0.999299,-0.001882,-0.003240,0.006928,12.997853,27.289124,-46.572643,,,,,,,
1508183985.608842,0.013193,-0.035082,-3.116640,-0.017404,0.001809,0.014371,0.013184,0.035074,-0.999298,-0.007538,-0.002497,0.005981,13.011992,27.283777,-46.571827,,,,,,,
1508183985.628870,0.013040,-0.035507,-3.116399,-0.016367,0.006082,0.007911,0.013032,0.035499,-0.999285,-0.009843,0.001000,0.002886,13.016905,27.291437,-46.565971,,,,,,,
1508183985.648852,0.013134,-0.035678,-3.116363,0.009264,0.015674,0.001354,0.013125,0.035670,-0.999277,-0.007174,0.008367,-0.001455,13.008164,27.310747,-46.557091,,,,,,,
1508183985.668870,0.013227,-0.035463,-3.116270,0.005055,-0.002444,0.006952,0.013219,0.035456,-0.999284,-0.003133,0.002111,0.010362,13.018871,27.299919,-46.560444,,,,,,,
1508183985.688868,0.013188,-0.035567,-3.116215,-0.018545,0.010357,0.000386,0.013179,0.035560,-0.999281,-0.000286,-0.002921,0.005781,13.024610,27.297056,-46.560520,,,,,,,
1508183985.708873,0.013508,-0.035985,-3.116154,-0.029211,0.008212,0.008956,0.013499,0.035977,-0.999261,0.001241,0.000308,0.000497,13.030654,27.306208,-46.553463,,,,,,,
1508183985.728898,0.013053,-0.036332,-3.115832,0.006204,-0.018444,0.016780,0.013044,0.036324,-0.999255,-0.007719,0.000800,0.001345,13.036237,27.333454,-46.535904,,,,,,,
1508183985.748910,0.012696,-0.035984,-3.115647,-0.001374,0.000751,0.006910,0.012687,0.035976,-0.999272,-0.008537,-0.008373,0.005620,13.012737,27.313454,-46.554222,,,,,,,
1508183985.768894,0.012600,-0.036127,-3.115698,-0.024934,-0.009864,-0.008913,0.012592,0.036119,-0.999268,0.003217,-0.002534,-0.000350,13.009513,27.311174,-46.556461,,,,,,,
1508183985.788896,0.012402,-0.036594,-3.115731,-0.014222,-0.003495,0.000583,0.012393,0.036586,-0.999254,-0.004458,0.010549,-0.007216,12.998275,27.338558,-46.543522,,,,,,,
1508183985.808929,0.012469,-0.036345,-3.115876,0.001741,0.012505,-0.012456,0.012461,0.036337,-0.999262,-0.001520,-0.007772,-0.001120,12.997749,27.341434,-46.541985,,,,,,,
1508183985.828937,0.012647,-0.036572,-3.116150,-0.005767,0.013581,-0.016731,0.012638,0.036564,-0.999251,-0.002277,0.006908,0.001128,12.998353,27.334480,-46.545902,,,,,,,
1508183985.848943,0.013126,-0.036692,-3.116608,0.013488,0.008264,-0.023066,0.013117,0.036684,-0.999241,0.008536,0.002287,0.000126,13.000773,27.357603,-46.531635,,,,,,,
1508183985.868951,0.013574,-0.036401,-3.116811,0.000761,-0.007750,-0.002565,0.013565,0.036393,-0.999245,0.008805,-0.001634,0.003167,13.017255,27.348986,-46.532097,,,,,,,
1508183985.888957,0.013304,-0.036441,-3.116745,0.000807,-0.017348,0.002906,0.013295,0.036433,-0.999248,-0.001393,0.000737,0.005092,13.023232,27.347961,-46.531021,,,,,,,
1508183985.908963,0.013293,-0.036579,-3.116819,-0.000397,0.016760,-0.007185,0.013284,0.036570,-0.999243,0.002753,0.005101,0.007345,13.012731,27.348722,-46.533516,,,,,,,
1508183985.928968,0.013714,-0.036633,-3.116986,-0.007891,0.016764,-0.008245,0.013704,0.036624,-0.999235,0.003156,-0.000034,0.006529,13.017058,27.356201,-46.527908,,,,,,,
1508183985.948977,0.013986,-0.037009,-3.117254,-0.027163,0.010397,-0.017735,0.013976,0.037001,-0.999218,-0.004012,-0.003279,0.004497,13.031699,27.366360,-46.517834,,,,,,,
1508183985.968980,0.014137,-0.037521,-3.117518,-0.003600,0.009313,-0.011339,0.014126,0.037512,-0.999196,-0.000210,0.000742,0.005407,13.029989,27.400148,-46.498417,,,,,,,
1508183985.988990,0.014499,-0.037518,-3.117660,-0.001468,0.017824,-0.006133,0.014488,0.037510,-0.999191,0.001701,-0.000843,0.008591,13.036838,27.409443,-46.491020,,,,,,,
1508183986.008995,0.014842,-0.037553,-3.117738,-0.005682,0.002899,0.000484,0.014831,0.037544,-0.999185,0.002412,-0.007347,0.007928,13.056888,27.409861,-46.485146,,,,,,,
1508183986.029004,0.014517,-0.037310,-3.117657,-0.022723,-0.023726,-0.000183,0.014506,0.037301,-0.999199,-0.010661,-0.003229,0.002556,13.053957,27.407234,-46.487522,,,,,,,
1508183986.049010,0.013939,-0.037708,-3.117923,-0.029291,0.007201,-0.017687,0.013929,0.037699,-0.999192,-0.004499,-0.000788,-0.002593,13.046559,27.400141,-46.493778,,,,,,,
1508183986.069018,0.014572,-0.038373,-3.118410,-0.022966,0.030651,-0.025496,0.014561,0.038364,-0.999158,0.004085,0.004559,-0.008090,13.021925,27.444057,-46.474777,,,,,,,
1508183986.088941,0.015347,-0.038679,-3.118664,0.005006,0.001844,-0.004840,0.015335,0.038670,-0.999134,0.009583,-0.001972,-0.006450,13.045782,27.473698,-46.450569,,,,,,,
1508183986.108969,0.015245,-0.038334,-3.118533,-0.002377,-0.017358,0.010373,0.015233,0.038325,-0.999149,0.000575,-0.006022,-0.003109,13.059594,27.465509,-46.451530,,,,,,,
1508183986.128950,0.015032,-0.038682,-3.118313,-0.005613,-0.007772,0.011302,0.015020,0.038673,-0.999139,0.001109,0.008568,-0.013160,13.053310,27.461451,-46.455696,,,,,,,
1508183986.148983,0.015054,-0.038369,-3.118164,0.037165,-0.005641,0.005908,0.015043,0.038359,-0.999151,0.004641,-0.000823,-0.003275,13.053763,27.466053,-46.452847,,,,,,,
1508183986.168989,0.015070,-0.037074,-3.117853,0.035088,-0.010993,0.019849,0.015059,0.037066,-0.999199,0.002016,-0.013140,0.008126,13.064842,27.414656,-46.480087,,,,,,,
1508183986.188997,0.014518,-0.036190,-3.117412,0.014776,-0.015253,0.020992,0.014508,0.036182,-0.999240,-0.009701,-0.010898,0.010333,13.064400,27.367140,-46.508202,,,,,,,
1508183986.209003,0.014129,-0.035879,-3.117283,-0.013213,0.016755,-0.001843,0.014120,0.035871,-0.999257,-0.009359,-0.005369,0.009892,13.044510,27.330429,-46.535366,,,,,,,
1508183986.229010,0.014718,-0.036307,-3.117471,-0.005803,0.031688,-0.012728,0.014708,0.036299,-0.999233,0.002519,0.004030,-0.002675,13.052832,27.344904,-46.524529,,,,,,,
1508183986.249018,0.015360,-0.036127,-3.117646,0.012496,0.003973,-0.004876,0.015349,0.036119,-0.999230,0.009309,-0.001741,-0.001106,13.075586,27.351082,-46.514503,,,,,,,
1508183986.269022,0.015262,-0.035675,-3.117418,0.021196,-0.019506,0.016784,0.015251,0.035668,-0.999247,0.002846,-0.002984,0.002970,13.087438,27.329830,-46.523663,,,,,,,
1508183986.289012,0.014997,-0.035440,-3.117030,0.000824,-0.004590,0.017649,0.014987,0.035432,-0.999260,-0.001803,0.001158,0.005913,13.086128,27.305037,-46.538586,,,,,,,
1508183986.309037,0.015094,-0.035775,-3.116904,-0.013196,0.016746,0.003489,0.015084,0.035767,-0.999246,-0.001076,0.004806,-0.001913,13.086785,27.308836,-46.536171,,,,,,,
1508183986.329042,0.015459,-0.036298,-3.116907,0.009262,0.016747,0.000273,0.015448,0.036290,-0.999222,0.002084,0.013286,-0.005524,13.104198,27.333460,-46.516808,,,,,,,
1508183986.349050,0.015470,-0.035669,-3.116811,0.029707,-0.013100,0.008154,0.015459,0.035661,-0.999244,0.001905,-0.003877,0.005272,13.110030,27.343607,-46.509205,,,,,,,
1508183986.369058,0.015264,-0.035424,-3.116713,0.010344,0.011416,-0.000710,0.015254,0.035416,-0.999256,-0.005351,0.003692,0.003162,13.107146,27.302965,-46.533886,,,,,,,
1508183986.389064,0.015776,-0.035452,-3.116852,0.007045,0.032737,-0.008481,0.015766,0.035445,-0.999247,0.000958,0.003205,0.000025,13.119089,27.301550,-46.531353,,,,,,,
1508183986.409070,0.016266,-0.035485,-3.116966,0.002817,0.022073,-0.001925,0.016255,0.035478,-0.999238,-0.001393,0.005843,0.009248,13.126584,27.303413,-46.528145,,,,,,,
1508183986.429077,0.016449,-0.035314,-3.116929,0.017862,0.005016,0.002576,0.016438,0.035307,-0.999241,-0.000676,-0.001920,0.011998,13.152423,27.307898,-46.518211,,,,,,,
1508183986.449084,0.016384,-0.035023,-3.116880,0.000784,-0.006702,0.004891,0.016374,0.035016,-0.999253,-0.001374,-0.002820,0.005448,13.156425,27.286631,-46.529560,,,,,,,
1508183986.469090,0.016070,-0.035206,-3.116772,0.000773,-0.003507,0.004845,0.016060,0.035198,-0.999251,-0.005394,0.006428,0.003203,13.154322,27.283709,-46.531868,,,,,,,
1508183986.489096,0.016002,-0.035036,-3.116858,0.002821,0.014624,-0.007149,0.015991,0.035029,-0.999258,-0.003281,-0.002818,0.007864,13.135823,27.288317,-46.534393,,,,,,,
1508183986.509095,0.016294,-0.035181,-3.116987,-0.004667,0.012497,-0.008179,0.016283,0.035174,-0.999249,-0.000704,0.001081,0.005352,13.146046,27.289595,-46.530758,,,,,,,
1508183986.529111,0.016223,-0.035291,-3.117137,-0.004622,-0.000291,-0.005861,0.016212,0.035284,-0.999246,-0.002952,-0.000311,0.005868,13.143614,27.297993,-46.526516,,,,,,,
1508183986.549117,0.016259,-0.035334,-3.117274,-0.004654,0.009298,-0.007066,0.016248,0.035327,-0.999244,-0.000898,-0.001238,0.002387,13.136779,27.300991,-46.526691,,,,,,,
1508183986.569124,0.016360,-0.035340,-3.117359,-0.003534,-0.002428,-0.002632,0.016349,0.035332,-0.999242,0.000908,-0.000436,0.003514,13.140839,27.303707,-46.523949,,,,,,,
1508183986.589131,0.016146,-0.035408,-3.117428,-0.001421,0.002903,-0.005910,0.016135,0.035400,-0.999243,-0.004020,-0.001465,0.005835,13.132739,27.308828,-46.523228,,,,,,,
1508183986.609138,0.016365,-0.035442,-3.117616,-0.015357,0.006113,-0.011277,0.016354,0.035435,-0.999238,0.004093,-0.002857,-0.002456,13.129784,27.306816,-46.525246,,,,,,,
1508183986.629144,0.016368,-0.035533,-3.117763,0.002937,-0.021599,-0.004491,0.016357,0.035526,-0.999235,0.005708,0.000500,-0.006060,13.131400,27.318670,-46.517826,,,,,,,
1508183986.649151,0.015981,-0.035301,-3.117687,0.009370,-0.014166,0.006059,0.015970,0.035293,-0.999249,-0.002238,-0.001572,-0.000842,13.119311,27.310678,-46.525932,,,,,,,
1508183986.669158,0.015990,-0.035332,-3.117746,-0.005771,0.022088,-0.010450,0.015979,0.035325,-0.999248,-0.003986,0.000960,0.001247,13.111547,27.305239,-46.531311,,,,,,,
1508183986.689164,0.016602,-0.035644,-3.118043,-0.004722,0.024228,-0.014747,0.016591,0.035637,-0.999227,0.003108,0.006905,-0.001780,13.127781,27.318649,-46.518864,,,,,,,
1508183986.709163,0.016924,-0.035339,-3.118215,0.029631,0.000758,-0.001637,0.016913,0.035332,-0.999233,0.004114,0.002754,-0.003194,13.139592,27.324287,-46.512215,,,,,,,
1508183986.729167,0.016845,-0.034701,-3.118096,0.016848,-0.008843,0.007043,0.016834,0.034694,-0.999256,0.004375,-0.006801,0.004597,13.147297,27.293758,-46.527962,,,,,,,
1508183986.749162,0.016695,-0.034166,-3.118165,0.009285,0.000774,-0.006953,0.016685,0.034160,-0.999277,-0.001609,-0.011592,0.007273,13.138392,27.272457,-46.542965,,,,,,,
1508183986.769191,0.016767,-0.034213,-3.118222,-0.017458,0.005029,-0.000597,0.016756,0.034207,-0.999274,-0.001009,-0.006710,0.010551,13.136278,27.261076,-46.550224,,,,,,,
1508183986.789195,0.016517,-0.034444,-3.118266,-0.004573,-0.012015,-0.002492,0.016506,0.034437,-0.999271,-0.003750,-0.000822,0.003711,13.131731,27.269823,-46.546387,,,,,,,
1508183986.809188,0.016256,-0.034473,-3.118482,0.009254,0.001854,-0.015499,0.016245,0.034466,-0.999274,-0.004298,0.000797,0.008032,13.113515,27.277809,-46.546841,,,,,,,
1508183986.829212,0.016460,-0.034405,-3.118904,0.007063,0.009329,-0.024136,0.016449,0.034398,-0.999273,-0.000184,0.003642,0.006109,13.107447,27.276192,-46.549500,,,,,,,
1508183986.849196,0.016615,-0.034436,-3.119308,-0.016412,-0.003464,-0.015403,0.016604,0.034430,-0.999269,0.007520,-0.003973,0.007280,13.103718,27.280323,-46.548130,,,,,,,
1508183986.869218,0.016499,-0.035147,-3.119447,-0.015342,0.003977,-0.008047,0.016488,0.035140,-0.999246,-0.007135,0.010225,-0.006811,13.101399,27.306931,-46.533176,,,,,,,
1508183986.889232,0.016528,-0.035327,-3.119858,0.006951,0.043419,-0.026764,0.016517,0.035320,-0.999240,-0.012123,0.003178,-0.004178,13.090198,27.331430,-46.521946,,,,,,,
1508183986.909221,0.017433,-0.035306,-3.120510,0.015525,0.030650,-0.034049,0.017421,0.035299,-0.999225,0.005483,0.007533,0.001178,13.097307,27.336578,-46.516918,,,,,,,
1508183986.929246,0.018040,-0.034755,-3.121193,0.023048,0.022122,-0.031798,0.018028,0.034748,-0.999233,0.002403,-0.007282,0.011898,13.117218,27.334549,-46.512501,,,,,,,
1508183986.949252,0.018589,-0.034453,-3.121624,-0.000496,0.035953,-0.020252,0.018577,0.034446,-0.999234,0.000131,-0.009361,0.012524,13.129804,27.314074,-46.520977,,,,,,,
1508183986.969249,0.019110,-0.034422,-3.122539,0.004650,0.062657,-0.059030,0.019097,0.034415,-0.999225,-0.009347,-0.000632,-0.000622,13.131794,27.320499,-46.516644,,,,,,,
1508183986.989265,0.020413,-0.034334,-3.123756,0.007931,0.041348,-0.056591,0.020399,0.034327,-0.999202,0.009920,0.000203,-0.000737,13.152987,27.334097,-46.502663,,,,,,,
1508183987.009271,0.020930,-0.034177,-3.124519,0.008088,0.019986,-0.027491,0.020916,0.034171,-0.999197,0.005497,0.000482,0.008246,13.163088,27.337311,-46.497917,,,,,,,
1508183987.029277,0.021395,-0.034292,-3.125224,-0.013431,0.038132,-0.046925,0.021381,0.034286,-0.999183,-0.005939,0.001298,0.012169,13.168578,27.342112,-46.493542,,,,,,,
1508183987.049285,0.022065,-0.034653,-3.126192,-0.016586,0.024276,-0.042457,0.022049,0.034646,-0.999156,0.002716,0.000983,-0.000142,13.176552,27.372850,-46.473190,,,,,,,
1508183987.069290,0.022558,-0.034768,-3.126870,-0.004813,0.033841,-0.033008,0.022543,0.034761,-0.999141,-0.000830,-0.000460,0.003429,13.180126,27.388191,-46.463135,,,,,,,
1508183987.089274,0.023282,-0.034987,-3.127599,-0.005816,0.012535,-0.031631,0.023266,0.034980,-0.999117,0.007648,0.003106,-0.000532,13.200118,27.405809,-46.447067,,,,,,,
1508183987.109300,0.023393,-0.035001,-3.127725,0.003025,-0.042928,0.004354,0.023376,0.034994,-0.999114,0.008713,0.000910,-0.000077,13.201436,27.415550,-46.440948,,,,,,,
1508183987.129312,0.022890,-0.035086,-3.127564,-0.011023,0.002881,0.003701,0.022874,0.035079,-0.999123,-0.002961,-0.000640,0.001198,13.186712,27.414183,-46.445938,,,,,,,
1508183987.149299,0.023214,-0.035319,-3.127799,-0.003657,0.021031,-0.017894,0.023197,0.035312,-0.999107,-0.004185,0.002911,-0.007836,13.185359,27.426559,-46.439011,,,,,,,
1508183987.169325,0.023382,-0.035012,-3.128098,0.007075,0.015693,-0.013560,0.023366,0.035004,-0.999114,-0.008778,-0.006486,0.006392,13.199072,27.428106,-46.434204,,,,,,,
1508183987.189332,0.023601,-0.034869,-3.128513,-0.000508,0.030621,-0.026564,0.023584,0.034862,-0.999114,-0.013925,-0.005489,0.008574,13.198077,27.421333,-46.438488,,,,,,,
1508183987.209322,0.023944,-0.034804,-3.129246,0.004823,0.019998,-0.042409,0.023927,0.034797,-0.999108,-0.006151,-0.002403,0.003014,13.189233,27.421061,-46.441158,,,,,,,
1508183987.229325,0.024372,-0.034707,-3.130263,0.004679,0.053047,-0.056750,0.024355,0.034700,-0.999101,-0.006395,0.000487,0.005647,13.183976,27.428885,-46.438034,,,,,,,
1508183987.249353,0.026114,-0.034876,-3.131538,-0.012492,0.063717,-0.062223,0.026095,0.034869,-0.999051,0.015165,0.000821,0.006497,13.205745,27.447500,-46.420841,,,,,,,
1508183987.269359,0.027469,-0.035437,-3.132402,-0.012307,0.030644,-0.035086,0.027449,0.035430,-0.998995,0.007845,0.006227,0.006319,13.255904,27.474203,-46.390739,,,,,,,
1508183987.289367,0.027874,-0.035825,-3.132908,-0.002650,0.030624,-0.026563,0.027853,0.035817,-0.998970,-0.004888,0.005092,0.002815,13.276732,27.508356,-46.364536,,,,,,,
1508183987.309372,0.028622,-0.036124,-3.133625,-0.015591,0.049827,-0.039627,0.028600,0.036116,-0.998938,-0.001332,0.002794,-0.004907,13.286249,27.529791,-46.349087,,,,,,,
1508183987.329380,0.029389,-0.036684,-3.134391,-0.005887,0.029576,-0.035076,0.029365,0.036676,-0.998896,-0.000908,0.008139,-0.000784,13.302525,27.557486,-46.327957,,,,,,,
1508183987.349386,0.030038,-0.036960,-3.135079,0.001550,0.045528,-0.033176,0.030013,0.036951,-0.998866,-0.003692,0.004049,-0.002858,13.316095,27.589371,-46.305073,,,,,,,
1508183987.369393,0.030651,-0.036711,-3.135811,0.006922,0.033817,-0.037276,0.030625,0.036703,-0.998857,-0.004746,-0.002752,0.005388,13.329758,27.594036,-46.298363,,,,,,,
1508183987.389399,0.031340,-0.036489,-3.136663,0.010075,0.048737,-0.041760,0.031314,0.036480,-0.998844,-0.009983,-0.004803,0.006046,13.326900,27.590126,-46.301517,,,,,,,
1508183987.409406,0.032173,-0.035939,-3.137638,0.003612,0.053018,-0.051414,0.032147,0.035932,-0.998837,-0.000592,-0.014752,0.004178,13.346619,27.590303,-46.295731,,,,,,,
1508183987.429410,0.033469,-0.035566,-3.138683,-0.024292,0.081787,-0.051810,0.033442,0.035558,-0.998808,0.000998,-0.015767,-0.010500,13.351876,27.578005,-46.301540,,,,,,,
1508183987.449420,0.035166,-0.035753,-3.139538,-0.011377,0.072170,-0.037818,0.035136,0.035746,-0.998743,0.009069,-0.009699,-0.014502,13.418959,27.580156,-46.280861,,,,,,,
1508183987.469426,0.037464,-0.035435,-3.140202,0.004535,0.130736,-0.028016,0.037432,0.035428,-0.998671,0.003904,-0.008679,-0.000673,13.499574,27.592773,-46.249886,,,,,,,
1508183987.489433,0.040737,-0.035189,-3.140385,0.013150,0.141335,-0.001519,0.040700,0.035182,-0.998552,0.015650,-0.005183,-0.006102,13.594371,27.585228,-46.226612,,,,,,,
1508183987.509440,0.043669,-0.034950,-3.140143,0.015379,0.131682,0.021015,0.043628,0.034943,-0.998437,0.013669,0.005798,-0.005424,13.754879,27.571531,-46.187290,,,,,,,
1508183987.529446,0.047196,-0.035378,-3.139659,0.028138,0.152996,0.016431,0.047149,0.035370,-0.998261,0.015931,0.027206,0.006700,13.939573,27.554859,-46.141846,,,,,,,
1508183987.549454,0.051100,-0.034837,-3.139556,0.044114,0.173242,0.011860,0.051047,0.034830,-0.998089,0.016748,0.010076,0.002407,14.074713,27.559633,-46.097946,,,,,,,
1508183987.569461,0.054130,-0.033471,-3.138544,0.077819,0.064453,0.077391,0.054073,0.033465,-0.997976,0.031056,-0.001407,-0.010264,14.288445,27.516476,-46.057961,,,,,,,
1508183987.589459,0.054642,-0.031716,-3.136848,0.114351,0.018629,0.082293,0.054587,0.031711,-0.998005,-0.026297,0.012204,0.027684,14.427537,27.389381,-46.090343,,,,,,,
1508183987.609474,0.056504,-0.029757,-3.136311,0.078411,0.141303,0.000569,0.056449,0.029752,-0.997962,-0.034781,0.002337,0.039542,14.456693,27.313721,-46.126095,,,,,,,
1508183987.629478,0.059798,-0.028838,-3.137476,0.010560,0.199007,-0.082323,0.059738,0.028834,-0.997798,-0.014785,-0.009379,0.037638,14.584955,27.251736,-46.122375,,,,,,,
1508183987.649487,0.063793,-0.029199,-3.139265,-0.021554,0.193706,-0.090752,0.063722,0.029195,-0.997541,-0.011903,-0.000050,0.014417,14.746436,27.270126,-46.060120,,,,,,,
1508183987.669494,0.066811,-0.029654,-3.140993,-0.001025,0.130796,-0.082377,0.066732,0.029649,-0.997330,-0.006017,0.004439,-0.005767,14.859926,27.312160,-45.998699,,,,,,,
1508183987.689500,0.068728,-0.029478,3.140703,0.025888,0.088157,-0.071116,0.068644,0.029474,-0.997206,-0.015833,0.006796,-0.007372,14.899948,27.332148,-45.973873,,,,,,,
1508183987.709506,0.070630,-0.028847,3.138876,0.024521,0.155327,-0.101946,0.070542,0.028843,-0.997092,-0.020142,-0.006031,0.005087,14.963617,27.329426,-45.954811,,,,,,,
1508183987.729514,0.074625,-0.028952,3.136343,-0.007903,0.224647,-0.138115,0.074524,0.028948,-0.996799,0.006637,-0.011781,0.004261,15.048109,27.346716,-45.916916,,,,,,,
1508183987.749492,0.079630,-0.028891,3.133873,0.007291,0.185175,-0.108763,0.079513,0.028887,-0.996415,0.031251,-0.012026,-0.005156,15.148176,27.383213,-45.862232,,,,,,,
1508183987.769526,0.081852,-0.028464,3.132596,0.034604,0.076367,-0.034697,0.081728,0.028460,-0.996248,0.030623,-0.013171,-0.004805,15.303244,27.384678,-45.809845,,,,,,,
1508183987.789533,0.083244,-0.027317,3.132609,0.044505,0.045365,0.020126,0.083117,0.027313,-0.996165,0.009962,-0.010590,0.025356,15.353339,27.350252,-45.813648,,,,,,,
1508183987.809541,0.084777,-0.026708,3.133317,0.031727,0.059152,0.051925,0.084646,0.026705,-0.996053,0.006953,-0.008730,0.003438,15.428077,27.308899,-45.813210,,,,,,,
1508183987.829546,0.085499,-0.025815,3.134283,0.015685,0.046319,0.047918,0.085366,0.025812,-0.996015,-0.011346,-0.013010,0.005506,15.528431,27.259468,-45.808743,,,,,,,
1508183987.849545,0.086675,-0.025594,3.134843,-0.000520,0.066620,0.018845,0.086539,0.025591,-0.995920,-0.001425,-0.018785,0.011682,15.532911,27.235590,-45.821423,,,,,,,
1508183987.869560,0.088258,-0.025225,3.135354,-0.017465,0.025052,0.034389,0.088116,0.025222,-0.995791,0.021305,-0.020797,-0.017423,15.637125,27.219753,-45.795383,,,,,,,
1508183987.889567,0.087756,-0.024879,3.136619,0.037500,-0.056013,0.081375,0.087617,0.024876,-0.995844,0.013229,-0.013493,-0.031821,15.700861,27.179495,-45.797485,,,,,,,
1508183987.909573,0.086312,-0.022477,3.138411,0.070773,-0.070967,0.097561,0.086183,0.022475,-0.996026,-0.001833,-0.016799,-0.017265,15.699089,27.164513,-45.806980,,,,,,,
1508183987.929557,0.084755,-0.020355,3.139917,0.041588,0.000459,0.070956,0.084636,0.020353,-0.996204,-0.021205,-0.015547,-0.012875,15.668031,26.965637,-45.934944,,,,,,,
1508183987.949587,0.084555,-0.018863,3.140852,0.043525,0.033544,0.037420,0.084440,0.018862,-0.996250,-0.008909,-0.010241,-0.014416,15.674245,26.857738,-45.995995,,,,,,,
1508183987.969594,0.084753,-0.017738,3.141175,0.032775,0.012311,0.002548,0.084638,0.017737,-0.996254,-0.004560,-0.002570,-0.014900,15.675699,26.831825,-46.010620,,,,,,,
1508183987.989601,0.084801,-0.017127,3.141333,0.029680,0.001607,0.028297,0.084687,0.017126,-0.996260,0.003844,0.006082,-0.019227,15.694082,26.754915,-46.049126,,,,,,,
1508183988.009607,0.084573,-0.017330,-3.141015,0.039509,-0.045303,0.048163,0.084459,0.017329,-0.996276,0.009199,0.025792,-0.027344,15.712080,26.728933,-46.058079,,,,,,,
1508183988.029615,0.083663,-0.017717,-3.140244,0.040518,-0.029321,0.045798,0.083552,0.017716,-0.996346,0.000127,0.028991,-0.024376,15.714055,26.743969,-46.048676,,,,,,,
1508183988.049618,0.083096,-0.018331,-3.138746,0.061053,-0.050722,0.091943,0.082987,0.018330,-0.996382,0.005377,0.040630,-0.013597,15.696709,26.763237,-46.043392,,,,,,,
1508183988.069628,0.081856,-0.017844,-3.136801,0.049327,-0.049687,0.107931,0.081751,0.017843,-0.996493,-0.010127,0.035074,0.000811,15.693604,26.738274,-46.058956,,,,,,,
1508183988.089634,0.081282,-0.016940,-3.134371,0.031163,-0.025243,0.138513,0.081180,0.016939,-0.996555,0.000820,0.025282,0.010380,15.722115,26.664896,-46.091759,,,,,,,
1508183988.109642,0.080404,-0.016382,-3.131411,0.052741,-0.065764,0.157211,0.080306,0.016381,-0.996636,-0.002868,0.010245,0.026894,15.758444,26.632370,-46.098156,,,,,,,
1508183988.129648,0.078671,-0.015032,-3.128056,0.047583,-0.102033,0.183332,0.078581,0.015031,-0.996794,-0.005964,-0.011552,0.044966,15.780160,26.506216,-46.163395,,,,,,,
1508183988.149654,0.076379,-0.013950,-3.124150,0.002801,-0.132954,0.204074,0.076297,0.013950,-0.996988,0.004422,-0.020282,0.044717,15.783469,26.417509,-46.213081,,,,,,,
1508183988.169662,0.073256,-0.013874,-3.119839,-0.017367,-0.171329,0.219574,0.073184,0.013874,-0.997222,0.010053,-0.019901,0.036422,15.783469,26.417509,-46.213081,,,,,,,
1508183988.189668,0.069464,-0.013300,-3.115251,-0.016193,-0.195847,0.228459,0.069402,0.013300,-0.997500,-0.008016,-0.020609,0.022204,15.701982,26.255951,-46.332764,,,,,,,
1508183988.209674,0.065962,-0.013323,-3.111314,-0.012211,-0.157386,0.171385,0.065908,0.013323,-0.997737,-0.019781,-0.010546,0.002345,15.638723,26.204308,-46.383366,,,,,,,
1508183988.229682,0.063210,-0.013084,-3.108731,-0.009422,-0.086952,0.105317,0.063163,0.013084,-0.997917,-0.012229,-0.009406,-0.006080,15.578295,26.163429,-46.426754,,,,,,,
1508183988.249661,0.062034,-0.013446,-3.107315,-0.028981,-0.048485,0.048259,0.061989,0.013445,-0.997986,0.000893,-0.006365,-0.020828,15.549046,26.146212,-46.446255,,,,,,,
1508183988.269667,0.061279,-0.013827,-3.106585,-0.002315,-0.038869,0.031039,0.061235,0.013827,-0.998028,0.005461,0.015577,-0.037861,15.534004,26.156021,-46.445763,,,,,,,
1508183988.289702,0.060359,-0.012935,-3.106069,0.066198,-0.049537,0.030076,0.060317,0.012935,-0.998095,0.008729,0.022114,-0.040280,15.513506,26.141579,-46.460743,,,,,,,
1508183988.309708,0.059571,-0.011883,-3.105696,0.088560,-0.030338,0.014852,0.059532,0.011882,-0.998156,-0.001518,0.025410,-0.030973,15.478426,26.076469,-46.509007,,,,,,,
1508183988.329714,0.059378,-0.010105,-3.105879,0.085167,0.001674,-0.012267,0.059340,0.010105,-0.998187,0.007050,0.015835,-0.018934,15.473305,26.054714,-46.522903,,,,,,,
1508183988.349722,0.059568,-0.008869,-3.106099,0.084191,-0.017522,-0.000258,0.059531,0.008868,-0.998187,0.006341,0.016141,-0.009961,15.474005,25.955385,-46.578156,,,,,,,
1508183988.369728,0.058695,-0.006936,-3.105986,0.101455,-0.058151,0.013238,0.058660,0.006936,-0.998254,-0.010137,0.020392,0.000726,15.444546,25.848511,-46.647320,,,,,,,
1508183988.389717,0.057407,-0.005343,-3.105971,0.119501,-0.018728,0.005188,0.057375,0.005343,-0.998338,-0.027102,0.023527,0.016344,15.432687,25.823811,-46.664921,,,,,,,
1508183988.409741,0.057250,-0.002943,-3.106409,0.110795,-0.004814,-0.026996,0.057219,0.002943,-0.998357,-0.004393,0.002780,0.035772,15.368830,25.689825,-46.759850,,,,,,,
1508183988.429746,0.057057,-0.001427,-3.107278,0.059403,-0.010100,-0.040743,0.057026,0.001427,-0.998372,-0.000447,-0.002068,0.049885,15.338998,25.588924,-46.824932,,,,,,,
1508183988.449753,0.056662,-0.000903,-3.107806,0.012454,-0.029310,-0.016971,0.056632,0.000903,-0.998395,0.004434,0.001126,0.038998,15.309269,25.561457,-46.849651,,,,,,,
1508183988.469735,0.055993,-0.000975,-3.108119,0.001763,-0.028250,-0.012713,0.055963,0.000975,-0.998432,-0.007807,0.004380,0.020771,15.278016,25.565203,-46.857807,,,,,,,
1508183988.489769,0.055331,-0.000656,-3.108407,0.025330,-0.037841,-0.013658,0.055303,0.000656,-0.998469,-0.000982,0.002259,0.008433,15.233501,25.560518,-46.874855,,,,,,,
1508183988.509748,0.054526,-0.000238,-3.108697,0.014635,-0.041032,-0.014670,0.054499,0.000238,-0.998514,-0.002024,-0.001092,0.007547,15.189800,25.541683,-46.899296,,,,,,,
1508183988.529782,0.054115,-0.000401,-3.108995,-0.017578,-0.002677,-0.014136,0.054089,0.000401,-0.998536,-0.000530,0.000911,0.001359,15.159357,25.540775,-46.909645,,,,,,,
1508183988.549789,0.054586,-0.001062,-3.109084,-0.016426,-0.013359,0.002013,0.054558,0.001062,-0.998510,0.014564,0.004783,-0.013102,15.154624,25.573172,-46.893517,,,,,,,
1508183988.569769,0.054375,-0.001128,-3.108756,0.026518,-0.035785,0.025765,0.054348,0.001128,-0.998521,0.005909,0.004671,-0.012389,15.167171,25.584721,-46.883160,,,,,,,
1508183988.589802,0.054198,-0.000355,-3.107860,0.049057,-0.025198,0.056517,0.054171,0.000355,-0.998532,0.008527,0.002758,-0.007999,15.172114,25.562479,-46.893692,,,,,,,
1508183988.609809,0.053884,0.000455,-3.106741,0.026594,-0.022006,0.061819,0.053858,-0.000455,-0.998549,0.001577,0.000410,-0.008806,15.195069,25.492254,-46.924477,,,,,,,
1508183988.629794,0.053489,0.001138,-3.105457,0.049063,-0.015631,0.067041,0.053464,-0.001138,-0.998569,-0.001630,0.005380,-0.011090,15.204358,25.463547,-46.937050,,,,,,,
1508183988.649822,0.052209,0.002500,-3.103836,0.085592,-0.031684,0.098169,0.052186,-0.002500,-0.998634,-0.036881,0.004041,0.078422,15.232649,25.396601,-46.964142,,,,,,,
1508183988.669828,0.051901,0.003107,-3.102017,-0.007745,0.013146,0.064534,0.051878,-0.003107,-0.998649,-0.007047,-0.004980,0.067649,15.218311,25.298143,-47.021896,,,,,,,
1508183988.689833,0.051354,0.001580,-3.101505,-0.076101,-0.083675,0.015873,0.051331,-0.001580,-0.998680,0.008606,0.003243,-0.007286,15.229568,25.295052,-47.019917,,,,,,,
1508183988.709819,0.049463,0.000809,-3.100329,-0.001015,-0.078488,0.076521,0.049443,-0.000809,-0.998777,-0.018620,0.023224,-0.045596,15.177052,25.385515,-46.988132,,,,,,,
1508183988.729848,0.049034,0.001810,-3.099320,0.074582,-0.003845,0.028464,0.049014,-0.001810,-0.998796,0.005353,0.007715,-0.042479,15.155054,25.332735,-47.023701,,,,,,,
1508183988.749830,0.048999,0.003330,-3.098883,0.074573,0.001478,0.030520,0.048979,-0.003330,-0.998794,0.000734,0.003117,-0.019821,15.161581,25.322443,-47.027145,,,,,,,
1508183988.769863,0.049104,0.004910,-3.098618,0.066916,0.028163,0.003481,0.049084,-0.004910,-0.998783,-0.007534,-0.004199,0.004672,15.182917,25.205854,-47.082859,,,,,,,
1508183988.789868,0.049925,0.006035,-3.098730,0.050787,0.046292,-0.004234,0.049903,-0.006035,-0.998736,-0.005637,-0.004692,0.019274,15.213339,25.124704,-47.116402,,,,,,,
1508183988.809871,0.050636,0.006685,-3.098792,0.018799,0.014332,0.001585,0.050613,-0.006685,-0.998696,0.003891,-0.001967,0.022576,15.223717,25.113056,-47.119259,,,,,,,
1508183988.829875,0.050826,0.006905,-3.098716,0.011345,0.007932,0.007015,0.050803,-0.006905,-0.998685,-0.004432,0.007088,0.013272,15.261943,25.077013,-47.126087,,,,,,,
1508183988.849890,0.050954,0.007006,-3.098426,0.004987,-0.000612,0.018873,0.050930,-0.007006,-0.998678,0.001575,0.003954,0.002874,15.276708,25.059809,-47.130459,,,,,,,
1508183988.869885,0.050838,0.007184,-3.098055,0.017851,-0.007009,0.020022,0.050814,-0.007184,-0.998682,-0.005007,0.012875,-0.008871,15.283350,25.058891,-47.128792,,,,,,,
1508183988.889885,0.050718,0.007518,-3.097808,0.035938,0.013251,0.006919,0.050695,-0.007517,-0.998686,-0.008184,0.011469,-0.002886,15.290361,25.032681,-47.140446,,,,,,,
1508183988.909909,0.050937,0.007603,-3.097849,0.040120,0.035635,-0.001940,0.050913,-0.007603,-0.998674,-0.008189,0.012074,0.009065,15.298417,25.019522,-47.144814,,,,,,,
1508183988.929914,0.051606,0.007613,-3.098012,0.010177,0.022871,-0.007064,0.051582,-0.007613,-0.998640,0.001504,0.006972,0.014433,15.309738,25.025425,-47.138008,,,,,,,
1508183988.949923,0.051776,0.006933,-3.098014,-0.008963,-0.004847,0.006148,0.051751,-0.006933,-0.998636,-0.001565,0.012106,0.007471,15.331985,25.041756,-47.122101,,,,,,,
1508183988.969930,0.051132,0.006323,-3.097840,-0.000327,-0.025101,0.011767,0.051108,-0.006323,-0.998673,-0.004950,0.010122,0.006043,15.314297,25.075832,-47.109730,,,,,,,
1508183988.989922,0.049779,0.006040,-3.097542,0.024323,-0.038959,0.011949,0.049758,-0.006040,-0.998743,-0.016143,0.010892,0.013056,15.280878,25.096701,-47.109470,,,,,,,
1508183989.009943,0.048593,0.006312,-3.097699,0.004878,-0.010136,-0.018312,0.048573,-0.006312,-0.998800,-0.012837,-0.001455,0.017415,15.212114,25.091248,-47.134624,,,,,,,
1508183989.029949,0.048373,0.005857,-3.098249,-0.032699,0.014404,-0.034634,0.048354,-0.005857,-0.998813,-0.007857,0.001921,0.010456,15.172155,25.102648,-47.141434,,,,,,,
1508183989.049940,0.048439,0.004868,-3.098840,-0.030462,-0.009049,-0.025765,0.048419,-0.004868,-0.998815,0.002316,0.006287,0.004949,15.156610,25.143097,-47.124874,,,,,,,
1508183989.069964,0.047832,0.004446,-3.099159,-0.007852,-0.043166,-0.013558,0.047813,-0.004445,-0.998846,0.000343,0.004369,0.003439,15.143023,25.177223,-47.111019,,,,,,,
1508183989.089970,0.046915,0.004042,-3.099570,-0.015461,-0.017574,-0.026719,0.046897,-0.004042,-0.998892,-0.008369,0.002242,0.014913,15.074682,25.210831,-47.114964,,,,,,,
1508183989.109968,0.046827,0.003398,-3.100329,-0.032690,-0.003681,-0.047168,0.046810,-0.003398,-0.998898,0.003514,0.001139,0.009137,15.042573,25.237062,-47.111183,,,,,,,
1508183989.129984,0.047115,0.002397,-3.101224,-0.054135,0.015492,-0.043164,0.047098,-0.002397,-0.998887,0.004630,-0.001296,0.008272,15.022928,25.288071,-47.090092,,,,,,,
1508183989.149989,0.047701,0.001424,-3.102065,-0.026299,0.009097,-0.044159,0.047683,-0.001424,-0.998861,0.009904,0.004155,-0.002268,15.021297,25.361614,-47.051044,,,,,,,
1508183989.169996,0.048292,0.000857,-3.102696,-0.026143,-0.019704,-0.022415,0.048273,-0.000857,-0.998834,0.020086,0.002170,-0.008323,15.028703,25.376007,-47.040916,,,,,,,
1508183989.190003,0.048383,0.000370,-3.102853,-0.013184,-0.038916,-0.002952,0.048364,-0.000370,-0.998830,0.015952,0.002323,-0.008693,15.042809,25.426733,-47.009010,,,,,,,
1508183989.210008,0.048085,-0.000043,-3.102805,-0.023925,-0.020811,0.001059,0.048066,0.000043,-0.998844,0.005507,0.000980,-0.010616,15.025781,25.448683,-47.002579,,,,,,,
1508183989.229994,0.048075,-0.000532,-3.102759,-0.012196,-0.005902,0.001900,0.048057,0.000532,-0.998845,0.004632,0.002596,-0.016338,15.026140,25.455393,-46.998829,,,,,,,
1508183989.250025,0.048090,-0.000500,-3.102755,0.008126,-0.001647,0.002889,0.048071,0.000500,-0.998844,0.002420,-0.001660,-0.004925,15.026422,25.481525,-46.984573,,,,,,,
1508183989.270030,0.048074,-0.000125,-3.102655,0.014569,-0.009105,0.002993,0.048056,0.000125,-0.998845,0.003839,-0.003115,0.008946,15.026677,25.464354,-46.993801,,,,,,,
1508183989.290022,0.048218,0.000190,-3.102720,0.013389,0.020735,-0.003837,0.048200,-0.000190,-0.998838,-0.002500,-0.002419,0.011914,15.029653,25.451481,-46.999825,,,,,,,
1508183989.310044,0.048961,0.000598,-3.102653,0.001719,0.002603,0.010297,0.048941,-0.000598,-0.998801,0.011331,-0.006558,0.012153,15.053915,25.432264,-47.002460,,,,,,,
1508183989.330029,0.048676,0.000772,-3.102341,-0.023847,-0.027231,0.018213,0.048656,-0.000772,-0.998815,0.001240,-0.007361,0.012624,15.068861,25.413786,-47.007668,,,,,,,
1508183989.350050,0.048280,0.000172,-3.101990,-0.027135,-0.006981,0.012590,0.048262,-0.000172,-0.998835,-0.001402,0.002842,-0.003103,15.058628,25.420361,-47.007393,,,,,,,
1508183989.370065,0.048438,-0.000114,-3.101745,0.001744,-0.004975,0.015856,0.048419,0.000114,-0.998827,0.006970,0.001946,-0.008329,15.061802,25.444256,-46.993439,,,,,,,
1508183989.390071,0.048670,0.000027,-3.101402,0.014572,0.001410,0.017886,0.048651,-0.000027,-0.998816,0.007334,0.001736,-0.001947,15.079868,25.437313,-46.991405,,,,,,,
1508183989.410059,0.049077,0.000190,-3.101081,-0.001492,0.003551,0.015735,0.049058,-0.000190,-0.998796,0.008682,-0.002587,-0.004515,15.102807,25.427277,-46.989475,,,,,,,
1508183989.430084,0.049439,0.000177,-3.100733,-0.010048,0.006741,0.019960,0.049419,-0.000177,-0.998778,0.003834,-0.002356,-0.001436,15.131351,25.418985,-46.984772,,,,,,,
1508183989.450091,0.049563,0.000084,-3.100243,0.000689,-0.000727,0.024326,0.049543,-0.000084,-0.998772,0.000125,0.001732,-0.004417,15.158070,25.416960,-46.977261,,,,,,,
1508183989.470076,0.049490,0.000325,-3.099894,0.013457,0.013137,0.014518,0.049470,-0.000325,-0.998776,-0.010759,0.001240,-0.000812,15.165115,25.407703,-46.979992,,,,,,,
1508183989.490104,0.049622,0.000490,-3.099862,0.017639,0.024890,-0.004849,0.049601,-0.000490,-0.998769,-0.007640,0.003679,-0.001460,15.169697,25.396364,-46.984642,,,,,,,
1508183989.510111,0.049861,0.000770,-3.100079,0.012312,0.011054,-0.009976,0.049841,-0.000770,-0.998757,-0.003637,0.002097,-0.000129,15.173795,25.392378,-46.985474,,,,,,,
1508183989.530104,0.049975,0.000905,-3.100112,0.010261,-0.007076,0.000952,0.049955,-0.000905,-0.998751,-0.002942,0.002034,0.009249,15.184166,25.377600,-46.990108,,,,,,,
1508183989.550124,0.049520,0.000776,-3.100073,-0.001511,-0.007074,0.000960,0.049500,-0.000776,-0.998774,-0.007706,0.005979,0.011210,15.175416,25.376081,-46.993755,,,,,,,
1508183989.570105,0.049294,0.000636,-3.100147,0.009119,0.005724,-0.008830,0.049274,-0.000636,-0.998785,-0.004566,0.005351,-0.002970,15.155798,25.385334,-46.995087,,,,,,,
1508183989.590132,0.049402,0.000812,-3.100370,0.015510,0.015309,-0.008974,0.049382,-0.000812,-0.998780,-0.008779,0.003513,-0.002044,15.153008,25.385199,-46.996063,,,,,,,
1508183989.610118,0.049240,0.000990,-3.100642,0.022987,0.007870,-0.019535,0.049220,-0.000990,-0.998787,-0.008982,0.005033,0.004799,15.145063,25.381670,-47.000526,,,,,,,
1508183989.630136,0.048999,0.001206,-3.101186,0.009058,0.005756,-0.026958,0.048979,-0.001206,-0.998799,-0.009230,0.001313,0.018529,15.122129,25.374025,-47.012035,,,,,,,
1508183989.650129,0.048759,0.000851,-3.101780,-0.029421,-0.017654,-0.035120,0.048739,-0.000851,-0.998811,-0.000643,0.001873,0.017122,15.093580,25.390135,-47.012516,,,,,,,
1508183989.670136,0.048351,-0.000047,-3.102334,-0.027280,-0.007024,-0.024613,0.048333,0.000047,-0.998831,-0.005165,0.004912,0.003089,15.066117,25.426020,-47.001934,,,,,,,
1508183989.690172,0.048303,-0.000375,-3.102680,-0.001564,-0.005988,-0.012918,0.048285,0.000375,-0.998834,0.003717,0.003149,0.001458,15.038615,25.465166,-46.989544,,,,,,,
1508183989.710157,0.048212,-0.000408,-3.102834,0.001656,-0.004932,-0.008671,0.048193,0.000408,-0.998838,-0.003729,0.002415,0.008665,15.035278,25.470352,-46.987801,,,,,,,
1508183989.730185,0.048073,-0.000595,-3.103071,-0.019723,-0.012384,-0.008547,0.048055,0.000595,-0.998845,-0.000448,-0.001679,0.014378,15.028099,25.474909,-46.987625,,,,,,,
1508183989.750192,0.047538,-0.001131,-3.103092,-0.051744,-0.030500,-0.000796,0.047520,0.001131,-0.998870,-0.005634,-0.009263,0.018340,15.003912,25.508102,-46.977348,,,,,,,
1508183989.770185,0.046824,-0.002083,-3.103089,-0.051776,-0.023038,-0.004103,0.046807,0.002083,-0.998902,-0.012261,-0.005532,0.012589,14.978861,25.538187,-46.968994,,,,,,,
1508183989.790205,0.046015,-0.002769,-3.103178,-0.037840,-0.032628,-0.005041,0.045998,0.002769,-0.998938,-0.012246,-0.004264,0.012915,14.950638,25.566776,-46.962437,,,,,,,
1508183989.810211,0.044991,-0.003431,-3.103213,-0.041017,-0.044344,-0.005935,0.044976,0.003431,-0.998982,-0.003731,0.000231,-0.005672,14.881981,25.611448,-46.959900,,,,,,,
1508183989.830209,0.043875,-0.004097,-3.103285,-0.033511,-0.048610,-0.004812,0.043860,0.004097,-0.999029,-0.004599,-0.001091,-0.007471,14.841211,25.638750,-46.957905,,,,,,,
1508183989.850225,0.043211,-0.004828,-3.103511,-0.036894,-0.008098,-0.021392,0.043197,0.004828,-0.999055,-0.006271,-0.000998,-0.006652,14.800586,25.663031,-46.957466,,,,,,,
1508183989.870231,0.043216,-0.005451,-3.103997,-0.019797,-0.003835,-0.024665,0.043201,0.005451,-0.999052,0.008328,0.000912,-0.003680,14.756195,25.720476,-46.939999,,,,,,,
1508183989.890209,0.043048,-0.005886,-3.104444,-0.029337,-0.030469,-0.021073,0.043034,0.005886,-0.999056,0.013790,-0.001964,-0.000181,14.747089,25.739069,-46.932671,,,,,,,
1508183989.910245,0.042967,-0.006847,-3.104701,-0.043282,-0.013430,-0.015978,0.042953,0.006847,-0.999054,0.002381,0.004307,-0.003891,14.738622,25.775021,-46.915592,,,,,,,
1508183989.930251,0.042928,-0.007670,-3.105063,-0.010139,-0.012357,-0.023483,0.042914,0.007670,-0.999049,0.004022,0.007467,-0.005574,14.719912,25.834869,-46.888542,,,,,,,
1508183989.950239,0.043233,-0.007685,-3.105443,-0.010138,0.003594,-0.008786,0.043218,0.007685,-0.999036,0.008860,-0.003885,0.003766,14.715432,25.850922,-46.881104,,,,,,,
1508183989.970266,0.043689,-0.007862,-3.105341,-0.018592,-0.016669,0.005377,0.043673,0.007862,-0.999015,0.013913,-0.003468,0.006354,14.735772,25.855036,-46.872444,,,,,,,
1508183989.990271,0.043256,-0.008055,-3.105032,-0.013138,-0.032682,0.022666,0.043241,0.008055,-0.999032,-0.001036,-0.003492,0.002908,14.739202,25.866919,-46.864807,,,,,,,
1508183990.010267,0.042031,-0.007883,-3.104729,-0.004628,-0.032655,0.006664,0.042018,0.007883,-0.999086,-0.014109,-0.006815,0.006868,14.711628,25.859522,-46.877552,,,,,,,
1508183990.030278,0.041104,-0.007871,-3.104759,-0.004669,-0.031568,-0.005081,0.041091,0.007871,-0.999124,-0.013824,-0.005338,0.006784,14.676866,25.853964,-46.891514,,,,,,,
1508183990.050292,0.040131,-0.007991,-3.105090,-0.025115,-0.011292,-0.022420,0.040118,0.007991,-0.999163,-0.011112,-0.005412,-0.002104,14.602376,25.860394,-46.911217,,,,,,,
1508183990.070281,0.039816,-0.008510,-3.105655,-0.008058,-0.002752,-0.034286,0.039804,0.008510,-0.999171,-0.003137,0.004933,-0.010518,14.568453,25.877792,-46.912170,,,,,,,
1508183990.090306,0.039655,-0.008352,-3.106458,0.014411,-0.010199,-0.041659,0.039643,0.008352,-0.999179,0.000930,-0.002538,-0.006574,14.543205,25.899590,-46.907974,,,,,,,
1508183990.110313,0.039629,-0.008342,-3.107264,-0.016674,0.008981,-0.040848,0.039617,0.008342,-0.999180,0.000117,-0.002696,-0.002727,14.509271,25.902456,-46.916901,,,,,,,
1508183990.130293,0.039970,-0.008795,-3.108175,-0.013520,0.022837,-0.045316,0.039957,0.008795,-0.999163,-0.000574,0.003961,-0.003721,14.499001,25.933245,-46.903069,,,,,,,
1508183990.150326,0.040419,-0.008826,-3.108818,-0.004797,-0.008098,-0.023548,0.040406,0.008825,-0.999144,0.009780,-0.003698,-0.001069,14.501555,25.946579,-46.894901,,,,,,,
1508183990.170332,0.039709,-0.008739,-3.109012,0.001778,-0.042221,-0.007064,0.039697,0.008739,-0.999174,-0.006616,-0.002300,0.004682,14.482382,25.949753,-46.899067,,,,,,,
1508183990.190339,0.038808,-0.008628,-3.109326,0.007023,-0.024082,-0.023325,0.038797,0.008628,-0.999210,-0.017297,-0.001624,0.001804,14.442734,25.948153,-46.912178,,,,,,,
1508183990.210347,0.038212,-0.008499,-3.110255,-0.000655,-0.000574,-0.059915,0.038201,0.008498,-0.999234,-0.014611,-0.002990,0.004224,14.405128,25.946514,-46.924644,,,,,,,
1508183990.230352,0.038253,-0.008716,-3.111714,-0.025421,0.030362,-0.079538,0.038243,0.008716,-0.999230,-0.001835,-0.003772,0.011834,14.332111,25.972475,-46.932644,,,,,,,
1508183990.250349,0.038941,-0.009060,-3.113159,-0.013577,0.017555,-0.068698,0.038930,0.009060,-0.999201,0.013744,-0.002941,0.014841,14.323476,26.001997,-46.918930,,,,,,,
1508183990.270366,0.039454,-0.009082,-3.114242,0.000459,0.002591,-0.043967,0.039442,0.009082,-0.999181,0.015673,-0.004077,0.012822,14.317568,26.021280,-46.910042,,,,,,,
1508183990.290373,0.040172,-0.009124,-3.114804,-0.020850,-0.005962,-0.023567,0.040160,0.009124,-0.999152,0.017762,-0.004500,0.010611,14.323301,26.036436,-46.899883,,,,,,,
1508183990.310377,0.040285,-0.009530,-3.115122,-0.024035,-0.002785,-0.012948,0.040272,0.009529,-0.999143,0.008846,-0.003945,0.003797,14.330333,26.052469,-46.888828,,,,,,,
1508183990.330386,0.040481,-0.009944,-3.115360,-0.028315,-0.005972,-0.016097,0.040468,0.009944,-0.999131,0.006911,-0.002712,-0.007109,14.337486,26.071636,-46.875988,,,,,,,
1508183990.350393,0.040621,-0.010589,-3.115633,-0.027270,0.004677,-0.014120,0.040607,0.010589,-0.999119,0.003964,0.002976,-0.014232,14.337651,26.084179,-46.868958,,,,,,,
1508183990.370399,0.041234,-0.011284,-3.116007,-0.009170,0.025879,-0.017531,0.041220,0.011283,-0.999086,0.006296,0.006997,-0.001753,14.336558,26.118128,-46.850380,,,,,,,
1508183990.390406,0.042190,-0.011276,-3.116243,0.004771,0.024796,-0.008996,0.042175,0.011276,-0.999047,0.011597,-0.001693,0.007729,14.372595,26.161266,-46.815262,,,,,,,
1508183990.410404,0.043089,-0.011082,-3.116182,-0.013297,0.009842,0.014694,0.043073,0.011081,-0.999011,0.011599,-0.007450,0.007784,14.420968,26.153734,-46.804588,,,,,,,
1508183990.430403,0.043058,-0.011204,-3.115557,-0.030220,-0.033868,0.035600,0.043042,0.011204,-0.999010,0.004992,-0.007587,0.006930,14.452845,26.145821,-46.799179,,,,,,,
1508183990.450409,0.042559,-0.011804,-3.114877,-0.037810,-0.007222,0.028821,0.042543,0.011803,-0.999025,-0.004702,-0.006600,0.003755,14.448694,26.152060,-46.796974,,,,,,,
1508183990.470414,0.042831,-0.012118,-3.114345,-0.025024,0.006633,0.024346,0.042815,0.012118,-0.999010,0.006090,-0.008044,-0.009963,14.460692,26.178589,-46.778431,,,,,,,
1508183990.490439,0.043200,-0.012023,-3.113760,-0.011103,0.011942,0.031723,0.043183,0.012023,-0.998995,0.003478,-0.009139,-0.004652,14.486984,26.170488,-46.774830,,,,,,,
1508183990.510448,0.043582,-0.012148,-3.113083,-0.016452,0.011944,0.031727,0.043564,0.012148,-0.998977,0.005386,-0.009249,-0.004289,14.510964,26.163717,-46.771179,,,,,,,
1508183990.530453,0.043939,-0.012000,-3.112302,-0.005651,-0.007258,0.044793,0.043922,0.011999,-0.998963,0.007653,-0.007116,-0.001968,14.563580,26.152647,-46.761021,,,,,,,
1508183990.550440,0.043853,-0.011898,-3.111371,-0.003559,0.005531,0.041407,0.043836,0.011898,-0.998968,-0.004651,-0.002910,-0.003550,14.587775,26.134218,-46.763783,,,,,,,
1508183990.570467,0.044075,-0.011872,-3.110699,-0.003654,0.024729,0.029399,0.044058,0.011872,-0.998958,-0.006216,-0.003449,-0.007206,14.602777,26.125090,-46.764198,,,,,,,
1508183990.590474,0.044697,-0.011708,-3.110122,0.004911,0.025788,0.031510,0.044679,0.011708,-0.998933,0.003386,-0.002125,-0.010100,14.653673,26.108067,-46.757786,,,,,,,
1508183990.610456,0.045261,-0.011216,-3.109410,0.020993,0.023639,0.038993,0.045243,0.011216,-0.998913,-0.000138,-0.003907,-0.002216,14.691031,26.089327,-46.756523,,,,,,,
1508183990.630487,0.045573,-0.010742,-3.108592,0.012459,0.017245,0.041225,0.045555,0.010741,-0.998904,-0.004249,-0.004577,0.006015,14.722479,26.062355,-46.761673,,,,,,,
1508183990.650494,0.045508,-0.010538,-3.107911,-0.015377,0.010880,0.030676,0.045489,0.010538,-0.998909,-0.007449,-0.005869,0.012627,14.763008,26.023569,-46.770496,,,,,,,
1508183990.670485,0.045404,-0.010696,-3.107193,-0.011068,0.006513,0.038295,0.045385,0.010696,-0.998912,-0.008017,-0.001464,-0.000279,14.762666,26.019035,-46.773125,,,,,,,
1508183990.690507,0.045075,-0.010548,-3.106553,0.007082,0.010784,0.029689,0.045058,0.010548,-0.998929,-0.013274,-0.003514,-0.002872,14.777588,26.013435,-46.771526,,,,,,,
1508183990.710513,0.044719,-0.010222,-3.105983,0.011381,-0.000926,0.024524,0.044702,0.010222,-0.998948,-0.009882,-0.000334,0.001344,14.782029,25.984484,-46.786217,,,,,,,
1508183990.730513,0.044283,-0.010266,-3.105776,0.003775,0.011903,0.000885,0.044266,0.010266,-0.998967,-0.013276,0.004810,0.002812,14.775305,25.979656,-46.791019,,,,,,,
1508183990.750528,0.044674,-0.010397,-3.105819,-0.001646,0.035339,0.000549,0.044657,0.010397,-0.998948,-0.002542,0.002558,-0.006148,14.762617,25.982635,-46.793373,,,,,,,
1508183990.770532,0.045199,-0.010479,-3.105609,0.014565,0.003338,0.021261,0.045181,0.010478,-0.998924,0.002884,0.005833,-0.006279,14.801044,25.986607,-46.779026,,,,,,,
1508183990.790541,0.044598,-0.009932,-3.105022,0.041420,-0.022254,0.030142,0.044581,0.009932,-0.998956,-0.011714,0.002626,0.002832,14.806952,25.987083,-46.776890,,,,,,,
1508183990.810538,0.043692,-0.009315,-3.104679,0.007032,0.001233,0.006369,0.043676,0.009315,-0.999002,-0.020376,-0.004478,0.016062,14.778063,25.931555,-46.816822,,,,,,,
1508183990.830554,0.043303,-0.009381,-3.104979,-0.010256,0.022603,-0.025917,0.043288,0.009381,-0.999019,-0.016127,-0.000973,0.013606,14.748327,25.923437,-46.830692,,,,,,,
1508183990.850537,0.043248,-0.009429,-3.105582,-0.010230,0.013016,-0.026844,0.043233,0.009429,-0.999021,-0.007695,-0.004164,0.010999,14.725210,25.932369,-46.833023,,,,,,,
1508183990.870568,0.042855,-0.009527,-3.105936,-0.005799,-0.024294,-0.014577,0.042840,0.009527,-0.999036,-0.004998,-0.001058,0.006010,14.708150,25.941244,-46.833469,,,,,,,
1508183990.890574,0.042051,-0.009572,-3.106294,0.005930,-0.021084,-0.024229,0.042037,0.009572,-0.999070,-0.010268,0.001186,0.003160,14.660819,25.951227,-46.842781,,,,,,,
1508183990.910566,0.041657,-0.009644,-3.106984,-0.014507,-0.002938,-0.040472,0.041643,0.009644,-0.999086,-0.003450,-0.002060,-0.004057,14.622395,25.954561,-46.852940,,,,,,,
1508183990.930588,0.041502,-0.009881,-3.107855,-0.011329,0.006650,-0.041679,0.041488,0.009881,-0.999090,-0.003433,-0.001352,-0.005060,14.589537,25.976534,-46.851009,,,,,,,
1508183990.950578,0.041307,-0.009859,-3.108492,0.021949,-0.012564,-0.026498,0.041293,0.009859,-0.999098,-0.004595,0.003096,-0.007219,14.562907,25.994678,-46.849228,,,,,,,
1508183990.970587,0.039483,-0.008930,-3.108869,0.032814,-0.053078,-0.013123,0.039471,0.008930,-0.999181,-0.037502,-0.010517,-0.007487,14.518074,25.978518,-46.872105,,,,,,,
1508183990.990608,0.035461,-0.007714,-3.109784,0.041169,-0.051905,-0.076058,0.035452,0.007714,-0.999342,-0.082068,-0.010338,-0.006121,14.363737,25.928392,-46.947350,,,,,,,
1508183991.010614,0.035130,-0.007165,-3.112431,0.027919,-0.001674,-0.156749,0.035121,0.007165,-0.999357,-0.096050,-0.019067,-0.010301,14.184843,25.911257,-47.011158,,,,,,,
1508183991.030622,0.035038,-0.006599,-3.116560,0.040510,-0.002587,-0.234585,0.035030,0.006599,-0.999364,-0.092510,-0.003441,-0.023234,14.164131,25.915804,-47.014893,,,,,,,
1508183991.050628,0.034986,-0.005802,-3.121792,0.055373,-0.002519,-0.270851,0.034978,0.005802,-0.999371,-0.093130,0.003003,-0.024936,13.988997,25.954655,-47.045891,,,,,,,
1508183991.070634,0.034704,-0.004507,-3.127497,0.086423,-0.024867,-0.285479,0.034697,0.004507,-0.999388,-0.086958,0.019724,-0.024080,13.802936,25.975636,-47.089249,,,,,,,
1508183991.090557,0.033557,-0.002787,-3.133188,0.099442,-0.076018,-0.277283,0.033550,0.002787,-0.999433,-0.106564,0.018956,-0.006197,13.759985,25.974957,-47.102188,,,,,,,
1508183991.110579,0.031216,-0.000734,-3.139199,0.120897,-0.135601,-0.314822,0.031211,0.000734,-0.999513,-0.142722,0.025374,0.020646,13.438544,25.950163,-47.208542,,,,,,,
1508183991.130584,0.028469,0.001110,3.137107,0.080098,-0.141887,-0.362683,0.028465,-0.001110,-0.999594,-0.167335,0.005962,0.046042,13.070264,25.923468,-47.326458,,,,,,,
1508183991.150565,0.024935,0.001774,3.129046,0.023334,-0.195006,-0.426915,0.024933,-0.001774,-0.999688,-0.149963,0.007497,0.050438,12.989635,25.928143,-47.346096,,,,,,,
1508183991.170571,0.018474,0.001172,3.119724,-0.020634,-0.221533,-0.479812,0.018473,-0.001172,-0.999829,-0.131617,0.014111,0.049298,12.395963,26.045441,-47.440773,,,,,,,
1508183991.190585,0.013436,0.000170,3.110281,-0.054637,-0.291849,-0.470236,0.013435,-0.000170,-0.999910,-0.086617,0.018160,0.026674,11.706227,26.235394,-47.511261,,,,,,,
1508183991.210588,0.005279,-0.002033,3.100543,-0.083334,-0.384476,-0.493396,0.005279,0.002033,-0.999984,-0.057372,0.036267,0.019561,11.575106,26.275761,-47.521080,,,,,,,
1508183991.230618,-0.002922,-0.003844,3.090835,-0.091755,-0.420712,-0.483268,-0.002922,0.003844,-0.999988,-0.014076,0.043794,0.030857,10.610650,26.581129,-47.576355,,,,,,,
1508183991.250624,-0.011091,-0.006347,3.081392,-0.160110,-0.433531,-0.455307,-0.011091,0.006347,-0.999918,0.048627,-0.001998,0.022257,9.785533,26.831188,-47.612843,,,,,,,
1508183991.270603,-0.020408,-0.010219,3.072650,-0.216625,-0.470854,-0.428065,-0.020405,0.010219,-0.999740,0.105976,0.000234,-0.007600,9.310461,27.021729,-47.600349,,,,,,,
1508183991.290619,-0.029522,-0.014114,3.064657,-0.185468,-0.442229,-0.363460,-0.029515,0.014113,-0.999465,0.158894,0.022462,-0.034410,8.639837,27.301584,-47.567093,,,,,,,
1508183991.310644,-0.038370,-0.016760,3.058703,-0.115544,-0.442475,-0.249414,-0.038355,0.016759,-0.999124,0.233850,0.009639,-0.050513,37.324722,28.359381,-26.016996,,,,,,,
1508183991.330631,-0.047680,-0.018546,3.054998,-0.096945,-0.457617,-0.137247,-0.047653,0.018545,-0.998692,0.260056,-0.015523,-0.046123,37.051689,28.524734,-26.225664,,,,,,,
1508183991.350658,-0.055740,-0.020374,3.053087,-0.091703,-0.350158,-0.072699,-0.055699,0.020372,-0.998240,0.229878,-0.011858,-0.035543,36.742661,28.669920,-26.500679,,,,,,,
1508183991.370664,-0.061604,-0.021578,3.052221,-0.037201,-0.271495,-0.024738,-0.061551,0.021576,-0.997871,0.231457,-0.009644,-0.046242,36.482346,28.776817,-26.743355,,,,,,,
1508183991.390653,-0.065592,-0.022207,3.052290,-0.013784,-0.172537,0.027125,-0.065528,0.022206,-0.997604,0.196678,-0.016117,-0.033860,36.380150,28.799854,-26.857521,,,,,,,
1508183991.410679,-0.068097,-0.022172,3.053218,0.004238,-0.087374,0.052534,-0.068028,0.022170,-0.997437,0.154774,-0.020263,-0.009384,36.309513,28.783457,-26.970451,,,,,,,
1508183991.430686,-0.068493,-0.022083,3.054103,0.009249,0.010657,0.037246,-0.068423,0.022081,-0.997412,0.111651,-0.018052,0.000128,36.304100,28.735085,-27.029257,,,,,,,
1508183991.450687,-0.067732,-0.021740,3.054764,0.026220,0.049023,0.026014,-0.067665,0.021739,-0.997471,0.090171,-0.018305,0.003376,36.310890,28.727070,-27.028652,,,,,,,
1508183991.470698,-0.066243,-0.021184,3.055076,0.032471,0.090595,0.011545,-0.066180,0.021182,-0.997583,0.057162,-0.019168,0.001001,36.370960,28.680414,-26.997417,,,,,,,
1508183991.490705,-0.063914,-0.020530,3.055337,0.032348,0.126822,0.006754,-0.063857,0.020529,-0.997748,0.042769,-0.010931,0.001013,36.430466,28.653980,-26.945204,,,,,,,
1508183991.510692,-0.060875,-0.019901,3.055355,0.031107,0.174777,-0.002471,-0.060825,0.019900,-0.997950,0.029178,0.006346,0.002604,36.466030,28.642052,-26.909748,,,,,,,
1508183991.530701,-0.056996,-0.019134,3.055553,0.038602,0.193911,0.016440,-0.056955,0.019133,-0.998193,0.035791,0.006853,0.002206,36.599033,28.615467,-26.757038,,,,,,,
1508183991.550720,-0.053583,-0.018516,3.056277,0.028093,0.156581,0.041514,-0.053548,0.018515,-0.998394,0.033391,0.007273,0.006877,36.738575,28.568134,-26.616013,,,,,,,
1508183991.570731,-0.050529,-0.018203,3.057522,0.019659,0.149062,0.073618,-0.050499,0.018202,-0.998558,0.036828,0.001985,0.011879,36.765343,28.556765,-26.591240,,,,,,,
1508183991.590739,-0.047882,-0.017728,3.059405,0.028423,0.119162,0.109233,-0.047856,0.017727,-0.998697,0.062367,-0.011838,0.022134,36.941185,28.463745,-26.446877,,,,,,,
1508183991.610745,-0.045618,-0.017812,3.062308,-0.016322,0.106292,0.158503,-0.045595,0.017811,-0.998801,0.066591,-0.014805,0.021186,37.106995,28.336260,-26.351484,,,,,,,
1508183991.630741,-0.040863,-0.018010,3.065574,-0.021691,0.116954,0.161552,-0.040845,0.018010,-0.999003,0.061612,-0.003819,-0.003072,37.143452,28.308977,-26.329433,,,,,,,
1508183991.650760,-0.035692,-0.018187,3.068891,0.009238,0.158492,0.167324,-0.035679,0.018186,-0.999198,0.067432,0.001086,-0.008248,37.499668,28.129740,-26.014730,,,,,,,
1508183991.670764,-0.032048,-0.018185,3.072353,-0.002588,0.188301,0.177564,-0.032037,0.018184,-0.999321,0.097238,-0.007304,-0.001915,37.726105,27.965216,-25.864285,,,,,,,
1508183991.690766,-0.024075,-0.018374,3.076648,-0.020605,0.196728,0.238234,-0.024069,0.018373,-0.999541,0.110601,-0.000948,-0.011155,37.351322,29.451864,-31.441538,,,,,,,
1508183991.710779,-0.020071,-0.018600,3.082122,0.007387,0.198743,0.292565,-0.020066,0.018599,-0.999626,0.111283,0.020647,-0.009759,37.617672,29.278931,-31.285118,,,,,,,
1508183991.730785,-0.011663,-0.019250,3.088653,0.028854,0.221047,0.334878,-0.011660,0.019248,-0.999747,0.111636,0.030816,0.022559,38.127655,29.006786,-30.919115,,,,,,,
1508183991.750787,-0.006996,-0.019407,3.095811,-0.024499,0.224158,0.383923,-0.006995,0.019405,-0.999787,0.137702,0.005741,0.035386,38.379517,28.803896,-30.796947,,,,,,,
1508183991.770778,-0.003111,-0.020416,3.105209,-0.054899,0.158916,0.519246,-0.003110,0.020415,-0.999787,0.120756,-0.001646,0.019822,38.742992,28.511028,-30.613811,,,,,,,
1508183991.790807,-0.000027,-0.021201,3.116553,-0.021470,0.138546,0.580295,-0.000027,0.021200,-0.999775,0.054531,0.018473,0.013188,39.240601,28.021841,-30.431166,,,,,,,
1508183991.810794,0.004139,-0.022016,3.127612,-0.033542,0.189775,0.534777,0.004138,0.022014,-0.999749,0.007184,-0.000377,0.026071,39.564423,27.705114,-30.301594,,,,,,,
1508183991.830819,0.008976,-0.023174,3.138012,-0.066943,0.239899,0.509550,0.008973,0.023172,-0.999691,-0.035264,0.011023,0.008785,39.978607,27.306562,-30.119198,,,,,,,
1508183991.850827,0.013778,-0.024034,-3.135415,-0.039179,0.218662,0.472516,0.013774,0.024032,-0.999616,-0.075816,0.010926,0.003614,40.493744,26.846115,-29.843706,,,,,,,
1508183991.870816,0.018186,-0.024681,-3.126681,-0.048995,0.211335,0.408652,0.018179,0.024678,-0.999530,-0.125052,0.003047,0.019382,40.772800,26.582329,-29.699535,,,,,,,
1508183991.890839,0.023339,-0.025920,-3.119920,-0.079498,0.273348,0.297946,0.023329,0.025917,-0.999392,-0.149321,0.003151,0.023836,41.110802,26.292307,-29.491022,,,,,,,
1508183991.910846,0.028526,-0.027646,-3.114373,-0.098707,0.220155,0.265677,0.028511,0.027642,-0.999211,-0.119667,-0.010369,-0.011928,41.348160,26.141624,-29.292471,,,,,,,
1508183991.930852,0.032247,-0.029347,-3.109416,-0.081538,0.163767,0.229161,0.032228,0.029342,-0.999050,-0.142015,0.011719,-0.033924,41.738522,25.900312,-28.951221,,,,,,,
1508183991.950843,0.035786,-0.030420,-3.105487,-0.045381,0.177719,0.172418,0.035762,0.030415,-0.998897,-0.137554,0.019328,-0.034702,41.894077,25.796984,-28.818495,,,,,,,
1508183991.970840,0.039266,-0.030780,-3.102418,-0.013286,0.150069,0.145071,0.039238,0.030776,-0.998756,-0.111320,0.001771,-0.037987,42.037769,25.707022,-28.689350,,,,,,,
1508183991.990873,0.041500,-0.030794,-3.099910,-0.007888,0.092621,0.107513,0.041468,0.030789,-0.998665,-0.112681,-0.008679,-0.020362,42.264854,25.540430,-28.503906,,,,,,,
1508183992.010880,0.043505,-0.030820,-3.098280,0.000522,0.099091,0.066893,0.043471,0.030816,-0.998579,-0.109603,-0.002556,-0.017275,42.342407,25.482357,-28.440706,,,,,,,
1508183992.030886,0.041016,-0.030370,-3.097348,0.009108,0.068215,0.046008,0.040986,0.030366,-0.998698,-0.084229,-0.007966,-0.002965,42.308460,25.424267,-28.543032,,,,,,,
1508183992.050894,0.041985,-0.030189,-3.096743,0.002681,0.039512,0.017639,0.041953,0.030185,-0.998663,-0.083427,-0.001620,0.010398,42.366699,25.381603,-28.494570,,,,,,,
1508183992.070900,0.039282,-0.030015,-3.096783,-0.016561,0.009716,-0.004307,0.039255,0.030011,-0.998778,-0.056604,-0.012967,0.006087,42.302010,25.361944,-28.607954,,,,,,,
1508183992.090905,0.038930,-0.030421,-3.097070,-0.023991,-0.028598,-0.020807,0.038903,0.030417,-0.998780,-0.040032,-0.013098,-0.002532,42.295269,25.383045,-28.599205,,,,,,,
1508183992.110914,0.037316,-0.031070,-3.097626,-0.035895,0.006568,-0.029838,0.037290,0.031065,-0.998821,-0.031415,-0.001295,-0.001270,42.230934,25.421906,-28.659706,,,,,,,
1508183992.130920,0.037284,-0.031552,-3.098455,-0.012355,-0.014703,-0.049807,0.037257,0.031547,-0.998808,-0.006800,0.006111,-0.006731,42.221188,25.456972,-28.642927,,,,,,,
1508183992.150926,0.036852,-0.031439,-3.099192,-0.001492,-0.047765,-0.030142,0.036825,0.031434,-0.998827,0.007899,-0.004853,-0.004713,42.176800,25.509331,-28.661741,,,,,,,
1508183992.170925,0.035957,-0.031748,-3.099780,-0.025082,-0.032843,-0.031407,0.035931,0.031743,-0.998850,0.005969,-0.003819,0.000712,42.154099,25.523348,-28.682648,,,,,,,
1508183992.190940,0.035679,-0.032446,-3.100427,-0.032675,-0.000879,-0.033998,0.035653,0.032440,-0.998838,0.004371,0.006409,-0.000277,42.120735,25.565641,-28.693995,,,,,,,
1508183992.210947,0.035304,-0.032560,-3.101079,0.012381,-0.033922,-0.029287,0.035278,0.032554,-0.998847,0.018845,0.001305,-0.005425,42.092751,25.615704,-28.690413,,,,,,,
1508183992.230938,0.034237,-0.032300,-3.101546,0.011391,-0.056301,-0.024697,0.034213,0.032294,-0.998893,0.001020,-0.014655,-0.008447,42.064438,25.625296,-28.723352,,,,,,,
1508183992.250947,0.032669,-0.032303,-3.102487,0.014351,-0.004052,-0.054247,0.032646,0.032297,-0.998945,-0.021614,0.004141,-0.008806,42.019863,25.645161,-28.770824,,,,,,,
1508183992.270967,0.030258,-0.031778,-3.103595,0.041156,-0.012612,-0.045613,0.030238,0.031773,-0.999038,-0.031001,-0.001438,-0.016420,41.934750,25.683834,-28.860373,,,,,,,
1508183992.290958,0.027233,-0.030360,-3.104662,0.072326,-0.073323,-0.058618,0.027217,0.030355,-0.999169,-0.093623,-0.009451,-0.003898,41.782246,25.698799,-29.067497,,,,,,,
1508183992.310982,0.025994,-0.029179,-3.106544,0.049576,-0.038057,-0.112428,0.025980,0.029175,-0.999237,-0.103449,-0.010102,0.000366,41.722858,25.713446,-29.139753,,,,,,,
1508183992.330969,0.025418,-0.028541,-3.109578,0.025802,-0.027275,-0.174412,0.025405,0.028537,-0.999270,-0.113464,-0.007404,-0.011854,41.661896,25.761583,-29.184427,,,,,,,
