timestamp(unix),attitude_roll(radians),attitude_pitch(radians),attitude_yaw(radians),rotation_rate_x(radians/s),rotation_rate_y(radians/s),rotation_rate_z(radians/s),gravity_x(G),gravity_y(G),gravity_z(G),user_acc_x(G),user_acc_y(G),user_acc_z(G),magnetic_field_x(microteslas),magnetic_field_y(microteslas),magnetic_field_z(microteslas),latitude(degree),longitude(degree),altitude(meter),speed(m/s),course(degree),timestamp(unix),User Mark
1508183684.861927,0.045174,0.076280,-3.136944,0.027192,-0.009102,0.007698,0.045028,-0.076206,-0.996075,0.007249,0.000431,-0.001575,1.006643,17.573273,-62.250877,,,,,,,
1508183684.881932,0.044955,0.077017,-3.136428,0.035885,-0.019818,0.038770,0.044807,-0.076941,-0.996028,0.001458,-0.000223,-0.003972,1.014802,17.532001,-62.262383,,,,,,,
1508183684.901959,0.044461,0.077670,-3.135762,0.011208,-0.008075,0.029021,0.044312,-0.077592,-0.996000,-0.010758,-0.005447,0.006544,1.005956,17.500402,-62.271416,,,,,,,
1508183684.921961,0.043939,0.077325,-3.135257,0.002612,-0.005927,0.020466,0.043793,-0.077248,-0.996050,-0.004777,0.012871,-0.004545,0.984501,17.484320,-62.276276,,,,,,,
1508183684.941961,0.043756,0.077454,-3.135026,0.031428,0.003680,0.006443,0.043611,-0.077377,-0.996048,-0.003785,0.002411,-0.005417,0.976795,17.503378,-62.271042,,,,,,,
1508183684.961978,0.043890,0.077923,-3.134810,0.021861,-0.003799,0.019354,0.043743,-0.077844,-0.996005,0.005879,0.003763,-0.007031,0.974830,17.475502,-62.278900,,,,,,,
1508183684.981982,0.043300,0.078521,-3.134251,0.033743,-0.029390,0.030380,0.043153,-0.078441,-0.995984,-0.005906,0.004207,0.001447,0.975316,17.435684,-62.290058,,,,,,,
1508183685.001984,0.042320,0.079328,-3.133846,0.007908,0.002608,0.011808,0.042174,-0.079244,-0.995963,-0.015410,-0.007792,0.009055,0.930271,17.402098,-62.300137,,,,,,,
1508183685.021993,0.042651,0.079018,-3.133735,-0.025368,0.028199,0.002931,0.042505,-0.078935,-0.995973,0.000556,0.004427,-0.000700,0.911567,17.377285,-62.307335,,,,,,,
1508183685.041998,0.043079,0.078818,-3.133545,0.031479,0.001520,0.020336,0.042932,-0.078737,-0.995971,0.003165,0.004121,-0.005464,0.956368,17.417244,-62.295506,,,,,,,
1508183685.062000,0.042332,0.079939,-3.132889,0.048771,-0.038995,0.035839,0.042184,-0.079854,-0.995914,-0.005258,-0.004909,-0.000882,0.954691,17.383604,-62.304924,,,,,,,
1508183685.082010,0.041019,0.080709,-3.132425,0.021927,-0.035744,0.010221,0.040874,-0.080622,-0.995906,-0.011195,-0.001760,0.001064,0.895391,17.317793,-62.324135,,,,,,,
1508183685.102013,0.040730,0.080661,-3.132596,0.000283,0.020765,-0.012975,0.040586,-0.080573,-0.995922,-0.003279,0.005653,0.005794,0.837084,17.293314,-62.331741,,,,,,,
1508183685.122005,0.041749,0.080485,-3.132738,0.009909,0.034589,-0.001453,0.041601,-0.080398,-0.995894,0.011774,0.005844,0.000670,0.860811,17.307928,-62.327362,,,,,,,
1508183685.142027,0.042387,0.080520,-3.132581,0.031531,-0.017653,0.019548,0.042237,-0.080433,-0.995865,0.011519,0.013706,0.001663,0.931192,17.308998,-62.326054,,,,,,,
1508183685.162029,0.041813,0.081312,-3.132237,0.058303,-0.028305,0.016484,0.041663,-0.081222,-0.995825,0.000360,0.002441,0.008017,0.921212,17.276550,-62.335201,,,,,,,
1508183685.182011,0.041793,0.082057,-3.132071,0.036732,0.016462,0.005188,0.041641,-0.081965,-0.995765,0.002045,0.006602,0.007926,0.911917,17.225554,-62.349449,,,,,,,
1508183685.202042,0.042544,0.082721,-3.132107,0.028126,0.029253,0.002876,0.042386,-0.082626,-0.995679,0.008594,0.002563,0.009305,0.924369,17.202621,-62.355598,,,,,,,
1508183685.222046,0.043049,0.083080,-3.131797,-0.001666,-0.001678,0.026806,0.042887,-0.082985,-0.995628,0.005651,-0.000771,-0.002313,0.993841,17.151073,-62.368725,,,,,,,
1508183685.242039,0.042782,0.083418,-3.131246,0.042218,-0.010202,0.022631,0.042620,-0.083321,-0.995611,-0.005312,0.006844,-0.003382,0.999750,17.143892,-62.370609,,,,,,,
1508183685.262058,0.042828,0.084410,-3.131081,0.045212,0.038840,0.000591,0.042662,-0.084309,-0.995526,-0.013320,0.001515,0.001538,0.998794,17.114689,-62.378643,,,,,,,
1508183685.282063,0.043833,0.085140,-3.131230,0.012963,0.079351,-0.011699,0.043660,-0.085037,-0.995421,-0.006307,-0.004212,0.007521,1.049250,17.033886,-62.399929,,,,,,,
1508183685.302043,0.045241,0.085496,-3.131426,0.015211,0.052702,-0.002784,0.045060,-0.085392,-0.995328,0.006423,-0.004910,0.004132,1.133241,17.005424,-62.406223,,,,,,,
1508183685.322048,0.045176,0.086143,-3.131162,0.032733,-0.049625,0.027477,0.044993,-0.086036,-0.995276,0.009176,-0.003731,-0.003580,1.158261,16.993885,-62.408909,,,,,,,
1508183685.342079,0.043583,0.086806,-3.130539,0.018803,-0.045357,0.025293,0.043405,-0.086697,-0.995289,-0.022515,-0.000278,0.009937,1.109221,16.928190,-62.427647,,,,,,,
1508183685.362060,0.042816,0.087193,-3.130225,0.018534,0.030299,0.011401,0.042640,-0.087083,-0.995288,-0.013603,-0.001464,0.005511,1.015651,16.902580,-62.436176,,,,,,,
1508183685.382092,0.043188,0.087681,-3.130083,0.029268,0.010073,0.003156,0.043008,-0.087568,-0.995230,-0.007089,-0.000276,-0.000345,1.038823,16.890894,-62.438961,,,,,,,
1508183685.402096,0.042381,0.088407,-3.129935,0.019728,-0.018691,0.004646,0.042202,-0.088292,-0.995200,-0.018048,-0.006008,0.006843,1.035776,16.837023,-62.453560,,,,,,,
1508183685.422093,0.041483,0.088822,-3.130103,-0.010385,0.004800,-0.021263,0.041308,-0.088705,-0.995201,-0.015154,-0.007929,0.007683,0.969374,16.802887,-62.463821,,,,,,,
1508183685.442108,0.041781,0.088082,-3.130637,-0.043682,0.032530,-0.034436,0.041607,-0.087968,-0.995254,-0.003490,0.003648,-0.000840,0.943224,16.807762,-62.462906,,,,,,,
1508183685.462113,0.042494,0.087003,-3.131152,-0.001768,-0.006934,-0.013635,0.042320,-0.086893,-0.995318,0.014152,0.017908,-0.009488,0.971157,16.881674,-62.442543,,,,,,,
1508183685.482095,0.042153,0.087253,-3.131494,0.064675,-0.043164,-0.015292,0.041980,-0.087142,-0.995311,0.004391,0.008254,-0.007802,0.980886,16.917046,-62.432816,,,,,,,
1508183685.502125,0.041710,0.088442,-3.131723,0.060300,-0.004826,-0.009447,0.041535,-0.088327,-0.995225,0.001129,0.003610,0.000566,0.931933,16.851437,-62.451309,,,,,,,
1508183685.522129,0.042409,0.089517,-3.132214,0.044072,0.034630,-0.028134,0.042227,-0.089397,-0.995100,0.005869,-0.004566,0.005049,0.941601,16.768753,-62.473412,,,,,,,
1508183685.542127,0.043431,0.090063,-3.132660,-0.007131,0.001586,-0.009490,0.043241,-0.089942,-0.995008,0.020510,-0.005639,0.001920,0.985334,16.719460,-62.485954,,,,,,,
1508183685.562142,0.043654,0.089697,-3.132594,0.005783,-0.004841,0.007655,0.043464,-0.089577,-0.995031,0.002343,0.008904,0.003149,1.026498,16.726564,-62.483387,,,,,,,
1508183685.582145,0.043915,0.090026,-3.132521,0.027119,0.013270,0.004177,0.043723,-0.089904,-0.994990,0.007165,0.000701,0.004649,1.032008,16.724335,-62.483891,,,,,,,
1508183685.602127,0.044250,0.090628,-3.132372,0.027250,-0.016582,0.017405,0.044054,-0.090504,-0.994921,0.014082,-0.002194,0.000537,1.055442,16.699038,-62.490269,,,,,,,
1508183685.622158,0.043937,0.091180,-3.131915,0.025176,-0.029380,0.026123,0.043740,-0.091054,-0.994885,0.019446,-0.000621,0.000805,1.077088,16.660950,-62.500061,,,,,,,
1508183685.642161,0.043910,0.091743,-3.131492,0.016471,0.013244,0.020180,0.043711,-0.091615,-0.994835,-0.001155,-0.002746,0.010963,1.064480,16.620800,-62.510963,,,,,,,
1508183685.662168,0.044406,0.092196,-3.131217,0.012131,0.021789,0.009396,0.044202,-0.092066,-0.994771,0.003008,-0.005804,0.011114,1.086151,16.600292,-62.516045,,,,,,,
1508183685.682174,0.044966,0.092499,-3.131069,-0.003899,0.017528,0.011603,0.044759,-0.092367,-0.994718,0.005244,-0.010904,0.012876,1.131270,16.562216,-62.525345,,,,,,,
1508183685.702179,0.045314,0.092746,-3.130759,-0.004896,0.001536,0.019299,0.045104,-0.092613,-0.994680,0.005921,-0.004540,0.011861,1.163586,16.555302,-62.526577,,,,,,,
1508183685.722185,0.045635,0.092696,-3.130367,0.003575,0.032424,0.019911,0.045423,-0.092563,-0.994670,-0.002958,0.003864,0.012538,1.185124,16.550520,-62.527443,,,,,,,
1508183685.742188,0.046649,0.092501,-3.130023,-0.002827,0.023909,0.017907,0.046433,-0.092369,-0.994642,0.011978,0.007896,0.003660,1.237145,16.553282,-62.525703,,,,,,,
1508183685.762184,0.047125,0.092366,-3.129585,0.013325,0.002578,0.029933,0.046907,-0.092235,-0.994632,0.005904,0.003673,0.003375,1.302189,16.574532,-62.518753,,,,,,,
1508183685.782201,0.047278,0.092579,-3.128902,0.016551,0.002567,0.035262,0.047058,-0.092447,-0.994605,0.003662,0.004389,0.011023,1.329211,16.563379,-62.521141,,,,,,,
1508183685.802207,0.047318,0.092838,-3.128370,0.004772,-0.005930,0.024731,0.047097,-0.092705,-0.994579,0.003257,-0.001000,0.014675,1.348427,16.555691,-62.522762,,,,,,,
1508183685.822212,0.047195,0.092824,-3.127787,-0.042355,0.016439,0.030840,0.046974,-0.092691,-0.994586,-0.009849,-0.009040,0.009708,1.362318,16.548765,-62.524296,,,,,,,
1508183685.842218,0.047385,0.091803,-3.127096,-0.048760,0.011114,0.030922,0.047168,-0.091674,-0.994671,-0.008227,-0.001877,0.006588,1.378879,16.583694,-62.514679,,,,,,,
1508183685.862224,0.046958,0.091362,-3.126275,0.004852,-0.010230,0.042923,0.046745,-0.091235,-0.994732,-0.010704,0.001849,0.003902,1.388646,16.641356,-62.499138,,,,,,,
1508183685.882228,0.046231,0.091739,-3.125511,-0.009144,0.004710,0.029922,0.046020,-0.091610,-0.994731,-0.012649,-0.008747,0.002116,1.359713,16.629379,-62.502964,,,,,,,
1508183685.902233,0.045951,0.091527,-3.124917,-0.019828,-0.003804,0.026854,0.045742,-0.091399,-0.994763,-0.011730,-0.006959,-0.003192,1.355420,16.630661,-62.502716,,,,,,,
1508183685.922239,0.045412,0.091310,-3.124462,-0.012333,-0.011253,0.021625,0.045207,-0.091183,-0.994808,-0.011058,-0.004322,-0.012700,1.325441,16.642300,-62.500259,,,,,,,
1508183685.942245,0.044704,0.090797,-3.124118,-0.025331,0.024995,0.006181,0.044505,-0.090672,-0.994886,-0.013942,0.003316,-0.007769,1.292344,16.668026,-62.494095,,,,,,,
1508183685.962234,0.045260,0.090518,-3.124209,0.007776,0.032468,-0.006747,0.045060,-0.090395,-0.994886,-0.000428,0.002809,-0.014635,1.305152,16.687820,-62.488548,,,,,,,
1508183685.982240,0.045638,0.090675,-3.124175,0.002587,-0.003780,0.009777,0.045435,-0.090551,-0.994855,0.010565,-0.002970,-0.012607,1.338400,16.691191,-62.486942,,,,,,,
1508183686.002260,0.045299,0.090724,-3.123851,0.000500,-0.012319,0.018433,0.045097,-0.090600,-0.994866,-0.007607,-0.001380,-0.001243,1.338210,16.688248,-62.487732,,,,,,,
1508183686.022267,0.045147,0.090822,-3.123538,0.004669,0.011122,0.010625,0.044945,-0.090697,-0.994864,-0.010262,-0.000352,-0.001642,1.328761,16.684053,-62.489056,,,,,,,
1508183686.042182,0.045175,0.091010,-3.123365,0.016468,-0.001658,0.007603,0.044973,-0.090885,-0.994845,-0.006613,0.003101,0.003070,1.325343,16.679132,-62.490440,,,,,,,
1508183686.062186,0.044647,0.091168,-3.123272,0.010081,-0.019754,0.001472,0.044447,-0.091042,-0.994855,-0.004468,-0.000282,-0.000262,1.310406,16.662964,-62.495068,,,,,,,
1508183686.082192,0.044030,0.091367,-3.123181,0.007957,-0.021891,0.004704,0.043832,-0.091240,-0.994864,-0.006951,-0.000999,-0.004862,1.285381,16.653339,-62.498154,,,,,,,
1508183686.102198,0.043698,0.091530,-3.123170,0.003605,-0.004833,-0.001938,0.043501,-0.091402,-0.994863,-0.004485,-0.002882,-0.001810,1.245632,16.639135,-62.502743,,,,,,,
1508183686.122200,0.043500,0.091491,-3.123217,0.015330,0.007950,-0.004265,0.043304,-0.091364,-0.994876,-0.003524,0.007456,-0.001249,1.230827,16.633303,-62.504589,,,,,,,
1508183686.142208,0.043846,0.091613,-3.123555,0.021659,0.019701,-0.021501,0.043648,-0.091485,-0.994849,0.000206,0.006830,-0.000207,1.237448,16.628210,-62.505814,,,,,,,
1508183686.162203,0.044795,0.091988,-3.124035,0.030194,0.032475,-0.017427,0.044590,-0.091858,-0.994773,0.009700,0.001374,0.000861,1.262115,16.622488,-62.506844,,,,,,,
1508183686.182220,0.045653,0.092845,-3.124142,0.043130,0.014306,0.005222,0.045441,-0.092711,-0.994656,0.007522,-0.002198,0.007091,1.327369,16.570969,-62.519165,,,,,,,
1508183686.202226,0.045728,0.093863,-3.124100,0.026057,-0.006984,0.000212,0.045510,-0.093726,-0.994557,-0.002038,-0.006357,0.017034,1.353070,16.508894,-62.535038,,,,,,,
1508183686.222231,0.045297,0.093973,-3.124178,-0.027424,-0.019744,-0.004895,0.045081,-0.093835,-0.994567,-0.004600,-0.011039,0.015120,1.345551,16.485165,-62.541458,,,,,,,
1508183686.242235,0.045054,0.093205,-3.124147,-0.023158,-0.006977,0.002381,0.044843,-0.093070,-0.994649,-0.000776,0.010825,0.002111,1.308754,16.508820,-62.536003,,,,,,,
1508183686.262242,0.044864,0.093124,-3.124089,0.026064,-0.005926,0.003395,0.044654,-0.092990,-0.994665,-0.001533,0.003024,-0.004419,1.298890,16.539589,-62.528076,,,,,,,
1508183686.282247,0.044782,0.093543,-3.124128,0.018533,-0.001646,-0.005192,0.044571,-0.093407,-0.994630,-0.000061,0.002373,-0.002013,1.293053,16.527678,-62.531345,,,,,,,
1508183686.302223,0.045202,0.093756,-3.124276,-0.006126,0.016466,-0.003303,0.044988,-0.093619,-0.994591,0.003702,-0.002542,0.000939,1.302611,16.497519,-62.539112,,,,,,,
1508183686.322231,0.045504,0.093592,-3.124277,-0.013535,-0.004847,0.002343,0.045289,-0.093456,-0.994593,0.011122,-0.003453,-0.003485,1.323208,16.502239,-62.537434,,,,,,,
1508183686.342264,0.045294,0.093618,-3.124069,0.016491,-0.028338,0.018656,0.045080,-0.093482,-0.994600,0.012491,0.001105,-0.004027,1.336942,16.512514,-62.534424,,,,,,,
1508183686.362268,0.044658,0.094039,-3.123847,0.003581,-0.019785,0.004680,0.044446,-0.093900,-0.994589,-0.004101,-0.007921,0.004019,1.299159,16.491524,-62.540764,,,,,,,
1508183686.382274,0.044949,0.094123,-3.123819,0.009808,0.038813,-0.001506,0.044735,-0.093984,-0.994568,-0.007580,0.000508,0.000595,1.294447,16.478474,-62.544300,,,,,,,
1508183686.402281,0.045829,0.094330,-3.124103,0.001251,0.023927,-0.014079,0.045609,-0.094190,-0.994509,0.007049,-0.005587,-0.004026,1.340126,16.461664,-62.547764,,,,,,,
1508183686.422286,0.046371,0.094773,-3.124056,0.032538,-0.024083,0.020715,0.046146,-0.094632,-0.994442,0.011318,-0.000492,-0.004123,1.382130,16.443428,-62.551647,,,,,,,
1508183686.442292,0.045528,0.095586,-3.123499,0.016595,-0.049664,0.030695,0.045305,-0.095441,-0.994404,0.007979,-0.009082,-0.000164,1.367805,16.409943,-62.560753,,,,,,,
1508183686.462297,0.044759,0.095627,-3.123066,-0.010371,0.001513,0.010779,0.044539,-0.095482,-0.994434,-0.013503,-0.003975,0.007191,1.315177,16.375200,-62.570984,,,,,,,
1508183686.482277,0.044940,0.095183,-3.123045,-0.009490,0.040968,-0.011119,0.044721,-0.095039,-0.994468,-0.005537,0.006722,0.003029,1.319951,16.396307,-62.565361,,,,,,,
1508183686.502307,0.046006,0.095032,-3.123346,0.014094,0.032431,-0.005682,0.045782,-0.094889,-0.994435,0.007837,0.004130,0.004307,1.363424,16.416817,-62.559048,,,,,,,
1508183686.522314,0.046402,0.095563,-3.123040,0.033598,-0.017697,0.023821,0.046173,-0.095418,-0.994366,0.007248,-0.000133,0.000836,1.408176,16.405596,-62.561001,,,,,,,
1508183686.542319,0.045510,0.096372,-3.122666,0.005801,-0.036844,0.013456,0.045283,-0.096223,-0.994329,-0.009440,-0.008590,0.006826,1.392223,16.349522,-62.576035,,,,,,,
1508183686.562324,0.044857,0.096115,-3.122622,-0.021208,0.024990,-0.009812,0.044635,-0.095967,-0.994383,-0.012485,0.001119,0.009062,1.338306,16.343786,-62.578709,,,,,,,
1508183686.582331,0.045689,0.095829,-3.122765,-0.007318,0.038822,-0.003626,0.045463,-0.095682,-0.994373,-0.002525,-0.000372,0.000950,1.340661,16.357664,-62.575031,,,,,,,
1508183686.602334,0.045910,0.095907,-3.122682,0.026112,-0.030459,0.013348,0.045683,-0.095760,-0.994356,0.010042,0.003734,-0.003691,1.389487,16.366779,-62.571587,,,,,,,
1508183686.622341,0.044931,0.096410,-3.122337,0.014351,-0.034716,0.012353,0.044707,-0.096261,-0.994352,-0.006942,-0.001243,0.003110,1.359650,16.339678,-62.579323,,,,,,,
1508183686.642335,0.044821,0.096421,-3.122229,-0.009380,0.020698,0.004103,0.044598,-0.096272,-0.994355,-0.007031,-0.001278,0.007905,1.334971,16.330719,-62.582191,,,,,,,
1508183686.662351,0.045341,0.096212,-3.122121,-0.009339,0.006851,0.004303,0.045116,-0.096063,-0.994352,0.011586,0.001078,-0.004793,1.353412,16.340559,-62.579224,,,,,,,
1508183686.682354,0.045453,0.096164,-3.121755,0.007948,-0.020900,0.030284,0.045228,-0.096016,-0.994352,0.004394,0.002037,-0.008319,1.385103,16.348091,-62.576565,,,,,,,
1508183686.702363,0.044786,0.096670,-3.121074,0.035857,-0.043290,0.036986,0.044562,-0.096519,-0.994333,0.007882,0.002068,-0.010763,1.379592,16.344393,-62.577652,,,,,,,
1508183686.722367,0.044063,0.097640,-3.120326,0.022970,-0.027307,0.036763,0.043839,-0.097485,-0.994271,-0.004120,-0.011204,-0.002448,1.343114,16.281296,-62.594894,,,,,,,
1508183686.742374,0.043630,0.098128,-3.119718,0.010019,-0.001717,0.025739,0.043406,-0.097971,-0.994242,-0.009135,-0.009619,-0.000066,1.328209,16.249084,-62.603577,,,,,,,
1508183686.762380,0.043508,0.098547,-3.119359,0.013218,-0.005964,0.018334,0.043283,-0.098387,-0.994206,-0.000711,-0.007677,-0.003459,1.319746,16.211266,-62.613564,,,,,,,
1508183686.782369,0.042982,0.099159,-3.118803,0.027247,-0.032623,0.030440,0.042758,-0.098997,-0.994169,0.000699,-0.000796,-0.020297,1.307524,16.173115,-62.623684,,,,,,,
1508183686.802389,0.042057,0.099973,-3.118298,0.041206,-0.049668,0.029610,0.041834,-0.099806,-0.994127,0.003026,-0.003404,-0.023726,1.277087,16.143408,-62.631977,,,,,,,
1508183686.822396,0.040977,0.100886,-3.117629,0.059421,-0.048624,0.038112,0.040757,-0.100715,-0.994080,0.006164,0.002266,-0.036422,1.227126,16.094955,-62.645443,,,,,,,
1508183686.842399,0.040307,0.102092,-3.116934,0.087196,-0.035843,0.035773,0.040086,-0.101914,-0.993985,0.006286,0.003404,-0.059985,1.178937,16.000019,-62.670685,,,,,,,
1508183686.862407,0.039855,0.104177,-3.116397,0.122471,-0.027322,0.032424,0.039628,-0.103989,-0.993789,0.013625,0.004944,-0.058900,1.159277,15.917234,-62.692127,,,,,,,
1508183686.882410,0.039622,0.106978,-3.115666,0.121432,-0.017769,0.050413,0.039385,-0.106774,-0.993503,0.008604,-0.012611,-0.058499,1.161472,15.766167,-62.730247,,,,,,,
1508183686.902417,0.038968,0.109884,-3.114398,0.162270,-0.047660,0.077473,0.038724,-0.109663,-0.993214,0.009754,-0.020189,-0.115123,1.161577,15.550610,-62.784031,,,,,,,
1508183686.922423,0.036965,0.114022,-3.112919,0.228847,-0.112681,0.090096,0.036716,-0.113775,-0.992828,0.021557,-0.037272,-0.164521,1.090656,15.313525,-62.843548,,,,,,,
1508183686.942429,0.033998,0.119474,-3.110931,0.295341,-0.135119,0.115962,0.033749,-0.119190,-0.992298,0.010547,-0.050533,-0.193829,0.992458,15.081867,-62.901169,,,,,,,
1508183686.962433,0.031405,0.126776,-3.108537,0.415171,-0.102177,0.140986,0.031148,-0.126437,-0.991486,-0.004415,-0.060651,-0.224014,0.838206,14.574955,-63.022797,,,,,,,
1508183686.982440,0.028542,0.136108,-3.105790,0.478505,-0.159734,0.150304,0.028274,-0.135688,-0.990348,0.008545,-0.059610,-0.248635,0.773182,14.158617,-63.118465,,,,,,,
1508183687.002446,0.024209,0.145938,-3.102789,0.498075,-0.239676,0.172774,0.023950,-0.145420,-0.989080,0.053962,-0.075741,-0.336619,0.612736,13.551883,-63.253269,,,,,,,
1508183687.022450,0.018974,0.156811,-3.098995,0.580474,-0.193978,0.215768,0.018740,-0.156170,-0.987552,0.067472,-0.062077,-0.374905,0.300756,12.738033,-63.424419,,,,,,,
1508183687.042455,0.014935,0.170425,-3.093281,0.739154,-0.153803,0.348354,0.014718,-0.169601,-0.985403,0.053642,-0.057190,-0.399454,0.183956,12.150210,-63.540096,,,,,,,
1508183687.062463,0.009638,0.187512,-3.084993,0.932280,-0.223283,0.444118,0.009469,-0.186415,-0.982425,0.056144,-0.054445,-0.427883,0.063936,11.185044,-63.717312,,,,,,,
1508183687.082467,0.001751,0.210027,-3.076284,1.240736,-0.352191,0.412700,0.001713,-0.208486,-0.978024,0.001583,-0.036662,-0.368396,-0.238798,9.572751,-63.978985,,,,,,,
1508183687.102460,-0.007157,0.237212,-3.068501,1.384043,-0.383013,0.359725,-0.006956,-0.234993,-0.971972,-0.012880,-0.041572,-0.335752,-0.521425,8.322197,-64.151962,,,,,,,
1508183687.122478,-0.017114,0.263558,-3.061741,1.279006,-0.420096,0.272905,-0.016522,-0.260517,-0.965328,-0.012500,-0.065121,-0.291279,-0.970745,6.570679,-64.349739,,,,,,,
1508183687.142483,-0.027836,0.287662,-3.056540,1.182629,-0.483826,0.192862,-0.026689,-0.283711,-0.958538,-0.028456,-0.031383,-0.235355,-1.648325,4.566242,-64.509209,,,,,,,
1508183687.162489,-0.037984,0.312337,-3.052052,1.315005,-0.397541,0.175517,-0.036137,-0.307284,-0.950932,-0.033855,0.012560,-0.213161,-2.096019,3.416348,-64.567329,,,,,,,
1508183687.182494,-0.046909,0.342470,-3.046096,1.647768,-0.321050,0.237070,-0.044168,-0.335815,-0.940892,-0.035467,0.081680,-0.201183,-2.593515,1.671993,-64.617981,,,,,,,
1508183687.202499,-0.056306,0.378739,-3.039354,1.895122,-0.411597,0.207275,-0.052288,-0.369749,-0.927659,0.034343,0.095534,-0.150191,-3.125182,-1.096554,-64.606781,,,,,,,
1508183687.222505,-0.067520,0.417403,-3.033210,1.959175,-0.433849,0.140372,-0.061676,-0.405387,-0.912062,0.044953,0.116096,-0.104250,-3.552634,-2.948313,-64.526672,,,,,,,
1508183687.242510,-0.078652,0.455380,-3.027471,1.873424,-0.423105,0.105093,-0.070564,-0.439804,-0.895317,0.006492,0.097137,-0.040779,-4.129280,-5.448086,-64.329407,,,,,,,
1508183687.262512,-0.088853,0.490424,-3.022713,1.669859,-0.413329,0.035794,-0.078277,-0.471000,-0.878653,0.031876,0.088142,0.019568,-4.802968,-8.377634,-63.966801,,,,,,,
1508183687.282521,-0.098794,0.520791,-3.020173,1.464042,-0.437597,-0.069267,-0.085557,-0.497567,-0.863196,0.046082,0.130242,0.038199,-5.349864,-10.386150,-63.627918,,,,,,,
1508183687.302519,-0.108336,0.550300,-3.018251,1.506785,-0.397166,-0.050692,-0.092161,-0.522943,-0.847371,0.013380,0.173089,0.076069,-5.758261,-11.782696,-63.348370,,,,,,,
1508183687.322532,-0.117273,0.583284,-3.013744,1.779606,-0.280244,0.042308,-0.097658,-0.550768,-0.828926,0.021212,0.234484,0.069923,-6.330786,-14.262829,-62.781353,,,,,,,
1508183687.342539,-0.127272,0.622660,-3.005746,2.097647,-0.302796,0.093579,-0.103108,-0.583198,-0.805760,0.077687,0.258033,0.095555,-6.688065,-16.645611,-62.154636,,,,,,,
1508183687.362544,-0.140544,0.666192,-2.996784,2.261556,-0.429486,0.036647,-0.110129,-0.617997,-0.778429,0.098975,0.271104,0.102052,-6.904535,-17.953726,-61.765656,,,,,,,
1508183687.382548,-0.153504,0.711863,-2.987639,2.312411,-0.282452,0.014217,-0.115769,-0.653246,-0.748243,0.031708,0.269106,0.260847,-7.651635,-22.100006,-60.316231,,,,,,,
1508183687.402555,-0.163936,0.756223,-2.976940,2.199651,-0.099288,0.056430,-0.118719,-0.686179,-0.717680,0.018545,0.237524,0.300780,-7.916066,-24.822136,-59.213196,,,,,,,
1508183687.422561,-0.173418,0.796620,-2.964867,1.953543,-0.050318,0.102821,-0.120635,-0.714997,-0.688641,0.020079,0.244248,0.282407,-7.980550,-26.101393,-58.651798,,,,,,,
1508183687.442543,-0.182948,0.830537,-2.952249,1.621712,0.011505,0.124566,-0.122708,-0.738294,-0.663223,0.010952,0.212720,0.335373,-8.135783,-29.390099,-57.052929,,,,,,,
1508183687.462568,-0.190847,0.858284,-2.941225,1.317731,0.004190,0.091845,-0.124008,-0.756722,-0.641868,-0.014069,0.210564,0.346458,-8.180865,-31.078365,-56.144577,,,,,,,
1508183687.482578,-0.197189,0.881058,-2.932864,1.089565,0.000143,0.013169,-0.124667,-0.771412,-0.624004,-0.018445,0.231083,0.342586,-8.206280,-31.790564,-55.740669,,,,,,,
1508183687.502582,-0.202617,0.899157,-2.927080,0.823243,-0.063664,-0.007032,-0.125222,-0.782803,-0.609540,-0.006675,0.172283,0.318891,-8.254492,-33.524197,-54.708290,,,,,,,
1508183687.522588,-0.207769,0.911191,-2.922159,0.490667,-0.060522,0.061415,-0.126408,-0.790234,-0.599626,-0.014629,0.114544,0.271669,-8.306535,-34.134590,-54.321602,,,,,,,
1508183687.542594,-0.212307,0.917464,-2.916783,0.290411,0.026814,0.093354,-0.128081,-0.794062,-0.594189,-0.026826,0.132502,0.245693,-8.410938,-34.617744,-53.998825,,,,,,,
1508183687.562598,-0.213992,0.922533,-2.913272,0.267602,0.059990,0.019315,-0.128225,-0.797134,-0.590031,-0.024119,0.148696,0.153263,-8.427269,-34.982651,-53.760586,,,,,,,
1508183687.582581,-0.213682,0.928180,-2.911862,0.282432,0.053699,-0.032854,-0.127085,-0.800531,-0.585662,-0.003255,0.109002,0.095473,-8.370466,-35.206055,-53.623447,,,,,,,
1508183687.602609,-0.214242,0.933376,-2.911324,0.250570,-0.029377,-0.034824,-0.126528,-0.803634,-0.581518,0.001543,0.091369,0.065741,-8.303905,-35.506737,-53.435215,,,,,,,
1508183687.622614,-0.215632,0.937922,-2.910599,0.195018,-0.051749,-0.026994,-0.126553,-0.806331,-0.577768,-0.013050,0.052073,0.019326,-8.317745,-35.836929,-53.212173,,,,,,,
1508183687.642621,-0.215580,0.941421,-2.911377,0.164707,0.005891,-0.082188,-0.125918,-0.808396,-0.575014,-0.003186,0.054535,0.004686,-8.337185,-35.983326,-53.110237,,,,,,,
1508183687.662627,-0.213384,0.944979,-2.913180,0.149603,0.038933,-0.090120,-0.124045,-0.810484,-0.572475,-0.019113,0.027495,0.000545,-8.264477,-36.173508,-52.992271,,,,,,,
1508183687.682630,-0.212547,0.947830,-2.913943,0.132390,0.047496,-0.110490,-0.123078,-0.812151,-0.570317,-0.016295,-0.005659,0.006200,-8.193758,-36.374714,-52.865372,,,,,,,
1508183687.702637,-0.209080,0.950573,-2.917647,0.092831,-0.001426,-0.144938,-0.120637,-0.813749,-0.568559,-0.018172,-0.016650,-0.000365,-8.095638,-36.490124,-52.800911,,,,,,,
1508183687.722644,-0.206589,0.952140,-2.921932,0.027779,-0.071724,-0.140671,-0.118959,-0.814659,-0.567609,-0.003569,-0.048119,-0.021426,-8.007533,-36.600315,-52.738045,,,,,,,
1508183687.742635,-0.203650,0.952381,-2.927767,-0.022670,-0.080123,-0.195959,-0.117250,-0.814798,-0.567765,-0.005125,-0.014365,-0.016967,-7.978149,-36.630737,-52.721375,,,,,,,
1508183687.762654,-0.197894,0.952693,-2.934791,-0.007014,0.057282,-0.192632,-0.113930,-0.814979,-0.568181,-0.007423,0.007163,-0.034389,-7.863638,-36.632141,-52.737602,,,,,,,
1508183687.782656,-0.192215,0.952905,-2.939499,0.141948,0.075178,-0.104500,-0.110669,-0.815102,-0.568649,0.008542,0.000282,-0.039109,-7.701366,-36.568798,-52.805466,,,,,,,
1508183687.802664,-0.190431,0.957572,-2.940953,0.259925,-0.006892,-0.095935,-0.108933,-0.817797,-0.565103,0.009736,-0.006468,-0.022253,-7.538027,-36.815842,-52.657166,,,,,,,
1508183687.822670,-0.188377,0.964288,-2.944126,0.295120,-0.037662,-0.160559,-0.106741,-0.821643,-0.559919,-0.001474,-0.031140,0.006376,-7.457850,-37.155575,-52.429466,,,,,,,
1508183687.842676,-0.185970,0.969756,-2.947654,0.215909,-0.006790,-0.140688,-0.104561,-0.824748,-0.555750,0.000985,-0.050115,0.013163,-7.399060,-37.392311,-52.269249,,,,,,,
1508183687.862679,-0.183483,0.976496,-2.950627,0.072558,0.018753,-0.111095,-0.102162,-0.828540,-0.550531,-0.003444,-0.048443,0.013253,-7.265172,-37.758095,-52.024502,,,,,,,
1508183687.882687,-0.179690,0.978164,-2.954868,0.044715,-0.003555,-0.138475,-0.099826,-0.829473,-0.549553,0.003177,-0.014765,-0.016029,-7.168742,-37.947266,-51.900089,,,,,,,
1508183687.902693,-0.174745,0.980025,-2.960627,0.078933,-0.000357,-0.142813,-0.096839,-0.830511,-0.548519,0.011588,-0.015146,-0.014713,-7.103036,-37.974129,-51.889477,,,,,,,
1508183687.922697,-0.171738,0.982670,-2.963338,0.147492,0.050618,-0.073228,-0.094813,-0.831982,-0.546642,0.011027,-0.016056,-0.014454,-6.900745,-38.138756,-51.795944,,,,,,,
1508183687.942677,-0.169732,0.986440,-2.964634,0.187146,0.034621,-0.068761,-0.093186,-0.834068,-0.543735,0.017853,-0.013634,-0.014401,-6.821346,-38.274261,-51.706436,,,,,,,
1508183687.962710,-0.169020,0.990546,-2.965908,0.201302,-0.049534,-0.069683,-0.092222,-0.836326,-0.540421,0.036039,-0.007531,-0.023376,-6.745690,-38.478813,-51.564346,,,,,,,
1508183687.982714,-0.166481,0.994147,-2.969241,0.180076,-0.060265,-0.024731,-0.090350,-0.838294,-0.537680,0.026110,-0.028634,-0.000848,-6.648594,-38.722286,-51.394417,,,,,,,
1508183688.002719,-0.168276,0.997184,-2.968076,0.135186,-0.028387,0.020692,-0.090888,-0.839946,-0.535004,0.018973,-0.018239,0.007996,-6.682990,-38.855576,-51.289253,,,,,,,
1508183688.022725,-0.169981,0.999564,-2.966495,0.134042,-0.006012,0.018235,-0.091462,-0.841235,-0.532877,0.015503,-0.004040,0.002405,-6.728623,-38.987885,-51.182762,,,,,,,
1508183688.042729,-0.169944,1.002572,-2.965779,0.163884,0.029144,0.013437,-0.091013,-0.842858,-0.530384,0.001505,0.006676,0.013432,-6.709501,-39.166313,-51.048874,,,,,,,
1508183688.062736,-0.170033,1.006099,-2.964615,0.177632,0.056887,-0.011501,-0.090557,-0.844751,-0.527443,0.008877,0.014932,0.019920,-6.689370,-39.297249,-50.950798,,,,,,,
1508183688.082742,-0.168928,1.008633,-2.964424,0.088827,0.054776,-0.010337,-0.089614,-0.846104,-0.525430,0.005889,0.013081,0.039591,-6.618533,-39.467514,-50.828293,,,,,,,
1508183688.102730,-0.168788,1.010412,-2.964084,-0.023288,-0.002758,0.009775,-0.089287,-0.847051,-0.523958,0.010522,0.027410,0.037584,-6.553524,-39.617691,-50.719769,,,,,,,
1508183688.122753,-0.168547,1.009235,-2.965237,-0.076884,-0.029270,-0.043116,-0.089328,-0.846425,-0.524962,0.008793,0.039403,0.020583,-6.572186,-39.585857,-50.742207,,,,,,,
1508183688.142733,-0.166111,1.008054,-2.967071,-0.052545,0.085728,-0.022410,-0.088214,-0.845795,-0.526164,-0.004742,0.048706,0.025508,-6.568328,-39.532593,-50.784218,,,,,,,
1508183688.162758,-0.165537,1.008008,-2.965685,0.081286,0.098405,0.012496,-0.087919,-0.845771,-0.526253,0.005247,0.076041,0.011543,-6.465023,-39.466488,-50.848843,,,,,,,
1508183688.182769,-0.163773,1.010104,-2.965360,0.093967,0.110197,-0.026072,-0.086701,-0.846887,-0.524657,0.007066,0.068536,0.031707,-6.394178,-39.541786,-50.799278,,,,,,,
1508183688.202761,-0.159719,1.010657,-2.966938,-0.037839,0.145434,-0.052075,-0.084499,-0.847181,-0.524542,0.005459,0.068891,0.078695,-6.251575,-39.626076,-50.751328,,,,,,,
1508183688.222771,-0.155008,1.008038,-2.969374,-0.203606,0.126280,-0.041010,-0.082369,-0.845787,-0.527124,0.016711,0.079155,0.099329,-6.028924,-39.534966,-50.849228,,,,,,,
1508183688.242786,-0.150999,1.003248,-2.971999,-0.249417,0.071939,-0.028458,-0.080864,-0.843221,-0.531450,-0.005241,0.109136,0.089464,-5.895350,-39.298805,-51.047562,,,,,,,
1508183688.262789,-0.147337,0.998448,-2.974848,-0.258048,0.066668,-0.055033,-0.079511,-0.840632,-0.535739,-0.019427,0.115686,0.111057,-5.849188,-39.174686,-51.148178,,,,,,,
1508183688.282796,-0.140796,0.992841,-2.979998,-0.323888,0.152021,-0.126600,-0.076665,-0.837581,-0.540907,-0.048854,0.166149,0.177992,-5.648275,-38.770954,-51.477329,,,,,,,
1508183688.302800,-0.128056,0.985630,-2.989204,-0.440391,0.323817,-0.259093,-0.070537,-0.833620,-0.547816,-0.051228,0.200914,0.210368,-5.414451,-38.513958,-51.694908,,,,,,,
1508183688.322807,-0.108989,0.975385,-3.002293,-0.620648,0.440061,-0.303296,-0.061006,-0.827918,-0.557522,-0.004821,0.212149,0.233776,-4.853651,-38.060291,-52.085136,,,,,,,
1508183688.342812,-0.089417,0.961452,-3.015538,-0.776810,0.413477,-0.307058,-0.051108,-0.820023,-0.570044,0.045676,0.272431,0.253851,-3.994950,-37.218449,-52.762039,,,,,,,
1508183688.362795,-0.071156,0.944964,-3.028454,-0.901952,0.383702,-0.317196,-0.041646,-0.810476,-0.584290,0.033498,0.288869,0.288346,-3.510125,-36.595390,-53.230270,,,,,,,
1508183688.382824,-0.050478,0.924930,-3.042842,-1.100576,0.514945,-0.402121,-0.030369,-0.798579,-0.601124,0.003895,0.334483,0.355823,-2.845282,-35.620472,-53.926727,,,,,,,
1508183688.402828,-0.024504,0.901038,-3.060056,-1.277973,0.656923,-0.530937,-0.015210,-0.783972,-0.620610,0.001554,0.422537,0.388753,-1.705399,-34.085293,-54.957161,,,,,,,
1508183688.422834,0.003589,0.873159,-3.078491,-1.474056,0.699665,-0.572996,0.002306,-0.766362,-0.642405,-0.000307,0.400960,0.403910,-0.869559,-32.995682,-55.637524,,,,,,,
1508183688.442841,0.029594,0.841104,-3.095217,-1.650489,0.652846,-0.576450,0.019726,-0.745379,-0.666349,-0.013607,0.412295,0.426832,0.272618,-31.314283,-56.606949,,,,,,,
1508183688.462845,0.053053,0.806997,-3.109762,-1.679172,0.616572,-0.544979,0.036678,-0.722213,-0.690697,-0.029384,0.359618,0.426705,1.634277,-28.918697,-57.844994,,,,,,,
1508183688.482851,0.068140,0.772733,-3.118188,-1.720207,0.276304,-0.309693,0.048751,-0.698094,-0.714344,-0.040221,0.253011,0.439167,2.347293,-27.441071,-58.536171,,,,,,,
1508183688.502857,0.066203,0.735074,-3.120138,-2.043927,-0.434464,-0.140263,0.049072,-0.670642,-0.740156,-0.104858,0.044574,0.403059,2.714053,-25.367998,-59.448326,,,,,,,
1508183688.522857,0.050010,0.680100,-3.119315,-3.273184,-0.899625,-0.159253,0.038867,-0.628870,-0.776538,-0.152789,-0.182394,0.344073,1.915512,-21.856066,-60.857605,,,,,,,
1508183688.542868,0.035186,0.592712,-3.121490,-5.099997,-0.678271,-0.356225,0.029178,-0.558612,-0.828915,-0.198429,-0.325283,0.132794,0.941069,-17.033886,-62.401653,,,,,,,
1508183688.562868,0.029004,0.465341,-3.126417,-7.137469,-0.368699,-0.428495,0.025917,-0.448728,-0.893293,-0.163108,-0.402820,0.066602,0.609796,-13.669870,-63.227905,,,,,,,
1508183688.582863,0.022091,0.298027,-3.132590,-8.832762,-0.336181,-0.497005,0.021115,-0.293635,-0.955684,-0.021115,-0.045217,0.017650,-0.159418,0.598959,-64.688644,,,,,,,
1508183688.602884,0.018635,0.123475,-3.136853,-8.252477,-0.201480,-0.277603,0.018492,-0.123161,-0.992214,-0.015959,0.215965,-0.218235,-0.538506,11.997742,-63.567043,,,,,,,
1508183688.622870,0.014721,-0.001523,-3.136941,-4.724816,-0.223022,-0.067743,0.014721,0.001523,-0.999891,0.114491,0.876041,-0.900698,-0.750147,19.113272,-61.799072,,,,,,,
1508183688.642891,0.015347,-0.040182,-3.138657,-0.456607,0.119112,-0.166543,0.015334,0.040171,-0.999075,0.122865,0.682897,-0.995905,-0.932718,24.539156,-59.849518,,,,,,,
1508183688.662901,0.015430,-0.024682,3.141430,1.146139,-0.114684,-0.112106,0.015425,0.024680,-0.999576,0.096300,0.185525,-0.864254,-0.927833,24.084923,-60.033829,,,,,,,
1508183688.682885,0.009817,-0.005385,3.139208,0.681248,-0.298878,-0.099489,0.009816,0.005385,-0.999937,0.077754,0.010011,-0.756166,-1.052231,23.385139,-60.307823,,,,,,,
1508183688.702889,0.009651,-0.003332,3.135635,-0.198193,0.229963,-0.232322,0.009650,0.003332,-0.999948,-0.019813,-0.076528,-0.493415,-1.491337,22.380482,-60.678619,,,,,,,
1508183688.722891,0.021656,-0.011230,3.130526,-0.408465,0.754148,-0.251496,0.021653,0.011230,-0.999702,0.001937,-0.027221,-0.475182,-1.213011,22.656033,-60.582485,,,,,,,
1508183688.742922,0.034902,-0.015112,3.126945,-0.018983,0.525859,-0.135449,0.034891,0.015111,-0.999277,0.146658,0.047694,-0.466528,-0.435170,23.085455,-60.430767,,,,,,,
1508183688.762917,0.038438,-0.009890,3.125782,0.396059,-0.008186,-0.005391,0.038427,0.009890,-0.999212,0.135966,-0.015108,-0.330301,0.077532,22.934885,-60.489586,,,,,,,
1508183688.782934,0.035970,-0.001462,3.125178,0.374902,-0.125294,-0.036732,0.035962,0.001462,-0.999352,0.061633,-0.043103,-0.249153,0.006747,22.545906,-60.635693,,,,,,,
1508183688.802920,0.036355,0.002321,3.123788,0.068073,0.112385,-0.064474,0.036346,-0.002321,-0.999337,-0.017883,-0.095153,-0.132133,-0.124261,22.137695,-60.785793,,,,,,,
1508183688.822945,0.038642,0.000399,3.123015,-0.147894,0.091059,-0.026682,0.038632,-0.000399,-0.999253,0.033038,-0.056775,-0.096816,0.009576,22.140104,-60.785038,,,,,,,
1508183688.842951,0.039359,-0.001402,3.123351,-0.028624,0.002472,0.044889,0.039349,0.001402,-0.999225,0.029117,-0.016539,-0.083142,0.068310,22.262829,-60.740162,,,,,,,
1508183688.862948,0.038805,0.001243,3.124740,0.226256,-0.032806,0.076132,0.038796,-0.001243,-0.999246,-0.007897,0.026985,-0.055121,0.085865,22.285942,-60.731663,,,,,,,
1508183688.882942,0.038569,0.007296,3.125271,0.310501,0.000313,0.016942,0.038559,-0.007296,-0.999230,-0.022766,0.011614,-0.007957,0.083870,21.865524,-60.884289,,,,,,,
1508183688.902967,0.039259,0.012186,3.125609,0.192755,0.050341,0.050427,0.039246,-0.012185,-0.999155,-0.021134,0.000650,0.006190,0.101602,21.602520,-60.978077,,,,,,,
1508183688.922964,0.037310,0.015560,3.127391,0.154590,-0.016864,0.099418,0.037297,-0.015560,-0.999183,-0.029805,0.000270,-0.007546,0.045625,21.365351,-61.061646,,,,,,,
1508183688.942951,0.036900,0.019892,3.128313,0.257047,-0.011407,0.021422,0.036885,-0.019891,-0.999122,-0.041889,0.027413,0.021521,0.062853,21.087851,-61.158024,,,,,,,
1508183688.962982,0.033829,0.024254,3.127853,0.344547,0.014226,-0.028059,0.033813,-0.024252,-0.999134,-0.044555,0.030721,0.035770,0.056594,20.829231,-61.246590,,,,,,,
1508183688.982973,0.034274,0.031570,3.127087,0.364896,0.013147,-0.023794,0.034250,-0.031565,-0.998915,-0.021738,0.028238,0.050505,-0.124521,20.517427,-61.351650,,,,,,,
1508183689.022997,0.032851,0.040463,3.126366,0.080838,-0.128552,0.025390,0.032818,-0.040452,-0.998642,0.016147,0.004258,0.041962,-0.146881,20.003944,-61.520935,,,,,,,
1508183689.002968,0.034746,0.037579,3.126367,0.252745,-0.052872,-0.020622,0.034715,-0.037570,-0.998691,0.014251,0.001376,0.042011,-0.146881,20.003944,-61.520935,,,,,,,
1508183689.042983,0.029273,0.040695,3.126983,-0.029176,-0.194574,0.027496,0.029245,-0.040684,-0.998744,0.017004,-0.004223,0.035777,-0.309823,19.720913,-61.611645,,,,,,,
1508183689.062996,0.026539,0.038834,3.127479,-0.217484,-0.204104,0.024574,0.026516,-0.038824,-0.998894,0.018100,-0.047144,0.039101,-0.520133,19.778397,-61.591801,,,,,,,
1508183689.083015,0.021880,0.031059,3.128259,-0.499821,-0.247726,0.033949,0.021868,-0.031054,-0.999278,0.044752,-0.062421,0.033946,-0.711636,20.040745,-61.505020,,,,,,,
1508183689.102999,0.015513,0.017649,3.129288,-0.769073,-0.382946,0.035046,0.015510,-0.017648,-0.999724,0.086708,-0.089148,-0.014390,-1.015028,20.697681,-61.282795,,,,,,,
1508183689.123003,0.004777,-0.003197,3.129240,-1.266208,-0.634032,-0.056907,0.004777,0.003197,-0.999983,0.111663,-0.153725,-0.070695,-1.686421,22.033169,-60.800495,,,,,,,
1508183689.143003,-0.010772,-0.040578,3.124889,-2.331211,-0.832422,-0.328337,-0.010763,0.040567,-0.999119,0.124426,-0.237833,-0.049877,-2.357059,23.371237,-60.276321,,,,,,,
1508183689.163016,-0.027830,-0.106342,3.113551,-3.847427,-0.745294,-0.560917,-0.027669,0.106142,-0.993966,0.152440,-0.409609,-0.041480,-3.535391,26.379900,-58.962761,,,,,,,
1508183689.183020,-0.042661,-0.190182,3.102173,-4.181687,-0.570177,-0.195332,-0.041879,0.189038,-0.981076,0.290383,0.043613,-0.250918,-4.946739,32.076027,-55.961269,,,,,,,
1508183689.203049,-0.052022,-0.258808,3.103335,-2.761071,-0.497157,0.400739,-0.050267,0.255928,-0.965388,0.356129,0.197654,-0.411153,-5.370005,35.332973,-53.923546,,,,,,,
1508183689.223055,-0.055713,-0.282411,3.112306,-0.115395,-0.174218,0.515629,-0.053478,0.278672,-0.958896,0.538357,0.498153,-0.677349,-5.534156,37.952061,-52.096252,,,,,,,
1508183689.243050,-0.050651,-0.252527,3.130111,2.386180,0.090462,1.017473,-0.049024,0.249852,-0.967042,0.608564,0.474697,-0.885497,-5.060515,37.295662,-52.615871,,,,,,,
1508183689.263065,-0.043042,-0.193647,-3.122197,3.169107,0.025372,1.508328,-0.042224,0.192439,-0.980400,0.531100,0.393850,-0.794731,-4.364456,35.208584,-54.095402,,,,,,,
1508183689.283063,-0.033676,-0.133503,-3.087163,2.985745,0.295667,1.658090,-0.033370,0.133106,-0.990540,0.361831,0.213680,-0.549347,-3.568603,32.703526,-55.702335,,,,,,,
1508183689.303067,-0.021704,-0.075664,-3.049187,2.958304,0.434731,1.902409,-0.021640,0.075592,-0.996904,0.125141,0.184113,-0.297148,-1.503768,27.709896,-58.437191,,,,,,,
1508183689.323082,-0.013437,-0.015356,-3.008848,3.102501,0.222601,1.958693,-0.013435,0.015355,-0.999792,0.071556,0.243968,-0.239329,-0.379132,25.084000,-59.629311,,,,,,,
1508183689.343079,-0.012587,0.047417,-2.969877,3.163954,-0.014812,1.884249,-0.012572,-0.047399,-0.998797,0.004149,0.266912,-0.087675,0.520312,22.279425,-60.731884,,,,,,,
1508183689.363076,-0.017663,0.108822,-2.931795,3.044297,-0.144621,1.824376,-0.017558,-0.108608,-0.993930,-0.184682,0.199626,0.135836,1.565902,16.400377,-62.558617,,,,,,,
1508183689.383098,-0.026242,0.166110,-2.895300,2.791419,-0.178372,1.687503,-0.025878,-0.165347,-0.985896,-0.259767,0.210834,0.220759,1.867432,12.600589,-63.425098,,,,,,,
1508183689.403078,-0.034005,0.217084,-2.860720,2.488714,0.029630,1.584481,-0.033200,-0.215383,-0.975965,-0.275027,0.241567,0.276289,1.960594,10.818352,-63.750488,,,,,,,
1508183689.423104,-0.040363,0.261645,-2.827509,2.154450,0.070368,1.496704,-0.038979,-0.258670,-0.965179,-0.311012,0.237674,0.383667,2.403367,6.013915,-64.366623,,,,,,,
1508183689.443115,-0.047835,0.300011,-2.797283,1.877765,0.025091,1.267247,-0.045681,-0.295531,-0.954240,-0.306598,0.269087,0.405519,2.572136,3.945789,-64.519920,,,,,,,
1508183689.463106,-0.055135,0.331859,-2.772543,1.511975,0.026798,0.991325,-0.052100,-0.325801,-0.944002,-0.300988,0.242626,0.445985,2.671142,1.518269,-64.618614,,,,,,,
1508183689.483101,-0.060367,0.358338,-2.751459,1.306957,0.135698,0.893932,-0.056498,-0.350718,-0.934775,-0.353948,0.233638,0.464042,2.771778,-0.912682,-64.625763,,,,,,,
1508183689.503124,-0.063776,0.380623,-2.732464,1.077255,0.195736,0.730090,-0.059172,-0.371499,-0.926546,-0.357774,0.236733,0.462190,2.896231,-2.163620,-64.590523,,,,,,,
1508183689.523134,-0.064759,0.397887,-2.719343,0.792783,0.195302,0.449872,-0.059659,-0.387471,-0.919949,-0.320896,0.211125,0.464597,3.108494,-3.549681,-64.519318,,,,,,,
1508183689.543129,-0.064426,0.409833,-2.711236,0.521588,0.158443,0.271471,-0.059050,-0.398457,-0.915284,-0.292742,0.172245,0.455186,3.370381,-4.747396,-64.429092,,,,,,,
1508183689.563148,-0.063156,0.417165,-2.707352,0.278120,0.130141,0.071600,-0.057702,-0.405170,-0.912418,-0.297187,0.170246,0.440601,3.500409,-5.210747,-64.386337,,,,,,,
1508183689.583132,-0.059902,0.419324,-2.708477,0.009918,0.147644,-0.124652,-0.054679,-0.407143,-0.911726,-0.290078,0.152184,0.415678,3.667808,-5.525118,-64.350800,,,,,,,
1508183689.603157,-0.055094,0.417793,-2.712897,-0.137060,0.154294,-0.235534,-0.050330,-0.405745,-0.912600,-0.251123,0.171797,0.376314,3.926884,-5.467161,-64.340462,,,,,,,
1508183689.623164,-0.048658,0.414091,-2.720122,-0.238209,0.183375,-0.383029,-0.044528,-0.402358,-0.914399,-0.246045,0.171310,0.362305,4.106591,-5.292891,-64.343811,,,,,,,
1508183689.643160,-0.040955,0.408416,-2.731438,-0.361752,0.135857,-0.576314,-0.037576,-0.397156,-0.916981,-0.220710,0.158646,0.325200,4.310708,-5.039261,-64.350822,,,,,,,
1508183689.663170,-0.033406,0.398835,-2.746337,-0.597393,0.069068,-0.707390,-0.030778,-0.388345,-0.921000,-0.167113,0.089089,0.248774,4.627739,-4.191679,-64.389587,,,,,,,
1508183689.683181,-0.026690,0.384041,-2.762895,-0.865902,-0.017039,-0.762454,-0.024743,-0.374670,-0.926828,-0.162376,0.082922,0.213144,4.720549,-3.502247,-64.424034,,,,,,,
1508183689.703188,-0.021884,0.364262,-2.780359,-1.078682,-0.119162,-0.805598,-0.020446,-0.356260,-0.934163,-0.149292,0.095808,0.159276,4.739832,-2.612803,-64.464813,,,,,,,
1508183689.723194,-0.017870,0.342821,-2.798846,-1.051149,-0.094535,-0.872087,-0.016829,-0.336145,-0.941660,-0.139101,0.203195,0.114801,4.564332,-0.431870,-64.528954,,,,,,,
1508183689.743198,-0.012975,0.325370,-2.818317,-0.768866,-0.070019,-0.915306,-0.012293,-0.319659,-0.947453,-0.135946,0.208285,0.090534,4.482530,0.588766,-64.533447,,,,,,,
1508183689.763186,-0.008643,0.312995,-2.837178,-0.580281,-0.105311,-0.869085,-0.008223,-0.307910,-0.951380,-0.104844,0.163729,0.093729,4.401241,1.397226,-64.526596,,,,,,,
1508183689.783181,-0.007938,0.300976,-2.855874,-0.650358,-0.339556,-0.913619,-0.007581,-0.296452,-0.955018,-0.079195,0.074849,0.049424,4.057680,2.671015,-64.508957,,,,,,,
1508183689.803214,-0.009924,0.286857,-2.876125,-0.714668,-0.379880,-0.983361,-0.009518,-0.282939,-0.959091,-0.134937,0.103694,0.068847,3.504606,3.643738,-64.493767,,,,,,,
1508183689.823214,-0.009119,0.275799,-2.896994,-0.428644,-0.157260,-1.012396,-0.008774,-0.272316,-0.962168,-0.158051,0.131096,0.070719,3.237339,4.124590,-64.478775,,,,,,,
1508183689.843209,-0.004747,0.273685,-2.918799,0.082375,-0.051832,-1.061225,-0.004571,-0.270281,-0.962771,-0.057411,0.111010,0.047991,2.799251,4.896717,-64.445259,,,,,,,
1508183689.863231,-0.001799,0.279649,-2.940799,0.378317,-0.257495,-1.061664,-0.001729,-0.276018,-0.961151,-0.026561,0.021501,0.055786,2.566746,4.668858,-64.471848,,,,,,,
1508183689.883211,-0.005398,0.285530,-2.963178,0.136428,-0.634466,-1.092269,-0.005179,-0.281666,-0.959498,-0.018640,-0.044231,0.076518,2.322207,4.447027,-64.496796,,,,,,,
1508183689.903237,-0.014968,0.275332,-2.987189,-1.003935,-0.840658,-1.181192,-0.014404,-0.271866,-0.962227,0.048523,-0.276458,0.052483,0.877894,4.602198,-64.521736,,,,,,,
1508183689.923222,-0.022955,0.240385,-3.012665,-2.161239,-0.657132,-1.189383,-0.022293,-0.238077,-0.970991,0.065658,-0.285514,0.026380,0.013266,5.898984,-64.422096,,,,,,,
1508183689.943239,-0.030280,0.185853,-3.038796,-3.146910,-0.653606,-1.231346,-0.029754,-0.184785,-0.982329,0.074920,-0.236907,-0.065615,-1.003703,8.811877,-64.080795,,,,,,,
1508183689.963234,-0.039378,0.107251,-3.069358,-4.568461,-0.768835,-1.494118,-0.039142,-0.107045,-0.993483,0.219165,-0.218623,-0.184709,-2.406261,14.282478,-63.049393,,,,,,,
1508183689.983232,-0.060013,-0.006069,-3.109435,-6.451317,-1.266265,-1.808581,-0.059975,0.006069,-0.998181,0.295586,-0.289364,-0.185397,-3.678498,18.930885,-61.750263,,,,,,,
1508183690.003268,-0.077130,-0.129028,3.137839,-5.559682,-0.301182,-0.844381,-0.076413,0.128670,-0.988739,0.295071,0.018379,-0.040878,-5.841459,26.528135,-58.712357,,,,,,,
1508183690.023262,-0.080278,-0.190660,3.131080,-1.411425,-0.166804,0.156080,-0.078739,0.189507,-0.978717,0.302189,0.933586,-0.791424,-6.550031,32.935902,-55.293118,,,,,,,
1508183690.043280,-0.084254,-0.175494,3.131457,1.627370,-0.184873,-0.244734,-0.082862,0.174595,-0.981148,0.452491,0.749630,-0.750389,-6.654422,33.280094,-55.074127,,,,,,,
1508183690.063265,-0.087231,-0.135006,3.127429,2.006718,-0.128291,-0.354602,-0.086328,0.134596,-0.987133,0.401163,0.266298,-0.495213,-6.915489,31.949551,-55.824791,,,,,,,
1508183690.083290,-0.088657,-0.105631,3.127523,1.048673,0.036311,0.020134,-0.088047,0.105435,-0.990521,0.052662,-0.221432,-0.176624,-7.356287,28.798267,-57.459114,,,,,,,
1508183690.103296,-0.079291,-0.096698,3.130147,0.206891,0.701117,0.075102,-0.078838,0.096548,-0.992201,0.033504,-0.244405,-0.099825,-7.153535,28.132729,-57.813335,,,,,,,
1508183690.123292,-0.063894,-0.092851,3.130393,0.268627,0.694923,-0.031484,-0.063575,0.092718,-0.993661,0.059181,-0.080022,-0.089225,-6.530880,27.940945,-57.979794,,,,,,,
1508183690.143297,-0.056641,-0.084827,3.129951,0.434902,0.172952,-0.048564,-0.056407,0.084725,-0.994806,0.094890,-0.083611,-0.067571,-2.934859,24.590237,-58.681782,,,,,,,
1508183690.163313,-0.056046,-0.077531,3.129305,0.289857,-0.002753,-0.059769,-0.055848,0.077453,-0.995431,0.051331,-0.087371,-0.035209,-2.864973,24.221128,-58.838539,,,,,,,
1508183690.183291,-0.055381,-0.074931,3.127951,0.023119,0.071925,-0.081978,-0.055197,0.074861,-0.995665,-0.030862,-0.078706,0.015029,-2.884737,23.915684,-58.962383,,,,,,,
1508183690.203296,-0.052520,-0.076662,3.126103,-0.130265,0.187024,-0.089930,-0.052341,0.076587,-0.995688,-0.006634,-0.048511,0.012396,-2.777157,23.945221,-58.955566,,,,,,,
1508183690.223330,-0.049461,-0.078951,3.124374,-0.094717,0.133705,-0.065725,-0.049287,0.078869,-0.995666,0.010133,-0.005749,-0.004746,-2.614745,24.090944,-58.903599,,,,,,,
1508183690.243319,-0.047347,-0.078999,3.123775,0.059672,0.090950,-0.011906,-0.047182,0.078917,-0.995764,0.009340,0.021212,-0.011194,-2.552844,24.137342,-58.887318,,,,,,,
1508183690.263314,-0.046174,-0.076404,3.123687,0.157151,0.049393,-0.017774,-0.046023,0.076330,-0.996020,0.009280,0.035425,-0.022108,-2.418236,24.014570,-58.943172,,,,,,,
1508183690.283320,-0.044999,-0.073274,3.123325,0.139905,0.068561,-0.021241,-0.044863,0.073209,-0.996307,0.005831,0.026462,-0.017639,-2.379820,23.870260,-59.003323,,,,,,,
1508183690.303347,-0.043343,-0.070783,3.123589,0.127155,0.086584,0.023292,-0.043221,0.070724,-0.996559,0.001107,0.013658,-0.010201,-2.301658,23.709072,-59.071377,,,,,,,
1508183690.323342,-0.041495,-0.067700,3.124342,0.174258,0.085497,0.028604,-0.041389,0.067648,-0.996850,0.003715,0.018137,0.000223,-2.154463,23.504517,-59.158604,,,,,,,
1508183690.343363,-0.040159,-0.063781,3.125135,0.202203,0.052452,0.036526,-0.040067,0.063737,-0.997162,-0.006808,0.007475,0.006470,-2.076440,23.340155,-59.226433,,,,,,,
1508183690.363344,-0.039116,-0.060030,3.125895,0.181836,0.046099,0.019573,-0.039035,0.059994,-0.997435,-0.024380,-0.017544,0.025405,-1.996063,23.106256,-59.320835,,,,,,,
1508183690.383370,-0.038357,-0.056611,3.126091,0.157220,0.031222,0.004879,-0.038286,0.056581,-0.997664,-0.010389,-0.021394,0.008330,-1.925817,22.841276,-59.425686,,,,,,,
1508183690.403380,-0.037906,-0.053914,3.126413,0.126248,0.017370,0.010434,-0.037842,0.053888,-0.997830,-0.002334,-0.018594,0.003933,-1.897994,22.709850,-59.476929,,,,,,,
1508183690.423372,-0.037359,-0.050098,3.126939,0.103928,-0.007170,0.033199,-0.037303,0.050077,-0.998048,0.002254,-0.010129,0.005953,-1.877121,22.597767,-59.520264,,,,,,,
1508183690.443367,-0.038333,-0.049290,3.128145,-0.015555,-0.087111,0.072835,-0.038277,0.049270,-0.998052,0.006279,-0.053299,-0.014552,-1.863258,22.352448,-59.613262,,,,,,,
1508183690.463396,-0.041139,-0.052940,3.129329,-0.289318,-0.160517,0.059177,-0.041070,0.052915,-0.997754,0.004327,-0.066892,-0.025088,-1.941678,22.423529,-59.584057,,,,,,,
1508183690.483401,-0.046242,-0.052790,3.130321,-0.601561,-0.193520,0.085482,-0.046161,0.052766,-0.997539,-0.014614,-0.094605,-0.083531,-2.064669,22.685097,-59.480824,,,,,,,
1508183690.503381,-0.051036,-0.070459,3.131460,-1.109451,-0.304215,0.104530,-0.050887,0.070401,-0.996220,-0.023896,-0.179715,-0.242489,-2.471344,23.284063,-59.233349,,,,,,,
1508183690.523412,-0.062166,-0.107138,3.129953,-2.370372,-0.722194,-0.066535,-0.061770,0.106933,-0.992346,-0.005430,-0.267715,-0.307322,-2.785818,24.495708,-58.728565,,,,,,,
1508183690.543410,-0.082764,-0.173377,3.119150,-3.778764,-1.001371,-0.380254,-0.081430,0.172509,-0.981636,-0.011069,-0.282662,-0.430046,-3.755253,27.499475,-57.328194,,,,,,,
1508183690.563395,-0.100425,-0.248995,3.107156,-3.582318,-0.566258,-0.121202,-0.097164,0.246430,-0.964278,-0.180866,0.251800,-0.511247,-5.244591,32.783375,-54.356133,,,,,,,
1508183690.583428,-0.101422,-0.291526,3.102218,-0.997047,0.304186,0.013517,-0.096976,0.287414,-0.952885,-0.030008,0.680756,-1.010708,-5.498563,35.753235,-52.424393,,,,,,,
1508183690.603415,-0.092625,-0.265595,3.108322,2.565175,0.240971,0.283668,-0.089249,0.262483,-0.960800,0.080125,0.768355,-1.198227,-5.303738,36.026146,-52.257362,,,,,,,
1508183690.623421,-0.093725,-0.191415,3.120958,4.179325,-0.407946,0.176707,-0.091878,0.190248,-0.977427,0.001821,0.458480,-0.939580,-4.879178,31.734699,-55.008614,,,,,,,
1508183690.643446,-0.101205,-0.106493,3.128380,4.191931,-0.318893,-0.144484,-0.100460,0.106292,-0.989247,-0.159992,0.226441,-0.633769,-5.368103,26.945309,-57.462845,,,,,,,
1508183690.663423,-0.098706,-0.027701,3.133843,3.811282,0.360723,-0.095408,-0.098508,0.027697,-0.994751,-0.216632,0.194913,-0.492401,-5.544976,24.532734,-58.517033,,,,,,,
1508183690.683449,-0.087054,0.047461,3.139318,3.804112,0.642960,-0.069639,-0.086846,-0.047443,-0.995091,-0.032905,0.233814,-0.300883,-4.920471,17.652012,-61.000332,,,,,,,
1508183690.703460,-0.078318,0.127815,-3.139525,4.151599,0.278741,-0.158453,-0.077600,-0.127467,-0.988802,0.090692,0.304103,-0.171613,-4.275079,12.791008,-62.249168,,,,,,,
1508183690.723452,-0.078773,0.213993,-3.136083,4.360409,-0.125051,-0.150621,-0.076897,-0.212363,-0.974161,0.104790,0.329917,-0.085028,-4.157919,10.163177,-62.739670,,,,,,,
1508183690.743447,-0.084213,0.299925,-3.131370,4.229245,-0.235880,-0.111595,-0.080359,-0.295449,-0.951973,0.023764,0.265770,0.187309,-4.420533,1.934130,-63.510338,,,,,,,
1508183690.763463,-0.088674,0.381243,-3.126005,3.968729,-0.040929,-0.085436,-0.082200,-0.372074,-0.924556,0.029938,0.279164,0.324001,-4.650148,-3.331133,-63.435986,,,,,,,
1508183690.783480,-0.089445,0.455925,-3.119412,3.586411,0.155002,-0.001620,-0.080202,-0.440293,-0.894265,0.038576,0.323258,0.367516,-4.652470,-5.825520,-63.255535,,,,,,,
1508183690.803475,-0.089929,0.521538,-3.111009,3.133117,0.162305,0.131901,-0.077869,-0.498214,-0.863550,0.086230,0.313293,0.503779,-4.379248,-12.471363,-62.306755,,,,,,,
1508183690.823495,-0.094842,0.578775,-3.100912,2.739130,-0.103953,0.156318,-0.079276,-0.546999,-0.833371,0.090675,0.372972,0.488889,-4.301475,-15.285089,-61.682316,,,,,,,
1508183690.843477,-0.105151,0.627411,-3.093015,2.265464,-0.370950,0.027258,-0.084969,-0.587051,-0.805079,0.095848,0.392944,0.517313,-4.527202,-18.557899,-60.761448,,,,,,,
1508183690.863493,-0.114642,0.666228,-3.088842,1.771598,-0.292856,-0.076935,-0.089929,-0.618025,-0.780998,0.060434,0.377333,0.628105,-5.067553,-21.773949,-59.641094,,,,,,,
1508183690.883512,-0.119727,0.698075,-3.085663,1.522817,-0.059608,-0.026816,-0.091502,-0.642744,-0.760597,0.044413,0.412947,0.625786,-5.253940,-23.285408,-59.051083,,,,,,,
1508183690.903506,-0.122574,0.726477,-3.077827,1.379441,0.194549,0.208457,-0.091397,-0.664240,-0.741911,0.028073,0.407602,0.644178,-5.297135,-24.633265,-58.497757,,,,,,,
1508183690.923500,-0.125605,0.750046,-3.067052,1.121613,0.207339,0.237255,-0.091659,-0.681672,-0.725894,0.007934,0.360612,0.663501,-5.144053,-26.932224,-57.489468,,,,,,,
1508183690.943528,-0.127441,0.767541,-3.059708,0.747884,0.149121,0.098694,-0.091461,-0.694368,-0.713785,-0.000854,0.354325,0.676721,-5.069858,-27.810997,-57.076172,,,,,,,
1508183690.963524,-0.124562,0.776510,-3.058203,0.268829,0.225189,-0.059862,-0.088628,-0.700794,-0.707837,-0.021464,0.314258,0.727780,-4.980140,-28.440300,-56.773163,,,,,,,
1508183690.983528,-0.117050,0.776379,-3.060989,-0.180981,0.316982,-0.094978,-0.083320,-0.700700,-0.708574,-0.002923,0.271898,0.677186,-4.526124,-28.812149,-56.623489,,,,,,,
1508183691.003544,-0.107189,0.767936,-3.064694,-0.574962,0.391634,-0.088301,-0.076958,-0.694652,-0.715217,-0.004127,0.278148,0.649925,-4.085040,-28.438576,-56.845444,,,,,,,
1508183691.023531,-0.095043,0.752671,-3.070303,-0.894121,0.415279,-0.153448,-0.069265,-0.683591,-0.726572,-0.011409,0.273373,0.578073,-3.696214,-27.880310,-57.147800,,,,,,,
1508183691.043499,-0.081993,0.731702,-3.077723,-1.159561,0.401563,-0.186106,-0.060938,-0.668137,-0.741539,-0.005804,0.214646,0.465217,-2.999070,-26.505688,-57.838558,,,,,,,
1508183691.063504,-0.068498,0.707697,-3.084581,-1.232438,0.476081,-0.153010,-0.052008,-0.650085,-0.758079,-0.008813,0.210571,0.379768,-2.408375,-25.121552,-58.480358,,,,,,,
1508183691.083502,-0.054289,0.682821,-3.091153,-1.282979,0.507082,-0.201405,-0.042096,-0.630984,-0.774653,-0.008624,0.208346,0.353999,-2.088224,-24.400127,-58.797260,,,,,,,
1508183691.103497,-0.040698,0.655800,-3.098496,-1.414393,0.405977,-0.230763,-0.032247,-0.609793,-0.791904,0.021780,0.178061,0.212726,-1.084048,-22.090214,-59.730164,,,,,,,
1508183691.123501,-0.028563,0.626870,-3.106522,-1.447694,0.373102,-0.300637,-0.023129,-0.586612,-0.809537,0.003415,0.167408,0.207838,-0.662441,-20.795925,-60.199131,,,,,,,
1508183691.143500,-0.013848,0.600423,-3.115527,-1.245100,0.551064,-0.359884,-0.011426,-0.564992,-0.825018,-0.046390,0.232716,0.219488,-0.059470,-19.079334,-60.768578,,,,,,,
1508183691.163525,0.004576,0.577916,-3.124709,-1.090390,0.685276,-0.375809,0.003833,-0.546280,-0.837594,0.048978,0.214477,0.141854,1.031220,-17.253345,-61.303375,,,,,,,
1508183691.183538,0.018861,0.552726,-3.132651,-1.384592,0.358220,-0.323928,0.016051,-0.525009,-0.850945,0.093598,0.101975,0.092873,1.699148,-16.191559,-61.577522,,,,,,,
1508183691.203528,0.024080,0.521655,-3.136575,-1.619524,0.052158,-0.124180,0.020875,-0.498315,-0.866744,0.115187,0.061288,0.020828,2.186929,-14.426697,-61.999458,,,,,,,
1508183691.223523,0.023358,0.490460,-3.137179,-1.458511,-0.047079,-0.058883,0.020603,-0.471032,-0.881876,-0.062320,0.194787,-0.049475,0.578103,-9.551357,-63.135761,,,,,,,
1508183691.243554,0.027437,0.465744,-3.139161,-1.102449,0.279024,-0.174775,0.024511,-0.449087,-0.893152,-0.082037,0.178717,-0.035651,0.619703,-8.252510,-63.318237,,,,,,,
1508183691.263556,0.036074,0.443659,3.137566,-1.168416,0.265644,-0.400587,0.032575,-0.429248,-0.902599,0.001330,0.057681,-0.149662,0.998006,-6.854450,-63.479980,,,,,,,
1508183691.283551,0.041975,0.415112,3.130246,-1.565645,0.029133,-0.343547,0.038399,-0.403293,-0.914265,0.047722,-0.077435,-0.154110,1.403863,-4.823780,-63.658836,,,,,,,
1508183691.303553,0.039512,0.377539,3.127147,-2.069196,-0.291727,-0.167908,0.036720,-0.368634,-0.928849,0.049401,-0.112094,-0.139526,1.403863,-4.823780,-63.658836,,,,,,,
1508183691.323563,0.031639,0.326090,3.124361,-2.919577,-0.524571,-0.282252,0.029966,-0.320342,-0.946828,-0.026426,-0.228578,-0.188411,1.089582,-1.216038,-63.835896,,,,,,,
1508183691.343568,0.021391,0.254523,3.117157,-3.966511,-0.654840,-0.529092,0.020700,-0.251784,-0.967562,-0.016077,-0.247667,-0.261076,0.044947,4.638123,-63.688091,,,,,,,
1508183691.363587,0.006339,0.154379,3.105153,-5.746695,-1.023602,-0.743133,0.006263,-0.153766,-0.988087,-0.016090,-0.366589,-0.268413,-0.709209,8.762675,-63.248711,,,,,,,
1508183691.383593,-0.011806,0.015875,3.088118,-7.495802,-0.919638,-0.842495,-0.011804,-0.015875,-0.999804,0.000543,-0.373087,-0.211698,-1.778540,14.158512,-62.241951,,,,,,,
1508183691.403576,-0.021344,-0.123392,3.073004,-6.081426,-0.070672,-0.474132,-0.021181,0.123079,-0.992171,-0.018340,0.682783,-0.476930,-3.621877,27.116642,-57.699715,,,,,,,
1508183691.423604,-0.013432,-0.180607,3.069848,-0.788800,0.554220,0.129157,-0.013213,0.179626,-0.983646,0.034683,1.050843,-0.786709,-3.477081,31.829769,-55.249096,,,,,,,
1508183691.443599,-0.009890,-0.150998,3.073156,2.210192,-0.094094,0.079795,-0.009777,0.150425,-0.988573,0.205868,0.846112,-1.094694,-3.065617,31.563763,-55.425789,,,,,,,
1508183691.463602,-0.015162,-0.109580,3.073283,1.764188,-0.294012,-0.037463,-0.015070,0.109361,-0.993888,0.055567,-0.095994,-0.473397,-3.267552,28.567028,-57.016972,,,,,,,
1508183691.483618,-0.017325,-0.088407,3.073144,0.664116,0.107815,-0.016874,-0.017257,0.088292,-0.995945,-0.160707,-0.146458,-0.246700,-3.522726,27.034542,-57.744358,,,,,,,
1508183691.503607,-0.004629,-0.081433,3.072472,0.295696,0.901577,-0.052634,-0.004614,0.081343,-0.996675,-0.149057,-0.135390,-0.175535,-3.401449,26.705946,-57.904316,,,,,,,
1508183691.523631,0.013144,-0.071265,3.072035,0.665561,0.731993,0.007128,0.013110,0.071204,-0.997376,0.096708,-0.015006,-0.161804,-1.962800,26.037363,-58.274269,,,,,,,
1508183691.543619,0.017789,-0.054516,3.072617,0.878846,-0.052175,0.058860,0.017762,0.054489,-0.998356,0.107375,-0.078582,-0.088085,-1.449045,25.121836,-58.689697,,,,,,,
1508183691.563641,0.012562,-0.039576,3.073120,0.631135,-0.279992,0.018631,0.012552,0.039566,-0.999138,0.048392,-0.084701,-0.034858,-1.505327,24.614748,-58.902763,,,,,,,
1508183691.583642,0.010036,-0.031403,3.073287,0.266525,-0.017844,0.014037,0.010031,0.031398,-0.999457,-0.070975,-0.096340,0.061011,-1.889127,23.579983,-59.313599,,,,,,,
1508183691.603647,0.012506,-0.029649,3.073719,0.017800,0.160078,0.030837,0.012500,0.029645,-0.999482,-0.031650,-0.085461,0.060350,-1.836074,23.417614,-59.379555,,,,,,,
1508183691.623633,0.013837,-0.028922,3.075165,0.074178,-0.015832,0.097323,0.013830,0.028918,-0.999486,0.046625,-0.017169,0.025396,-1.654838,23.391712,-59.395088,,,,,,,
1508183691.643664,0.011655,-0.025821,3.077522,0.199835,-0.142678,0.123594,0.011651,0.025819,-0.999599,0.018440,0.052841,0.016292,-1.675495,23.238249,-59.454720,,,,,,,
1508183691.663670,0.009472,-0.020866,3.079299,0.255121,-0.075485,0.074594,0.009470,0.020865,-0.999737,-0.003549,0.061212,0.025830,-1.758375,23.040142,-59.529377,,,,,,,
1508183691.683661,0.009313,-0.016258,3.080928,0.208880,0.022491,0.093468,0.009311,0.016257,-0.999824,0.007931,0.022652,0.046455,-1.795671,22.745825,-59.641346,,,,,,,
1508183691.703673,0.009826,-0.012778,3.083176,0.153414,0.009636,0.136348,0.009825,0.012778,-0.999870,0.052995,0.000879,0.035255,-1.705245,22.460363,-59.752083,,,,,,,
1508183691.723687,0.009573,-0.009834,3.086854,0.136626,-0.027780,0.205146,0.009573,0.009834,-0.999906,0.062083,0.010475,0.038205,-1.653366,22.328878,-59.802799,,,,,,,
1508183691.743681,0.008117,-0.008678,3.090931,-0.011885,-0.104440,0.205303,0.008116,0.008678,-0.999929,0.076570,0.010991,0.041494,-1.613751,22.215025,-59.846268,,,,,,,
1508183691.763684,0.004532,-0.011314,3.095607,-0.187897,-0.240835,0.250065,0.004532,0.011314,-0.999926,0.137039,-0.019249,0.012407,-1.689860,22.296408,-59.813892,,,,,,,
1508183691.783704,-0.001846,-0.016506,3.100754,-0.314926,-0.336690,0.257949,-0.001846,0.016506,-0.999862,0.158905,-0.024715,-0.034058,-1.859625,22.494278,-59.734718,,,,,,,
1508183691.803687,-0.007557,-0.024545,3.106910,-0.438920,-0.276133,0.354197,-0.007555,0.024542,-0.999670,0.205492,-0.022253,-0.150415,-2.121972,22.902643,-59.570572,,,,,,,
1508183691.823712,-0.012259,-0.032791,3.115003,-0.362890,-0.218768,0.423684,-0.012252,0.032785,-0.999387,0.265639,0.001608,-0.221331,-2.295971,23.555733,-59.308880,,,,,,,
1508183691.843720,-0.016086,-0.039657,3.122824,-0.356730,-0.193090,0.366793,-0.016073,0.039647,-0.999084,0.316992,-0.065144,-0.298645,-2.352145,23.976648,-59.137764,,,,,,,
