timestamp(unix),attitude_roll(radians),attitude_pitch(radians),attitude_yaw(radians),rotation_rate_x(radians/s),rotation_rate_y(radians/s),rotation_rate_z(radians/s),gravity_x(G),gravity_y(G),gravity_z(G),user_acc_x(G),user_acc_y(G),user_acc_z(G),magnetic_field_x(microteslas),magnetic_field_y(microteslas),magnetic_field_z(microteslas),latitude(degree),longitude(degree),altitude(meter),speed(m/s),course(degree),timestamp(unix),User Mark
1508437065.388788,-0.018291,-0.041171,-0.799218,-0.071768,0.071754,0.028263,-0.018274,0.041159,-0.998985,0.034464,0.029657,0.011086,-0.452189,16.235470,-48.388321,,,,,,,
1508437065.408816,-0.017465,-0.042989,-0.797975,-0.107836,0.026912,0.084388,-0.017448,0.042975,-0.998924,0.031593,0.010430,0.011802,-0.392167,16.288277,-48.371094,,,,,,,
1508437065.428797,-0.016824,-0.047007,-0.796586,-0.119806,0.061013,0.048696,-0.016804,0.046990,-0.998754,-0.004482,0.030219,-0.002406,-0.308370,16.448423,-48.317482,,,,,,,
1508437065.448815,-0.014083,-0.048714,-0.796360,-0.065746,0.182531,0.001042,-0.014066,0.048695,-0.998715,-0.004504,0.029919,0.001873,-0.207335,16.616976,-48.260311,,,,,,,
1508437065.468829,-0.010151,-0.049748,-0.796196,-0.051806,0.187826,0.014816,-0.010139,0.049727,-0.998711,0.017493,0.012940,-0.006126,-0.115289,16.646660,-48.250389,,,,,,,
1508437065.488837,-0.005036,-0.050413,-0.795230,-0.042847,0.104650,0.061868,-0.005029,0.050392,-0.998717,0.046899,-0.006584,-0.009950,0.144781,16.720211,-48.224873,,,,,,,
1508437065.508814,-0.003137,-0.050847,-0.793593,-0.015979,0.098192,0.091798,-0.003133,0.050825,-0.998703,0.021108,0.000613,-0.001862,0.373220,16.730568,-48.220051,,,,,,,
1508437065.528848,-0.000515,-0.051413,-0.791790,-0.038626,0.145090,0.080471,-0.000515,0.051390,-0.998679,0.012615,-0.006041,-0.008524,0.438608,16.738672,-48.216686,,,,,,,
1508437065.548851,0.003673,-0.052714,-0.790223,-0.008814,0.190898,0.076586,0.003668,0.052690,-0.998604,0.012033,0.016722,-0.040275,0.698409,16.787006,-48.196815,,,,,,,
1508437065.568842,0.008344,-0.052298,-0.788500,0.038186,0.236658,0.092948,0.008333,0.052275,-0.998598,0.025343,0.020418,-0.076323,0.900293,16.817148,-48.182961,,,,,,,
1508437065.588862,0.013720,-0.050980,-0.786618,0.080914,0.270719,0.100952,0.013702,0.050958,-0.998607,0.028702,0.021216,-0.070744,1.097306,16.788437,-48.188889,,,,,,,
1508437065.608866,0.020988,-0.048768,-0.784115,0.156085,0.220569,0.137878,0.020961,0.048749,-0.998591,0.053334,0.013995,-0.064473,1.523094,16.645657,-48.226826,,,,,,,
1508437065.628870,0.025888,-0.045082,-0.780739,0.188242,0.265185,0.195853,0.025859,0.045067,-0.998649,0.021779,-0.001930,-0.033074,1.835874,16.541403,-48.251797,,,,,,,
1508437065.648878,0.031705,-0.041131,-0.776779,0.187111,0.281172,0.191357,0.031673,0.041120,-0.998652,0.010182,0.001803,-0.031591,2.073883,16.399349,-48.290630,,,,,,,
1508437065.668881,0.038256,-0.036698,-0.773752,0.167806,0.249311,0.148116,0.038221,0.036689,-0.998596,0.022234,-0.015327,0.005096,2.560191,16.118145,-48.361919,,,,,,,
1508437065.688886,0.043525,-0.033543,-0.770424,0.141128,0.268411,0.188378,0.043487,0.033537,-0.998491,0.016038,-0.025892,0.019777,2.837885,15.955997,-48.400177,,,,,,,
1508437065.708894,0.048396,-0.031001,-0.766756,0.101688,0.209846,0.181793,0.048354,0.030996,-0.998349,0.019411,-0.016531,0.015790,3.074317,15.845701,-48.421967,,,,,,,
1508437065.728896,0.053293,-0.028852,-0.763100,0.098793,0.116089,0.193819,0.053246,0.028848,-0.998165,0.035561,-0.001412,0.021953,3.343265,15.728492,-48.442352,,,,,,,
1508437065.748895,0.055078,-0.026428,-0.758573,0.110934,0.057377,0.254374,0.055031,0.026425,-0.998135,0.041526,-0.003797,0.036846,3.657903,15.586510,-48.465504,,,,,,,
1508437065.768909,0.057390,-0.023391,-0.753328,0.111227,-0.019353,0.274680,0.057343,0.023389,-0.998080,0.038467,-0.009779,0.038135,3.783806,15.460094,-48.496315,,,,,,,
1508437065.788913,0.056751,-0.021318,-0.747384,0.065430,-0.044993,0.317739,0.056707,0.021317,-0.998163,0.017985,-0.019989,0.036661,3.918653,15.370365,-48.514126,,,,,,,
1508437065.808893,0.056191,-0.019643,-0.741420,0.020426,-0.063017,0.281780,0.056151,0.019642,-0.998229,0.006547,-0.012180,0.033294,3.998612,15.225538,-48.553257,,,,,,,
1508437065.828924,0.054856,-0.019412,-0.735953,-0.010575,-0.077915,0.277754,0.054819,0.019411,-0.998308,0.008597,-0.015474,0.027574,4.040072,15.160824,-48.570072,,,,,,,
1508437065.848928,0.052662,-0.018430,-0.730541,0.007697,-0.123690,0.260277,0.052629,0.018429,-0.998444,-0.002367,-0.013683,0.013611,4.031946,15.139093,-48.577522,,,,,,,
1508437065.868935,0.049152,-0.017162,-0.725645,0.001178,-0.115123,0.236699,0.049125,0.017161,-0.998645,-0.023338,-0.017771,0.014392,3.926668,15.035144,-48.618416,,,,,,,
1508437065.888940,0.047543,-0.017494,-0.721307,-0.045073,-0.071369,0.203044,0.047517,0.017493,-0.998717,-0.019426,-0.019233,0.020034,3.908723,15.027824,-48.622124,,,,,,,
1508437065.908932,0.046222,-0.018205,-0.717420,-0.035502,-0.071336,0.184909,0.046198,0.018204,-0.998766,-0.012033,-0.003906,-0.002347,3.893224,15.063027,-48.612473,,,,,,,
1508437065.928952,0.043938,-0.018072,-0.713890,0.000855,-0.079838,0.169010,0.043916,0.018071,-0.998872,-0.016130,-0.004826,-0.009124,3.835536,15.059165,-48.618256,,,,,,,
1508437065.948936,0.042700,-0.017639,-0.711137,0.019842,-0.040332,0.120440,0.042680,0.017638,-0.998933,-0.017305,0.004945,-0.004622,3.820506,15.050426,-48.622143,,,,,,,
1508437065.968959,0.043065,-0.017333,-0.709053,0.004545,0.039614,0.095833,0.043045,0.017332,-0.998923,-0.028885,-0.004210,0.002325,3.838527,15.014319,-48.631886,,,,,,,
1508437065.988947,0.043102,-0.017137,-0.707558,-0.010407,-0.002933,0.065539,0.043083,0.017136,-0.998925,-0.008247,-0.006226,-0.011772,3.874276,14.997901,-48.634117,,,,,,,
1508437066.008970,0.042063,-0.017124,-0.706470,0.002423,-0.017818,0.048684,0.042045,0.017123,-0.998969,-0.013984,-0.000446,-0.010385,3.879270,15.000235,-48.632999,,,,,,,
1508437066.028975,0.040178,-0.017504,-0.705827,0.016207,-0.004991,0.021830,0.040161,0.017503,-0.999040,-0.017456,0.007705,-0.001464,3.797864,15.002007,-48.638878,,,,,,,
1508437066.048975,0.039572,-0.017256,-0.705620,0.009714,0.006750,0.009935,0.039556,0.017255,-0.999068,-0.014226,0.000582,-0.000031,3.731701,15.004045,-48.643368,,,,,,,
1508437066.068986,0.039342,-0.016912,-0.705494,0.023537,0.030191,0.004253,0.039326,0.016911,-0.999083,-0.017582,-0.000538,0.000319,3.738283,14.999475,-48.644276,,,,,,,
1508437066.088990,0.039307,-0.016718,-0.705803,0.039564,0.008933,-0.022109,0.039292,0.016717,-0.999088,-0.000946,0.003073,-0.000149,3.720269,14.979241,-48.651886,,,,,,,
1508437066.108984,0.039452,-0.016143,-0.705971,0.020397,-0.000689,-0.001695,0.039437,0.016142,-0.999092,0.001411,-0.000364,0.006660,3.720652,14.959638,-48.657890,,,,,,,
1508437066.129001,0.039362,-0.015929,-0.706069,0.019387,-0.023055,-0.003502,0.039347,0.015929,-0.999099,0.005453,0.003069,0.006408,3.722051,14.944221,-48.662518,,,,,,,
1508437066.148984,0.038569,-0.015645,-0.706072,0.028922,0.013151,0.000230,0.038555,0.015645,-0.999134,-0.014263,0.001872,0.012943,3.701410,14.927293,-48.669292,,,,,,,
1508437066.169010,0.039210,-0.015208,-0.706102,0.022504,0.009962,-0.001851,0.039195,0.015208,-0.999116,0.007237,0.002584,0.004502,3.691121,14.909708,-48.675465,,,,,,,
1508437066.189016,0.039390,-0.014945,-0.706017,0.018396,-0.031610,0.013683,0.039376,0.014945,-0.999113,0.013740,0.004113,-0.000872,3.711874,14.897040,-48.677765,,,,,,,
1508437066.209021,0.039902,-0.014827,-0.705477,-0.016175,0.105767,0.037308,0.039887,0.014826,-0.999094,-0.060334,-0.001673,0.120737,3.725124,14.879501,-48.682114,,,,,,,
1508437066.229028,0.040464,-0.015783,-0.705527,-0.077158,-0.003744,-0.059158,0.040448,0.015782,-0.999057,0.044925,0.019191,0.059650,3.785006,14.909582,-48.668293,,,,,,,
1508437066.249033,0.037377,-0.016369,-0.706187,0.004871,-0.163692,0.012410,0.037363,0.016368,-0.999168,0.018408,0.018941,-0.001031,3.707297,14.957761,-48.659489,,,,,,,
1508437066.269037,0.034365,-0.016427,-0.705264,0.032161,0.032265,0.027674,0.034354,0.016427,-0.999275,-0.021063,0.013313,-0.010369,3.619803,14.959249,-48.665619,,,,,,,
1508437066.289025,0.034759,-0.016827,-0.706208,-0.035422,-0.009082,-0.062311,0.034747,0.016826,-0.999254,-0.006152,-0.009044,-0.025190,3.501944,14.963443,-48.672951,,,,,,,
1508437066.309049,0.034457,-0.016879,-0.706919,0.009448,0.045177,-0.035408,0.034445,0.016878,-0.999264,-0.028982,0.014097,-0.022480,3.452488,14.984833,-48.669903,,,,,,,
1508437066.329054,0.035218,-0.015833,-0.708538,0.079918,0.027178,-0.099178,0.035207,0.015833,-0.999255,-0.008916,0.012228,-0.015623,3.482539,14.955048,-48.676922,,,,,,,
1508437066.349054,0.034712,-0.013622,-0.710275,0.082214,0.005814,-0.071146,0.034702,0.013622,-0.999305,-0.020023,-0.013271,0.012672,3.437500,14.851304,-48.711876,,,,,,,
1508437066.369040,0.035279,-0.012897,-0.712158,0.010274,0.045326,-0.111118,0.035269,0.012896,-0.999295,-0.022238,-0.010257,0.031033,3.431093,14.817132,-48.722733,,,,,,,
1508437066.389068,0.036239,-0.013410,-0.714691,-0.030459,0.041126,-0.136618,0.036227,0.013409,-0.999254,-0.012790,-0.004757,0.034959,3.445696,14.819879,-48.720867,,,,,,,
1508437066.409075,0.036104,-0.013749,-0.717334,0.007138,0.011253,-0.119153,0.036092,0.013748,-0.999254,-0.016775,0.000259,0.035814,3.407502,14.850292,-48.714291,,,,,,,
1508437066.429078,0.035593,-0.013063,-0.719190,0.049184,-0.043220,-0.077895,0.035582,0.013063,-0.999281,-0.024474,0.000151,0.049635,3.381497,14.840029,-48.719231,,,,,,,
1508437066.449083,0.032882,-0.012840,-0.720635,0.022495,-0.064525,-0.077567,0.032874,0.012840,-0.999377,-0.041281,0.010979,0.040423,3.297473,14.793757,-48.739059,,,,,,,
1508437066.469080,0.031867,-0.012847,-0.722923,-0.007736,-0.032453,-0.131324,0.031859,0.012847,-0.999410,-0.054824,0.031160,0.046193,3.154357,14.809849,-48.743645,,,,,,,
1508437066.489096,0.031401,-0.013254,-0.725147,-0.018324,-0.039962,-0.103483,0.031393,0.013254,-0.999419,-0.065115,0.018790,0.048980,3.102885,14.820677,-48.743656,,,,,,,
1508437066.509099,0.027208,-0.015327,-0.727943,-0.021709,-0.039868,-0.155732,0.027202,0.015326,-0.999512,-0.078242,0.036538,0.044419,2.992135,14.862454,-48.737862,,,,,,,
1508437066.529078,0.027156,-0.015569,-0.730687,-0.000336,-0.001577,-0.129645,0.027149,0.015569,-0.999510,-0.089573,0.020930,0.045912,2.792490,14.955515,-48.721237,,,,,,,
1508437066.549110,0.026880,-0.016218,-0.734152,-0.049789,0.003894,-0.195798,0.026873,0.016217,-0.999507,-0.069842,0.018481,0.046855,2.760946,14.964238,-48.720360,,,,,,,
1508437066.569114,0.024321,-0.017451,-0.737271,-0.082983,0.088967,-0.125566,0.024314,0.017450,-0.999552,-0.089897,-0.009851,0.054163,2.711263,15.056949,-48.694576,,,,,,,
1508437066.589101,0.025972,-0.018969,-0.739302,-0.061403,0.060142,-0.096374,0.025965,0.018967,-0.999483,-0.034097,0.017348,0.047334,2.573651,15.103233,-48.687710,,,,,,,
1508437066.609125,0.026035,-0.020273,-0.740899,-0.073888,-0.029390,-0.068409,0.026027,0.020271,-0.999456,-0.020534,0.012215,0.051534,2.593436,15.168118,-48.666485,,,,,,,
1508437066.629117,0.025644,-0.022432,-0.742122,-0.148764,-0.043209,-0.072417,0.025635,0.022431,-0.999420,0.012177,-0.009140,0.049804,2.558462,15.226332,-48.650154,,,,,,,
1508437066.649124,0.025292,-0.025667,-0.743898,-0.154313,-0.006933,-0.100663,0.025281,0.025664,-0.999351,0.034488,0.009736,0.036964,2.511528,15.390715,-48.600849,,,,,,,
1508437066.669142,0.024011,-0.028685,-0.746132,-0.149802,-0.111279,-0.124744,0.023999,0.028681,-0.999300,0.076267,-0.011881,0.020144,2.461147,15.544306,-48.554523,,,,,,,
1508437066.689145,0.020355,-0.032447,-0.748628,-0.209442,-0.207136,-0.124376,0.020343,0.032442,-0.999267,0.080212,-0.028474,0.012862,2.397766,15.619248,-48.533642,,,,,,,
1508437066.709131,0.015285,-0.038131,-0.750576,-0.327911,-0.281726,-0.097614,0.015273,0.038122,-0.999156,0.080766,-0.055517,-0.031895,2.055220,15.928672,-48.448715,,,,,,,
1508437066.729136,0.009585,-0.045525,-0.753252,-0.376360,-0.261329,-0.170382,0.009575,0.045509,-0.998918,0.079064,-0.043465,-0.041838,1.828926,16.168806,-48.378189,,,,,,,
1508437066.749139,0.005357,-0.052534,-0.757844,-0.329861,-0.170601,-0.267700,0.005350,0.052510,-0.998606,0.060080,0.004070,-0.068304,1.386949,16.705301,-48.210308,,,,,,,
1508437066.769159,0.002545,-0.058818,-0.763614,-0.301189,-0.109865,-0.280331,0.002541,0.058784,-0.998267,0.088661,-0.034278,-0.088540,1.155825,17.020985,-48.105873,,,,,,,
1508437066.789172,0.000456,-0.064110,-0.768136,-0.246396,-0.086622,-0.191140,0.000455,0.064066,-0.997946,0.096728,-0.034510,-0.092921,1.059477,17.164991,-48.056892,,,,,,,
1508437066.809176,0.001935,-0.066849,-0.770927,-0.169124,-0.094209,-0.129242,0.001930,0.066799,-0.997765,0.096031,-0.015133,-0.099205,1.005587,17.446199,-47.956680,,,,,,,
1508437066.829155,0.000693,-0.068759,-0.773133,-0.049411,-0.020788,-0.103739,0.000691,0.068705,-0.997637,0.069133,0.012945,-0.068113,0.915010,17.548550,-47.921139,,,,,,,
1508437066.849188,0.000837,-0.068572,-0.774898,0.026541,0.018548,-0.074510,0.000835,0.068518,-0.997649,0.069463,-0.001334,-0.058045,0.871279,17.585709,-47.908329,,,,,,,
1508437066.869192,0.003788,-0.066118,-0.775842,0.016077,-0.035807,-0.053454,0.003780,0.066070,-0.997808,0.073765,-0.042449,-0.026484,1.003834,17.460102,-47.951660,,,,,,,
1508437066.889194,0.002755,-0.066104,-0.776937,-0.008513,-0.046447,-0.056480,0.002749,0.066056,-0.997812,0.051130,-0.026506,-0.012121,0.958130,17.453672,-47.954937,,,,,,,
1508437066.909204,0.002128,-0.066574,-0.778250,-0.035423,-0.013381,-0.075067,0.002123,0.066525,-0.997783,0.044020,-0.017727,-0.006032,0.910767,17.460072,-47.953529,,,,,,,
1508437066.929207,0.003648,-0.067419,-0.779796,-0.076135,0.002616,-0.076334,0.003640,0.067368,-0.997722,0.032981,-0.012467,0.004512,0.933483,17.503353,-47.937309,,,,,,,
1508437066.949214,0.003825,-0.068592,-0.780936,-0.034403,0.030252,-0.051175,0.003816,0.068539,-0.997641,0.019286,0.027912,0.000205,0.917542,17.557217,-47.917919,,,,,,,
1508437066.969219,0.004587,-0.068612,-0.782073,0.005103,0.045181,-0.064217,0.004576,0.068558,-0.997637,0.015230,0.037933,0.004732,0.929183,17.583471,-47.908066,,,,,,,
1508437066.989223,0.007055,-0.069539,-0.783255,-0.037673,0.044118,-0.056705,0.007038,0.069483,-0.997558,0.027859,-0.000742,0.011810,1.025338,17.606962,-47.897476,,,,,,,
1508437067.009228,0.007610,-0.070784,-0.784047,-0.070745,0.030241,-0.038352,0.007591,0.070725,-0.997467,0.024148,0.006332,-0.003708,1.049115,17.652718,-47.880116,,,,,,,
1508437067.029234,0.008771,-0.072604,-0.784927,-0.017245,0.016408,-0.050987,0.008748,0.072540,-0.997327,0.014598,0.035233,-0.006121,1.098997,17.760506,-47.839115,,,,,,,
1508437067.049223,0.009059,-0.072222,-0.785698,0.034244,0.009938,-0.017877,0.009035,0.072159,-0.997352,0.018751,0.016403,0.000404,1.098991,17.773916,-47.834133,,,,,,,
1508437067.069238,0.009629,-0.072056,-0.785279,-0.015724,-0.047664,0.029914,0.009604,0.071993,-0.997359,0.025720,-0.008944,0.007613,1.150074,17.745310,-47.843552,,,,,,,
1508437067.089242,0.009114,-0.072507,-0.784427,-0.044560,-0.050878,0.043844,0.009090,0.072444,-0.997331,0.012746,-0.007777,0.003633,1.125088,17.754555,-47.840721,,,,,,,
1508437067.109250,0.007781,-0.074003,-0.783793,-0.015864,-0.005048,0.026097,0.007759,0.073935,-0.997233,-0.011604,0.013070,-0.010732,1.090480,17.811766,-47.820251,,,,,,,
1508437067.129236,0.007420,-0.074424,-0.783952,0.036339,0.015280,-0.025420,0.007400,0.074355,-0.997204,-0.009688,0.021028,-0.012332,1.046672,17.868851,-47.799931,,,,,,,
1508437067.149266,0.007446,-0.074093,-0.784512,0.029950,0.005691,-0.024210,0.007426,0.074025,-0.997229,-0.005976,0.011851,-0.008219,1.050419,17.850740,-47.806610,,,,,,,
1508437067.169268,0.008759,-0.072839,-0.784523,-0.020004,-0.069989,0.009981,0.008736,0.072775,-0.997310,0.030052,-0.020361,-0.005986,1.064411,17.817982,-47.818523,,,,,,,
1508437067.189265,0.006965,-0.073065,-0.783651,0.005979,-0.122281,0.055505,0.006946,0.073000,-0.997308,0.009838,0.003630,-0.022559,1.055064,17.796818,-47.826611,,,,,,,
1508437067.209280,0.004448,-0.072972,-0.782572,0.065821,-0.102047,0.049835,0.004436,0.072907,-0.997329,-0.008251,0.016281,-0.027573,6.188447,18.772509,-47.789673,,,,,,,
1508437067.229285,0.002130,-0.072061,-0.782030,0.114862,-0.078560,0.016401,0.002125,0.071999,-0.997402,-0.008686,0.018959,-0.019825,6.061345,18.718157,-47.827271,,,,,,,
1508437067.249292,0.000444,-0.069981,-0.782278,0.118894,-0.042258,-0.026780,0.000443,0.069924,-0.997552,-0.009736,0.012000,-0.006629,5.990997,18.658787,-47.859318,,,,,,,
1508437067.269279,-0.000039,-0.068119,-0.783340,0.101379,0.048366,-0.065402,-0.000039,0.068066,-0.997681,-0.023597,0.012851,-0.005524,5.937555,18.591873,-47.892010,,,,,,,
1508437067.289300,0.001201,-0.066805,-0.785136,0.101192,0.071872,-0.100931,0.001198,0.066755,-0.997769,0.002784,0.013873,-0.002765,5.924656,18.484863,-47.935009,,,,,,,
1508437067.309305,0.003035,-0.064762,-0.787084,0.116140,0.094219,-0.090603,0.003029,0.064717,-0.997899,0.006523,0.006267,0.005391,5.957057,18.438383,-47.948891,,,,,,,
1508437067.329311,0.005045,-0.062643,-0.789009,0.122511,0.094248,-0.105537,0.005035,0.062602,-0.998026,0.005738,0.011555,0.008264,6.010524,18.371078,-47.968052,,,,,,,
1508437067.349315,0.007073,-0.060430,-0.791116,0.081853,0.095320,-0.103389,0.007060,0.060393,-0.998150,0.008290,-0.011550,0.017315,6.114931,18.229193,-48.008968,,,,,,,
1508437067.369318,0.009244,-0.059666,-0.793204,0.012217,0.127287,-0.099535,0.009228,0.059631,-0.998178,0.019551,-0.008423,0.017297,6.179319,18.187904,-48.016384,,,,,,,
1508437067.389328,0.012665,-0.059917,-0.794663,-0.019772,0.132545,-0.060134,0.012641,0.059881,-0.998125,0.021920,-0.000295,0.003802,6.252062,18.195969,-48.003910,,,,,,,
1508437067.409331,0.014448,-0.060321,-0.795263,-0.017275,0.065337,-0.011178,0.014421,0.060285,-0.998077,0.027983,-0.002210,-0.001923,6.342660,18.208441,-47.987293,,,,,,,
1508437067.429315,0.015420,-0.060005,-0.794729,0.005637,-0.014722,0.046458,0.015392,0.059969,-0.998082,0.019017,-0.012850,-0.006694,6.438693,18.237123,-47.963608,,,,,,,
1508437067.449338,0.015008,-0.059264,-0.793567,0.036759,-0.026482,0.063666,0.014981,0.059229,-0.998132,0.003482,-0.004007,0.004541,6.470073,18.198313,-47.974125,,,,,,,
1508437067.469326,0.014735,-0.057471,-0.791936,0.017605,-0.032919,0.089366,0.014710,0.057439,-0.998241,0.003173,-0.020925,0.013118,6.478999,18.113087,-48.005161,,,,,,,
1508437067.489343,0.013664,-0.057113,-0.790306,-0.005884,-0.062718,0.078086,0.013642,0.057082,-0.998276,-0.003342,-0.013243,0.009308,6.465950,18.049622,-48.030819,,,,,,,
1508437067.509357,0.012117,-0.056709,-0.788969,0.020755,-0.044581,0.059676,0.012097,0.056679,-0.998319,-0.017102,-0.007347,0.009290,6.449879,18.046741,-48.034061,,,,,,,
1508437067.529361,0.010482,-0.056296,-0.788477,0.020520,-0.026364,0.003964,0.010465,0.056266,-0.998361,-0.015577,-0.003287,0.022073,6.362355,18.006632,-48.060780,,,,,,,
1508437067.549341,0.010178,-0.056132,-0.788903,-0.024611,0.003536,-0.027359,0.010162,0.056102,-0.998373,-0.005325,-0.010265,0.033484,6.313648,17.986393,-48.074780,,,,,,,
1508437067.569373,0.010136,-0.056744,-0.789194,-0.062970,-0.029516,-0.007657,0.010120,0.056713,-0.998339,0.004147,-0.018795,0.026156,6.311316,18.003679,-48.068615,,,,,,,
1508437067.589377,0.009320,-0.058598,-0.789215,-0.025386,-0.070012,-0.002833,0.009304,0.058564,-0.998240,0.004047,0.021254,0.001582,6.277512,18.077438,-48.045353,,,,,,,
1508437067.609368,0.008229,-0.059397,-0.789386,0.006517,-0.022052,-0.019547,0.008215,0.059362,-0.998203,-0.008398,0.025767,0.002216,6.238691,18.118042,-48.035114,,,,,,,
1508437067.629390,0.007865,-0.060047,-0.790486,0.002040,-0.009172,-0.067714,0.007850,0.060011,-0.998167,-0.002495,0.026445,0.001280,6.203849,18.152292,-48.026691,,,,,,,
1508437067.649393,0.008177,-0.060096,-0.791544,-0.004313,-0.002830,-0.041144,0.008162,0.060060,-0.998161,0.010576,0.001632,-0.001686,6.164677,18.194813,-48.015652,,,,,,,
1508437067.669397,0.008289,-0.060477,-0.792273,0.004351,-0.041173,-0.043793,0.008274,0.060440,-0.998138,0.024578,0.013687,-0.004304,6.182997,18.221325,-48.003235,,,,,,,
1508437067.689405,0.008443,-0.061069,-0.792965,0.005356,0.000336,-0.025202,0.008427,0.061031,-0.998100,0.006069,0.011158,0.006706,6.166903,18.240231,-47.998127,,,,,,,
1508437067.709409,0.009719,-0.061379,-0.793228,-0.004298,0.021621,-0.012708,0.009700,0.061341,-0.998070,0.021565,0.007614,-0.000359,6.190424,18.259514,-47.987766,,,,,,,
1508437067.729395,0.010216,-0.061639,-0.793449,0.020444,-0.016743,-0.006838,0.010196,0.061600,-0.998049,0.020626,0.015122,-0.001417,6.224016,18.271921,-47.978695,,,,,,,
1508437067.749393,0.010300,-0.061523,-0.793282,0.016216,-0.013582,0.012313,0.010280,0.061484,-0.998055,0.017857,0.011041,0.005105,6.237798,18.278801,-47.974289,,,,,,,
1508437067.769424,0.011370,-0.061964,-0.792919,-0.008449,0.014105,0.021527,0.011348,0.061924,-0.998016,0.017522,0.006176,0.013687,6.277983,18.286530,-47.966099,,,,,,,
1508437067.789430,0.011849,-0.062168,-0.792309,-0.009376,-0.021070,0.033767,0.011826,0.062128,-0.997998,0.019302,-0.000559,0.015698,6.341016,18.301933,-47.951935,,,,,,,
1508437067.809435,0.011387,-0.062191,-0.791354,-0.021015,-0.041348,0.055396,0.011365,0.062151,-0.998002,0.011325,-0.008974,0.016221,6.334177,18.303877,-47.952091,,,,,,,
1508437067.829438,0.010982,-0.062855,-0.790501,-0.064028,0.000260,0.028167,0.010960,0.062813,-0.997965,-0.001362,-0.002297,0.025324,6.325110,18.290405,-47.958427,,,,,,,
1508437067.849447,0.011467,-0.064288,-0.790083,-0.068406,0.024777,0.020351,0.011443,0.064243,-0.997869,0.000535,-0.002186,0.014745,6.336649,18.360409,-47.930149,,,,,,,
1508437067.869452,0.011239,-0.065797,-0.789492,-0.087368,-0.054086,0.040702,0.011214,0.065749,-0.997773,0.008058,-0.014663,0.010636,6.363392,18.423672,-47.902321,,,,,,,
1508437067.889455,0.008833,-0.068407,-0.788404,-0.163026,-0.145705,0.054883,0.008812,0.068354,-0.997622,0.000450,-0.062479,-0.081327,6.282822,18.542440,-47.867119,,,,,,,
1508437067.909448,0.006289,-0.073717,-0.787309,-0.330058,-0.115828,0.050310,0.006272,0.073650,-0.997264,0.011260,-0.081982,-0.269124,6.170293,18.750174,-47.800789,,,,,,,
1508437067.929468,0.004106,-0.081383,-0.786538,-0.392252,-0.110415,0.015090,0.004092,0.081293,-0.996682,0.016080,-0.094782,-0.398353,6.126642,18.911663,-47.742748,,,,,,,
1508437067.949457,0.003435,-0.085977,-0.786553,-0.056725,0.025893,-0.006332,0.003422,0.085871,-0.996300,-0.037327,-0.028529,-0.726035,6.016143,19.394173,-47.562897,,,,,,,
1508437067.969476,0.005985,-0.080183,-0.786836,0.506801,0.136579,-0.027553,0.005966,0.080097,-0.996769,-0.039215,-0.012074,-0.780498,6.109396,19.253426,-47.608170,,,,,,,
1508437067.989482,0.006330,-0.064744,-0.788252,0.888149,-0.058351,-0.079394,0.006317,0.064698,-0.997885,-0.003585,-0.056932,-0.791956,6.160177,18.985455,-47.709137,,,,,,,
1508437068.009485,0.005580,-0.045050,-0.789082,1.030417,0.046911,0.001078,0.005575,0.045034,-0.998970,-0.076070,-0.178213,-0.700707,6.077915,17.708418,-48.208172,,,,,,,
1508437068.029474,0.010311,-0.022894,-0.788826,1.155911,0.317433,0.008790,0.010308,0.022892,-0.999685,-0.087899,-0.105396,-0.694697,6.247591,16.664461,-48.557392,,,,,,,
1508437068.049498,0.019932,0.004009,-0.789598,1.513558,0.575168,-0.010144,0.019930,-0.004009,-0.999793,-0.065813,-0.050313,-0.681039,6.415803,16.090412,-48.728771,,,,,,,
1508437068.069501,0.031911,0.040978,-0.790100,2.034809,0.577084,0.032089,0.031879,-0.040966,-0.998652,-0.015278,0.087841,-0.708761,7.240698,13.752209,-49.325512,,,,,,,
1508437068.089481,0.041303,0.086318,-0.790796,2.385437,0.381970,0.076241,0.041137,-0.086211,-0.995427,0.068222,0.134138,-0.649470,7.647950,12.163825,-49.680046,,,,,,,
1508437068.109512,0.044500,0.136809,-0.790055,2.564398,0.040852,0.175955,0.044070,-0.136382,-0.989676,0.071836,0.163360,-0.585703,7.942833,10.371265,-50.039036,,,,,,,
1508437068.129517,0.046823,0.189692,-0.788300,2.738447,0.235620,0.239111,0.045966,-0.188556,-0.980986,0.001275,0.283161,-0.286684,8.148355,6.439357,-50.662571,,,,,,,
1508437068.149518,0.054172,0.250971,-0.784750,3.236805,0.479168,0.371691,0.052449,-0.248345,-0.967251,-0.014714,0.432763,-0.084644,8.528057,3.417097,-50.893543,,,,,,,
1508437068.169528,0.062293,0.315357,-0.780332,3.439392,0.429987,0.437296,0.059183,-0.310156,-0.948842,0.058890,0.421148,0.054021,8.912611,1.019943,-50.932133,,,,,,,
1508437068.189533,0.066725,0.386435,-0.774047,3.566624,0.262423,0.582515,0.061759,-0.376889,-0.924197,0.062127,0.456723,0.263400,9.391875,-3.504166,-50.735298,,,,,,,
1508437068.209525,0.065580,0.457164,-0.765712,3.440079,0.023789,0.609529,0.058803,-0.441405,-0.895379,0.074360,0.447981,0.406717,8.213897,-5.196613,-51.099220,,,,,,,
1508437068.229544,0.061459,0.523986,-0.757020,3.209996,0.021733,0.601202,0.053179,-0.500335,-0.864197,0.005018,0.480667,0.561051,8.148755,-8.772913,-50.618546,,,,,,,
1508437068.249547,0.057402,0.584716,-0.747247,2.870572,0.062355,0.572077,0.047839,-0.551962,-0.832496,0.004514,0.505896,0.592322,8.096950,-10.460342,-50.305309,,,,,,,
1508437068.269526,0.053066,0.637032,-0.738454,2.415563,0.024334,0.465273,0.042638,-0.594812,-0.802733,0.006632,0.458200,0.781157,7.924332,-15.581240,-48.990135,,,,,,,
1508437068.289558,0.048924,0.679304,-0.730427,1.894172,0.054404,0.408714,0.038048,-0.628251,-0.777079,0.002098,0.462800,0.813136,7.861787,-16.766428,-48.607437,,,,,,,
1508437068.309541,0.044017,0.710536,-0.722035,1.328192,-0.007177,0.378043,0.033355,-0.652241,-0.757278,0.009431,0.439335,0.894027,7.694898,-19.493170,-47.606812,,,,,,,
1508437068.329543,0.037938,0.729842,-0.714072,0.723586,-0.060176,0.322751,0.028268,-0.666752,-0.744744,-0.001748,0.423130,0.932137,7.527022,-20.592611,-47.168762,,,,,,,
1508437068.349555,0.031266,0.737058,-0.706005,0.118936,-0.064238,0.298739,0.023147,-0.672113,-0.740087,-0.017441,0.420053,0.940542,7.431444,-20.922571,-47.038528,,,,,,,
1508437068.369567,0.027029,0.731459,-0.700946,-0.529371,0.003478,0.076452,0.020112,-0.667956,-0.743929,-0.067766,0.463519,0.903108,7.180700,-21.030315,-47.029427,,,,,,,
1508437068.389507,0.030949,0.713677,-0.701557,-1.078647,0.291570,-0.094723,0.023392,-0.654618,-0.755598,-0.098634,0.455949,0.863355,7.280917,-20.321148,-47.324863,,,,,,,
1508437068.409524,0.041390,0.687512,-0.704229,-1.403739,0.488893,-0.181578,0.031978,-0.634617,-0.772165,-0.109050,0.445606,0.847086,7.457186,-19.776115,-47.527878,,,,,,,
1508437068.429529,0.053444,0.657264,-0.708941,-1.547359,0.433745,-0.307585,0.042290,-0.610953,-0.790536,-0.065925,0.521079,0.763452,8.232298,-17.697063,-48.214592,,,,,,,
1508437068.449516,0.065413,0.625125,-0.715386,-1.606287,0.380641,-0.379279,0.053005,-0.585199,-0.809156,-0.116970,0.567163,0.763685,8.625597,-16.518513,-48.562759,,,,,,,
1508437068.469541,0.078637,0.591553,-0.723718,-1.668943,0.450135,-0.498599,0.065208,-0.557651,-0.827510,-0.132423,0.574100,0.782817,9.001658,-15.290737,-48.895470,,,,,,,
1508437068.489544,0.090758,0.555978,-0.732027,-1.816148,0.295709,-0.496250,0.076982,-0.527774,-0.845889,-0.119829,0.559848,0.744998,8.504849,-13.626759,-50.892834,,,,,,,
1508437068.509550,0.096547,0.514066,-0.739276,-2.245424,-0.032226,-0.521028,0.083938,-0.491722,-0.866697,-0.075042,0.502083,0.753141,8.774921,-12.108812,-51.229668,,,,,,,
1508437068.529556,0.090439,0.458544,-0.743862,-3.119390,-0.702306,-0.386964,0.080986,-0.442643,-0.893033,-0.041496,0.384919,0.725980,8.831272,-10.303005,-51.613544,,,,,,,
1508437068.549559,0.064152,0.379482,-0.743178,-4.479539,-1.632136,-0.275425,0.059547,-0.370439,-0.926946,-0.074699,0.052324,0.359701,7.596160,-5.033570,-52.583862,,,,,,,
1508437068.569540,0.031261,0.272973,-0.749826,-5.694592,-1.637227,-0.775601,0.030099,-0.269595,-0.962503,-0.282159,-0.057874,0.065164,6.263459,-1.155812,-52.986172,,,,,,,
1508437068.589570,0.008969,0.150004,-0.765565,-6.331509,-0.972112,-0.900996,0.008869,-0.149442,-0.988731,-0.361743,-0.118441,-0.169244,4.523624,5.057923,-52.934448,,,,,,,
1508437068.609575,0.004112,0.031217,-0.782004,-5.468332,-0.007441,-0.794075,0.004110,-0.031212,-0.999504,-0.242208,0.382057,-1.164039,3.416389,13.221861,-51.590813,,,,,,,
1508437068.629568,0.004863,-0.050682,-0.797424,-3.183946,0.030385,-0.818730,0.004856,0.050661,-0.998704,0.062999,0.640623,-1.626540,3.359137,14.641340,-51.209850,,,,,,,
1508437068.649587,0.003112,-0.087452,-0.811036,-1.117314,-0.135814,-0.533168,0.003100,0.087341,-0.996174,0.237775,0.429093,-1.671459,2.995371,20.011482,-49.382889,,,,,,,
1508437068.669574,-0.003378,-0.095781,-0.815353,-0.137947,-0.396981,-0.030020,-0.003363,0.095635,-0.995411,0.314139,0.070213,-1.304974,2.540540,21.072563,-48.965233,,,,,,,
1508437068.689596,-0.010710,-0.099089,-0.811501,-0.260169,-0.326223,0.292135,-0.010657,0.098927,-0.995038,0.249854,-0.153904,-0.955799,2.258963,21.153879,-48.943962,,,,,,,
1508437068.709582,-0.014956,-0.105295,-0.804531,-0.279512,-0.237914,0.347383,-0.014872,0.105101,-0.994350,0.159816,-0.046446,-0.805164,2.091337,21.405293,-48.842003,,,,,,,
1508437068.729607,-0.019541,-0.106022,-0.799855,0.169463,-0.263269,0.185336,-0.019430,0.105823,-0.994195,0.078833,0.022030,-0.690345,1.949699,21.607893,-48.758579,,,,,,,
1508437068.749593,-0.022543,-0.096629,-0.796121,0.597991,-0.101406,0.158142,-0.022436,0.096478,-0.995082,0.018332,-0.052457,-0.429387,1.837615,21.375650,-48.865185,,,,,,,
1508437068.769618,-0.024319,-0.085783,-0.792496,0.448492,-0.152597,0.206980,-0.024227,0.085678,-0.996028,0.060726,-0.217377,-0.242467,1.805763,20.796381,-49.115688,,,,,,,
1508437068.789622,-0.029208,-0.080387,-0.787358,0.197428,-0.270807,0.222745,-0.029109,0.080300,-0.996346,-0.013295,-0.129662,-0.073509,1.665548,20.322222,-49.318707,,,,,,,
1508437068.809621,-0.030522,-0.076944,-0.785947,0.195633,0.057793,-0.031534,-0.030427,0.076868,-0.996577,-0.138122,-0.018671,0.036494,1.569891,20.188797,-49.376606,,,,,,,
1508437068.829633,-0.027271,-0.072585,-0.789029,0.205282,0.199856,-0.226602,-0.027196,0.072521,-0.996996,-0.069407,-0.036770,0.054934,1.628613,19.993109,-49.454269,,,,,,,
1508437068.849637,-0.024931,-0.069893,-0.794256,0.074936,0.089182,-0.265418,-0.024868,0.069836,-0.997248,-0.002797,-0.054608,0.076426,1.719173,19.790466,-49.532646,,,,,,,
1508437068.869638,-0.024758,-0.069486,-0.798240,-0.015350,-0.003714,-0.143511,-0.024696,0.069430,-0.997281,0.012794,-0.032793,0.070691,1.690300,19.759756,-49.545902,,,,,,,
1508437068.889649,-0.025494,-0.071035,-0.799819,0.006242,0.030183,-0.052317,-0.025427,0.070975,-0.997154,-0.014033,0.016778,0.039619,1.645187,19.777388,-49.540382,,,,,,,
1508437068.909652,-0.025290,-0.069733,-0.802052,0.090524,0.004798,-0.153311,-0.025226,0.069676,-0.997251,0.027423,0.047496,0.010282,1.584285,19.809919,-49.529369,,,,,,,
1508437068.929640,-0.024542,-0.067417,-0.804246,0.153124,-0.098681,-0.081482,-0.024484,0.067366,-0.997428,0.033288,0.006334,0.031867,1.526599,19.730623,-49.562820,,,,,,,
1508437068.949664,-0.026996,-0.065231,-0.805122,0.061321,-0.125377,-0.037308,-0.026936,0.065185,-0.997510,0.015781,-0.038284,0.050412,1.502596,19.612976,-49.610226,,,,,,,
1508437068.969668,-0.028395,-0.065641,-0.806519,-0.067667,0.001545,-0.100897,-0.028330,0.065594,-0.997444,-0.016881,-0.019589,0.045296,1.433360,19.574341,-49.627533,,,,,,,
1508437068.989675,-0.026685,-0.067035,-0.809250,-0.056368,0.120922,-0.137825,-0.026622,0.066985,-0.997399,0.017909,0.031679,0.012459,1.351750,19.641134,-49.603424,,,,,,,
1508437069.009658,-0.026122,-0.066692,-0.811410,0.059865,-0.047519,-0.085353,-0.026061,0.066642,-0.997437,0.062820,0.029076,-0.013931,1.402594,19.684937,-49.584648,,,,,,,
1508437069.029678,-0.028792,-0.064996,-0.812325,0.073241,-0.165877,-0.028199,-0.028727,0.064950,-0.997475,0.019648,-0.031762,0.012657,1.270654,19.600155,-49.621777,,,,,,,
1508437069.049689,-0.032619,-0.063371,-0.813128,-0.030825,-0.105077,-0.057792,-0.032547,0.063329,-0.997462,-0.009811,-0.024175,0.036372,1.134575,19.564417,-49.639172,,,,,,,
1508437069.069689,-0.032779,-0.064668,-0.815371,-0.077594,0.069781,-0.131735,-0.032705,0.064623,-0.997374,0.001928,0.013013,0.018248,0.981429,19.534981,-49.654030,,,,,,,
1508437069.089698,-0.025805,-0.067565,-0.817693,-0.023263,0.151803,-0.129768,-0.025744,0.067513,-0.997386,0.071612,0.032172,-0.008611,1.037734,19.621828,-49.618629,,,,,,,
1508437069.109701,-0.023154,-0.067064,-0.820416,0.043184,0.121951,-0.125119,-0.023100,0.067014,-0.997485,0.151777,0.041461,-0.024610,1.336205,19.722252,-49.571651,,,,,,,
1508437069.129710,-0.021269,-0.066059,-0.822004,0.043438,0.115414,-0.052516,-0.021221,0.066011,-0.997593,0.203228,0.021529,-0.035457,1.390078,19.693977,-49.581409,,,,,,,
1508437069.149712,-0.017656,-0.065060,-0.821404,0.061808,0.207807,0.086882,-0.017618,0.065014,-0.997729,0.365945,0.007710,-0.075178,1.571007,19.624744,-49.603455,,,,,,,
1508437069.169698,-0.012367,-0.062999,-0.817309,0.148000,0.241450,0.298523,-0.012342,0.062958,-0.997940,0.492445,-0.006622,-0.106980,1.870739,19.535767,-49.628174,,,,,,,
1508437069.189725,-0.008293,-0.058652,-0.806795,0.260823,0.132019,0.673231,-0.008278,0.058618,-0.998246,0.555749,-0.030405,-0.101379,2.140594,19.390247,-49.674313,,,,,,,
1508437069.209729,-0.006493,-0.052195,-0.788813,0.350943,0.033371,0.985954,-0.006484,0.052171,-0.998617,0.533278,0.005980,-0.054468,2.612699,18.979765,-49.810074,,,,,,,
1508437069.229737,-0.003594,-0.046078,-0.767327,0.280566,0.106604,1.128895,-0.003590,0.046062,-0.998932,0.462636,-0.042507,-0.003647,2.947270,18.684401,-49.902985,,,,,,,
1508437069.249741,-0.000183,-0.041576,-0.743255,0.200636,0.117057,1.238633,-0.000183,0.041564,-0.999136,0.434525,-0.056579,0.005728,3.342538,18.421261,-49.975853,,,,,,,
1508437069.269744,0.002563,-0.037732,-0.717124,0.187139,0.081718,1.334056,0.002561,0.037723,-0.999285,0.270693,-0.054172,0.041582,4.182589,17.972691,-50.075836,,,,,,,
1508437069.289724,0.007756,-0.034645,-0.689932,0.111727,0.305342,1.380986,0.007751,0.034638,-0.999370,0.127823,-0.028916,0.045100,4.818091,17.684792,-50.121208,,,,,,,
1508437069.309757,0.013406,-0.033438,-0.660823,0.019628,0.108042,1.508674,0.013398,0.033432,-0.999351,0.093810,-0.030075,-0.008736,5.418331,17.516476,-50.119019,,,,,,,
1508437069.329760,0.011936,-0.032080,-0.630259,0.077199,-0.199793,1.492835,0.011929,0.032075,-0.999414,-0.098599,0.043670,-0.007193,6.086627,17.255112,-50.132980,,,,,,,
1508437069.349766,0.011329,-0.028334,-0.603658,0.220089,0.039314,1.226950,0.011324,0.028330,-0.999534,-0.321154,0.138860,0.023720,6.332247,17.033840,-50.178200,,,,,,,
1508437069.369772,0.015200,-0.024330,-0.581496,0.138828,0.196258,1.059458,0.015195,0.024328,-0.999589,-0.352139,0.093882,0.031510,6.807388,16.663891,-50.240177,,,,,,,
1508437069.389777,0.018162,-0.023464,-0.562309,-0.033731,0.089080,0.875606,0.018156,0.023462,-0.999560,-0.425871,0.099432,-0.005567,7.430214,16.367233,-50.249447,,,,,,,
1508437069.409780,0.022509,-0.024683,-0.548305,-0.083389,0.298425,0.601766,0.022500,0.024680,-0.999442,-0.503686,0.174493,0.029685,7.829701,16.313120,-50.206367,,,,,,,
1508437069.429765,0.030072,-0.025763,-0.538784,-0.064942,0.365879,0.408816,0.030058,0.025760,-0.999216,-0.495314,0.168958,0.019510,8.085552,16.307238,-50.167713,,,,,,,
1508437069.449791,0.036027,-0.027519,-0.531305,-0.112835,0.228565,0.363926,0.036005,0.027515,-0.998973,-0.352686,0.053021,-0.010091,5.160444,14.492514,-50.467594,,,,,,,
1508437069.469797,0.040133,-0.028763,-0.524483,-0.037972,0.174344,0.301745,0.040105,0.028759,-0.998782,-0.330328,0.122609,-0.002332,5.474338,14.549549,-50.418087,,,,,,,
1508437069.489802,0.043374,-0.028510,-0.520591,0.009644,0.173599,0.135377,0.043343,0.028506,-0.998653,-0.281853,0.123364,0.003582,5.597823,14.546135,-50.405510,,,,,,,
1508437069.509807,0.046166,-0.028527,-0.517594,-0.000505,0.053110,0.195778,0.046130,0.028523,-0.998528,-0.160404,-0.010807,-0.029823,1.781907,14.988770,-53.599327,,,,,,,
1508437069.529812,0.045539,-0.027610,-0.513201,0.054391,-0.053433,0.198348,0.045506,0.027606,-0.998583,-0.186635,0.050839,-0.004713,1.836390,14.957170,-53.606319,,,,,,,
1508437069.549818,0.046442,-0.026009,-0.511139,0.072695,0.122596,0.063560,0.046410,0.026006,-0.998584,-0.207085,0.078349,0.049533,-0.607676,15.423430,-56.726448,,,,,,,
1508437069.569821,0.049271,-0.025200,-0.510688,0.014743,0.114207,0.004013,0.049235,0.025197,-0.998469,-0.111979,0.011302,0.045375,-0.407403,15.340160,-56.750816,,,,,,,
1508437069.589803,0.050668,-0.025494,-0.510628,-0.032125,0.043909,0.006134,0.050629,0.025491,-0.998392,-0.106248,-0.006479,0.056360,-0.325909,15.337595,-56.752033,,,,,,,
1508437069.609833,0.051280,-0.026762,-0.511275,-0.079482,0.039837,-0.082275,0.051240,0.026759,-0.998328,-0.115616,0.003850,0.051962,-0.286166,15.365587,-56.744675,,,,,,,
1508437069.629837,0.052759,-0.029418,-0.514463,-0.154935,0.100801,-0.196130,0.052711,0.029413,-0.998177,-0.100304,0.024587,0.037926,-0.245855,15.519085,-56.703075,,,,,,,
1508437069.649831,0.053899,-0.033204,-0.517764,-0.183413,0.009111,-0.152127,0.053844,0.033198,-0.997997,-0.036449,0.007833,-0.018513,-0.208601,15.662637,-56.663742,,,,,,,
1508437069.669849,0.052459,-0.035961,-0.519778,-0.088724,-0.094375,-0.084587,0.052401,0.035953,-0.997979,-0.052325,0.012524,-0.039222,-0.236309,15.815013,-56.621292,,,,,,,
1508437069.689852,0.050527,-0.036712,-0.521891,-0.008689,-0.085754,-0.144485,0.050471,0.036704,-0.998051,-0.179377,0.052224,-0.046795,-0.362266,15.933191,-56.587482,,,,,,,
1508437069.709859,0.048736,-0.036942,-0.525557,-0.004532,-0.096312,-0.192318,0.048683,0.036934,-0.998131,-0.241829,0.015449,-0.053550,-0.538656,15.950514,-56.581200,,,,,,,
1508437069.729864,0.045886,-0.036966,-0.530233,0.028547,-0.162187,-0.280957,0.045839,0.036957,-0.998265,-0.302339,0.053955,-0.086116,-0.718817,15.951042,-56.579052,,,,,,,
1508437069.749868,0.042696,-0.036270,-0.538630,0.070455,-0.095723,-0.496279,0.042655,0.036262,-0.998432,-0.390403,0.068581,-0.073285,-1.075366,15.891088,-56.590263,,,,,,,
1508437069.769874,0.041978,-0.034885,-0.551259,0.104705,0.018694,-0.719755,0.041940,0.034878,-0.998511,-0.411508,0.090808,-0.077661,-1.304044,15.778616,-56.616920,,,,,,,
1508437069.789880,0.043055,-0.033946,-0.568170,0.064348,0.106365,-0.875610,0.043017,0.033939,-0.998498,-0.381533,0.093792,-0.049293,-1.403568,15.710388,-56.633514,,,,,,,
1508437069.809871,0.043031,-0.032977,-0.585431,0.121669,-0.068404,-0.847527,0.042994,0.032972,-0.998531,-0.275019,0.086581,-0.037434,-1.676788,15.542688,-56.672344,,,,,,,
1508437069.829889,0.037181,-0.029873,-0.603040,0.225051,-0.364430,-0.914754,0.037155,0.029869,-0.998863,-0.247696,0.097817,0.002144,-2.157510,15.323381,-56.715786,,,,,,,
1508437069.849887,0.029331,-0.025740,-0.623686,0.238233,-0.314010,-1.093567,0.029317,0.025737,-0.999239,-0.251653,0.096043,0.044191,-2.514318,15.170168,-56.742271,,,,,,,
1508437069.869899,0.025507,-0.022920,-0.648140,0.115050,-0.101647,-1.269295,0.025498,0.022918,-0.999412,-0.071488,0.031907,0.152610,-3.474330,14.696656,-56.816185,,,,,,,
1508437069.889905,0.020237,-0.024276,-0.672011,-0.129684,-0.385272,-1.101854,0.020230,0.024274,-0.999501,0.181430,-0.092892,0.155384,-3.862071,14.581468,-56.820827,,,,,,,
1508437069.909899,0.006272,-0.027032,-0.690399,-0.080564,-0.793781,-0.845386,0.006269,0.027028,-0.999615,0.262728,-0.075918,0.154797,-4.435205,14.616164,-56.770046,,,,,,,
1508437069.929915,-0.010283,-0.028889,-0.706534,-0.173289,-0.824821,-0.759562,-0.010278,0.028885,-0.999530,0.359155,-0.069809,0.244220,-6.107147,14.637489,-56.609081,,,,,,,
1508437069.949920,-0.028512,-0.038581,-0.717650,-0.689786,-0.913814,-0.404938,-0.028487,0.038571,-0.998850,0.443068,-0.214398,0.161798,-7.278625,14.966218,-56.384178,,,,,,,
1508437069.969926,-0.044248,-0.055726,-0.726501,-0.916907,-0.575869,-0.509901,-0.044165,0.055697,-0.997470,0.275061,0.041211,0.006000,-8.113820,15.585495,-56.101692,,,,,,,
1508437069.989930,-0.047955,-0.071470,-0.741557,-0.730430,0.113837,-0.783420,-0.047814,0.071409,-0.996300,0.253716,0.137011,-0.107093,-8.908531,16.680933,-55.664402,,,,,,,
1508437070.009915,-0.046504,-0.081480,-0.755766,-0.424599,0.036672,-0.587397,-0.046333,0.081390,-0.995605,0.455741,0.007905,-0.201218,-8.994817,17.227304,-55.483822,,,,,,,
1508437070.029942,-0.050697,-0.086807,-0.763639,-0.213965,-0.267635,-0.255788,-0.050485,0.086698,-0.994955,0.388635,-0.020170,-0.177638,-9.174643,17.462448,-55.380772,,,,,,,
1508437070.049945,-0.055407,-0.089624,-0.765988,-0.121570,-0.161555,-0.045201,-0.055156,0.089504,-0.994458,0.245006,-0.043666,-0.119601,-9.455805,17.605089,-55.288246,,,,,,,
1508437070.069936,-0.056763,-0.091017,-0.767097,-0.038792,0.015354,-0.095813,-0.056498,0.090891,-0.994257,0.158579,0.009847,-0.049353,-9.733825,17.770473,-55.186989,,,,,,,
1508437070.089957,-0.055369,-0.090863,-0.769267,0.024272,0.068546,-0.068908,-0.055112,0.090738,-0.994349,0.163022,-0.066858,-0.052465,-9.717403,17.772322,-55.189293,,,,,,,
1508437070.109961,-0.055217,-0.090376,-0.769112,0.008702,-0.000860,0.016349,-0.054964,0.090253,-0.994401,0.118013,-0.088575,-0.025527,-9.680109,17.729218,-55.209705,,,,,,,
1508437070.129964,-0.053248,-0.091059,-0.769798,-0.056291,0.177213,-0.065091,-0.053003,0.090933,-0.994446,0.046395,-0.023855,-0.014908,-9.621384,17.748625,-55.213734,,,,,,,
1508437070.149973,-0.049053,-0.092228,-0.771797,-0.060797,0.217758,-0.097665,-0.048825,0.092098,-0.994552,0.068844,-0.011684,-0.021775,-9.474744,17.787699,-55.226517,,,,,,,
1508437070.169977,-0.046353,-0.092562,-0.772517,0.009423,0.097178,-0.002135,-0.046138,0.092430,-0.994650,0.074703,-0.015785,-0.032679,-9.370719,17.812922,-55.236137,,,,,,,
1508437070.189956,-0.043993,-0.092141,-0.772461,0.006091,0.139785,-0.000617,-0.043793,0.092010,-0.994795,-0.000870,-0.011352,-0.010241,-9.138181,17.805357,-55.277519,,,,,,,
1508437070.209979,-0.040777,-0.092677,-0.772657,-0.034694,0.171770,-0.009581,-0.040591,0.092544,-0.994881,0.001559,-0.009246,-0.024818,-9.015981,17.814255,-55.294716,,,,,,,
1508437070.229970,-0.037855,-0.092610,-0.772621,0.031816,0.131246,0.004819,-0.037683,0.092477,-0.995001,-0.021643,0.003104,-0.034128,-12.123652,17.143196,-57.180206,,,,,,,
1508437070.249997,-0.035197,-0.091282,-0.772621,0.078850,0.131264,-0.010145,-0.035043,0.091156,-0.995220,-0.033255,-0.007217,-0.012898,-11.971154,17.081091,-57.230904,,,,,,,
1508437070.269976,-0.032832,-0.089918,-0.772388,0.052319,0.101363,0.030828,-0.032694,0.089797,-0.995423,-0.026922,-0.030273,-0.012176,-11.897836,17.034849,-57.259968,,,,,,,
1508437070.289983,-0.031129,-0.089289,-0.771485,0.033124,0.087504,0.038507,-0.031000,0.089170,-0.995534,-0.027716,-0.010343,-0.033794,-11.717535,16.961428,-57.318913,,,,,,,
1508437070.309998,-0.029278,-0.088037,-0.770964,0.083402,0.084311,0.031052,-0.029161,0.087924,-0.995700,-0.019408,0.009626,-0.040173,-11.631632,16.929062,-57.345970,,,,,,,
1508437070.330019,-0.028580,-0.086087,-0.769314,0.105315,-0.014896,0.098585,-0.028470,0.085981,-0.995890,-0.003314,-0.012892,-0.045416,-11.553516,16.863766,-57.380993,,,,,,,
1508437070.350023,-0.032622,-0.082018,-0.767654,0.047602,-0.045768,0.089479,-0.032506,0.081926,-0.996108,-0.034602,-0.019960,-0.060288,-11.529662,16.732073,-57.424328,,,,,,,
1508437070.370028,-0.032849,-0.082321,-0.766356,-0.040453,0.013989,0.048159,-0.032732,0.082228,-0.996076,-0.040495,-0.002760,-0.108691,-11.739145,16.587990,-57.423687,,,,,,,
1508437070.390035,-0.031042,-0.082852,-0.766076,-0.000357,0.146176,-0.006037,-0.030931,0.082757,-0.996090,-0.042235,0.048041,-0.202626,-11.697058,16.629230,-57.420345,,,,,,,
1508437070.410037,-0.027072,-0.081784,-0.766788,0.066627,0.229361,-0.062741,-0.026978,0.081693,-0.996292,-0.006255,0.057132,-0.341064,-11.465313,16.589912,-57.478432,,,,,,,
1508437070.430022,-0.021480,-0.081716,-0.769218,-0.058138,0.347786,-0.153958,-0.021406,0.081625,-0.996433,0.042113,0.036188,-0.523525,-11.277246,16.534048,-57.531708,,,,,,,
1508437070.450050,-0.014347,-0.084506,-0.773173,-0.150270,0.320229,-0.212136,-0.014295,0.084405,-0.996329,0.061368,0.049613,-0.623010,-11.014080,16.561352,-57.574821,,,,,,,
1508437070.470053,-0.012286,-0.086806,-0.777132,-0.063745,0.055943,-0.168915,-0.012240,0.086697,-0.996159,0.137972,0.080234,-0.856105,-10.675679,16.745762,-57.585220,,,,,,,
1508437070.490041,-0.005121,-0.083798,-0.777240,0.285532,0.530476,0.068124,-0.005103,0.083700,-0.996478,-0.094582,0.121241,-0.913617,-10.548949,16.714315,-57.617702,,,,,,,
1508437070.510065,0.007782,-0.074934,-0.777734,0.544587,0.670300,-0.103640,0.007760,0.074864,-0.997164,0.006842,0.129436,-1.024855,-9.895382,16.364388,-57.833702,,,,,,,
1508437070.530069,0.020349,-0.059617,-0.779426,0.900301,0.607197,-0.020887,0.020312,0.059582,-0.998017,-0.064074,0.127888,-0.962371,-8.982469,15.420593,-58.240616,,,,,,,
1508437070.550069,0.033799,-0.039007,-0.779314,1.102542,0.701780,0.065027,0.033767,0.038997,-0.998669,-0.062560,0.151982,-0.830051,-8.425874,14.583670,-58.538620,,,,,,,
1508437070.570080,0.048973,-0.012991,-0.776690,1.408912,0.805702,0.262688,0.048949,0.012991,-0.998717,-0.080230,0.231882,-0.662141,-7.566684,13.249924,-58.971462,,,,,,,
1508437070.590080,0.068011,0.023587,-0.771254,2.135383,1.048013,0.452696,0.067939,-0.023585,-0.997411,-0.108802,0.342081,-0.430705,-6.187112,10.977380,-59.595848,,,,,,,
1508437070.610067,0.087594,0.080445,-0.765016,3.223479,0.891937,0.592762,0.087200,-0.080358,-0.992945,-0.063350,0.398672,-0.104162,0.054268,11.185546,-50.171509,,,,,,,
1508437070.630093,0.096997,0.158204,-0.756205,4.149777,0.291325,0.920668,0.095635,-0.157545,-0.982870,-0.022180,0.275587,0.353292,1.560118,6.498885,-50.966953,,,,,,,
1508437070.650100,0.093077,0.247738,-0.745891,4.437015,-0.294503,0.859638,0.090105,-0.245211,-0.965273,-0.124132,0.300006,0.810168,1.815324,1.005014,-51.361408,,,,,,,
1508437070.670094,0.084580,0.331351,-0.739927,3.856027,-0.275657,0.563369,0.079884,-0.325321,-0.942223,-0.184330,0.219089,1.165826,1.542596,-2.366856,-51.325607,,,,,,,
1508437070.690112,0.083677,0.395359,-0.735406,2.772058,0.278843,0.408991,0.077132,-0.385140,-0.919629,-0.212005,0.202050,1.244077,1.274498,-6.177949,-51.014786,,,,,,,
1508437070.710116,0.096226,0.440538,-0.733341,1.978023,0.842874,0.246794,0.086904,-0.426426,-0.900338,-0.079214,0.328663,1.217049,1.765791,-9.437037,-50.498756,,,,,,,
1508437070.730123,0.109792,0.474201,-0.732073,1.489981,0.490445,0.226680,0.097481,-0.456627,-0.884301,0.094169,0.313530,1.001016,2.361629,-10.842913,-50.191174,,,,,,,
1508437070.750109,0.109545,0.498927,-0.729520,1.039457,-0.164670,0.281303,0.095998,-0.478484,-0.872833,0.130091,0.289992,0.897842,2.685752,-11.972977,-49.917274,,,,,,,
1508437070.770132,0.101747,0.513826,-0.724287,0.527116,-0.226347,0.292178,0.088455,-0.491513,-0.866366,-0.018372,0.158810,0.720874,2.346714,-13.442302,-49.559025,,,,,,,
1508437070.790115,0.099626,0.518486,-0.720564,0.049241,0.137402,0.099593,0.086390,-0.495566,-0.864264,-0.103434,0.135321,0.568640,2.180326,-13.745429,-49.483425,,,,,,,
1508437070.810142,0.105513,0.515380,-0.720615,-0.242958,0.345521,-0.063152,0.091637,-0.492866,-0.865266,-0.109307,0.114906,0.455888,2.257957,-13.786877,-49.468407,,,,,,,
1508437070.830146,0.111827,0.510403,-0.721891,-0.206223,0.191117,-0.095062,0.097371,-0.488529,-0.867098,-0.046559,0.063251,0.254457,2.751532,-13.453434,-49.535179,,,,,,,
1508437070.850149,0.114800,0.507050,-0.724978,-0.119395,0.042139,-0.183602,0.100136,-0.485601,-0.868427,-0.019173,0.050420,0.224902,2.871474,-13.311337,-49.566750,,,,,,,
1508437070.870158,0.117722,0.502835,-0.729850,-0.280284,0.060489,-0.283980,0.102912,-0.481912,-0.870155,-0.039023,0.025735,0.206596,2.937738,-13.211387,-49.589603,,,,,,,
1508437070.890161,0.125566,0.491887,-0.735946,-0.638700,0.340851,-0.342158,0.110388,-0.472290,-0.874503,-0.019400,0.007080,0.135459,3.232789,-12.680847,-49.709610,,,,,,,
1508437070.910158,0.136757,0.476551,-0.741281,-0.728904,0.466538,-0.325786,0.121141,-0.458718,-0.880286,0.051527,0.056771,0.135809,3.583986,-12.146450,-49.818859,,,,,,,
1508437070.930173,0.146576,0.464475,-0.746580,-0.437251,0.278958,-0.312621,0.130579,-0.447954,-0.884470,0.066336,0.100206,0.135507,3.984326,-11.589124,-49.921112,,,,,,,
1508437070.950177,0.149687,0.458247,-0.750649,-0.248454,-0.069732,-0.156291,0.133743,-0.442376,-0.886801,0.070527,0.064737,0.194830,4.421496,-10.940590,-50.030525,,,,,,,
1508437070.970174,0.147989,0.450692,-0.751308,-0.472996,-0.028312,-0.066088,0.132726,-0.435588,-0.890307,-0.008153,0.044170,0.212237,4.356881,-10.717810,-50.084393,,,,,,,
1508437070.990189,0.152594,0.437072,-0.752580,-0.759401,0.360951,-0.257055,0.137714,-0.423289,-0.895467,-0.061008,0.131037,0.222494,4.393542,-10.194523,-50.190319,,,,,,,
1508437071.010193,0.166282,0.421219,-0.758500,-0.670791,0.606272,-0.427022,0.151049,-0.408873,-0.900004,-0.028887,0.201430,0.242487,5.033459,-9.213568,-50.319721,,,,,,,
1508437071.030172,0.179303,0.411227,-0.765002,-0.287922,0.427014,-0.325544,0.163476,-0.399734,-0.901936,0.015754,0.201172,0.322239,5.530106,-8.738686,-50.352287,,,,,,,
1508437071.050205,0.184112,0.407992,-0.768284,-0.085798,0.015286,-0.076608,0.168047,-0.396766,-0.902406,-0.007403,0.129906,0.410173,5.958074,-8.445610,-50.353477,,,,,,,
1508437071.070209,0.180353,0.403173,-0.766444,-0.389667,-0.206479,0.060124,0.164995,-0.392339,-0.904901,-0.078081,0.068563,0.392084,6.001768,-8.394232,-50.356880,,,,,,,
1508437071.090200,0.179624,0.390841,-0.766046,-0.714746,0.154179,-0.203974,0.165187,-0.380966,-0.909713,-0.186610,0.181427,0.434478,5.771495,-7.873545,-50.467785,,,,,,,
1508437071.110191,0.187736,0.374114,-0.769070,-0.814208,0.382374,-0.309573,0.173726,-0.365448,-0.914477,-0.216313,0.194351,0.434588,5.906520,-7.318106,-50.535713,,,,,,,
1508437071.130211,0.192483,0.356948,-0.771602,-0.829859,-0.025769,-0.227935,0.179239,-0.349416,-0.919664,-0.007379,0.137975,0.421434,6.451163,-6.029368,-50.639206,,,,,,,
1508437071.150228,0.178700,0.338446,-0.767257,-1.040721,-0.959761,0.222952,0.167667,-0.332022,-0.928251,0.020260,-0.054529,0.442624,6.263969,-5.356119,-50.738293,,,,,,,
1508437071.170236,0.147955,0.314551,-0.752315,-1.469268,-1.414272,0.638258,0.140183,-0.309389,-0.940546,-0.132066,0.009249,0.485788,5.189013,-4.276115,-50.961639,,,,,,,
1508437071.190240,0.111538,0.275914,-0.731872,-2.524995,-1.505711,0.685161,0.107097,-0.272426,-0.956198,-0.198940,-0.071110,0.277166,4.159107,-5.622095,-52.945759,,,,,,,
1508437071.210226,0.083192,0.207668,-0.720636,-3.931945,-1.065822,-0.179602,0.081310,-0.206179,-0.975130,-0.220562,-0.088469,-0.057783,2.646510,-2.359088,-53.287804,,,,,,,
1508437071.230242,0.070683,0.122274,-0.729744,-4.254075,-0.492092,-0.990606,0.070097,-0.121970,-0.990055,-0.254636,0.069342,-0.458843,1.919596,0.939710,-53.362827,,,,,,,
1508437071.250249,0.068564,0.040830,-0.743206,-3.687969,0.008148,-0.851135,0.068454,-0.040818,-0.996819,-0.023044,0.147325,-1.129387,1.357000,6.538055,-52.986523,,,,,,,
1508437071.270245,0.068800,-0.009568,-0.751866,-1.693137,-0.059081,-0.508308,0.068743,0.009568,-0.997589,0.230589,0.527588,-1.451096,1.294066,9.116815,-52.605782,,,,,,,
1508437071.290266,0.062894,-0.023322,-0.760071,-0.216048,-0.414437,-0.376307,0.062835,0.023320,-0.997751,0.400452,0.320217,-1.277044,1.074418,10.673866,-52.317043,,,,,,,
1508437071.310270,0.054299,-0.022859,-0.762221,0.077384,-0.384478,0.053825,0.054258,0.022858,-0.998265,0.293581,-0.013595,-0.854564,0.457839,10.841809,-52.291538,,,,,,,
1508437071.330258,0.050109,-0.023021,-0.758395,-0.076961,-0.124836,0.211186,0.050075,0.023019,-0.998480,0.186162,-0.028847,-0.522958,0.234593,10.808186,-52.299973,,,,,,,
1508437071.350282,0.047900,-0.024181,-0.754835,-0.015975,-0.165253,0.172274,0.047867,0.024179,-0.998561,0.118194,-0.023797,-0.358983,0.151363,10.888031,-52.283714,,,,,,,
1508437071.370285,0.042580,-0.022303,-0.750627,0.131278,-0.315617,0.237256,0.042556,0.022301,-0.998845,0.018281,-0.088616,-0.196422,-0.071135,10.854671,-52.290825,,,,,,,
1508437071.390279,0.036524,-0.019876,-0.746476,0.082747,-0.266460,0.165137,0.036508,0.019874,-0.999136,-0.082041,-0.138634,-0.049570,-0.285766,10.752254,-52.311245,,,,,,,
1508437071.410297,0.035014,-0.020001,-0.745594,-0.062155,0.035420,-0.026801,0.035000,0.020000,-0.999187,-0.136150,-0.119456,0.037822,-0.488682,10.688771,-52.322754,,,,,,,
1508437071.430301,0.036971,-0.022701,-0.747947,-0.155939,0.114530,-0.168654,0.036953,0.022699,-0.999059,-0.066967,-0.088418,0.021047,-0.487043,10.711956,-52.318027,,,,,,,
1508437071.450307,0.039151,-0.025748,-0.751449,-0.119493,0.092153,-0.169423,0.039128,0.025745,-0.998902,-0.038136,-0.032749,-0.010100,-0.364605,10.929831,-52.273945,,,,,,,
1508437071.470312,0.039545,-0.026402,-0.754478,0.027464,-0.009118,-0.151004,0.039521,0.026399,-0.998870,-0.018280,-0.003419,-0.039658,-0.322007,11.031508,-52.252857,,,,,,,
1508437071.490319,0.038562,-0.025682,-0.757590,0.027546,-0.040004,-0.153755,0.038540,0.025680,-0.998927,-0.000896,-0.017882,-0.039220,-0.400541,10.987769,-52.261532,,,,,,,
1508437071.510305,0.038831,-0.025801,-0.760569,-0.009053,0.047329,-0.141132,0.038808,0.025798,-0.998914,0.012996,0.010686,-0.026035,-0.439195,10.975871,-52.263721,,,,,,,
1508437071.530322,0.039382,-0.025620,-0.763271,0.044574,0.017467,-0.130076,0.039359,0.025617,-0.998897,0.057076,0.043718,-0.028676,-0.427693,10.979621,-52.263031,,,,,,,
1508437071.550332,0.039092,-0.023153,-0.764657,0.170320,-0.041384,-0.014157,0.039072,0.023151,-0.998968,0.049124,0.045590,-0.010630,-0.447036,10.875316,-52.284672,,,,,,,
1508437071.570333,0.037468,-0.019752,-0.764190,0.136425,-0.095816,0.043172,0.037452,0.019751,-0.999103,0.081018,0.011637,0.032596,-0.494066,10.733489,-52.313549,,,,,,,
1508437071.590344,0.034989,-0.018710,-0.762868,-0.000273,-0.140607,0.085510,0.034976,0.018709,-0.999213,0.097135,-0.008119,0.058524,-0.590833,10.610474,-52.337635,,,,,,,
1508437071.610348,0.032681,-0.019508,-0.760633,-0.048386,-0.105530,0.129822,0.032669,0.019506,-0.999276,0.094238,0.014154,0.066155,-0.733188,10.637078,-52.330437,,,,,,,
1508437071.630355,0.030226,-0.019753,-0.757487,-0.002204,-0.118406,0.170493,0.030215,0.019752,-0.999348,0.119245,0.023522,0.047719,-0.830296,10.669472,-52.322388,,,,,,,
1508437071.650359,0.029009,-0.019336,-0.752602,0.008658,-0.043013,0.288818,0.029000,0.019335,-0.999392,0.110969,-0.005464,0.046801,-0.872116,10.665614,-52.322491,,,,,,,
1508437071.670363,0.028680,-0.019798,-0.746918,-0.062104,-0.012075,0.274560,0.028671,0.019797,-0.999393,0.165024,-0.012351,0.061435,-0.842645,10.680885,-52.319859,,,,,,,
1508437071.690359,0.053859,-0.016857,-0.740148,-0.172064,-0.022739,0.337705,0.053825,0.016856,-0.998408,0.168404,-0.037745,0.053248,-0.802831,10.753872,-52.305534,,,,,,,
1508437071.710375,0.053281,-0.020499,-0.733288,-0.196780,-0.010972,0.316227,0.053245,0.020498,-0.998371,0.200478,-0.010686,0.039509,0.565816,10.662157,-52.327404,,,,,,,
1508437071.730378,0.055015,-0.023044,-0.726568,-0.114708,0.139131,0.353442,0.054972,0.023042,-0.998222,0.201787,-0.004533,0.016761,0.685879,10.884580,-52.280155,,,,,,,
1508437071.750373,0.058660,-0.024247,-0.718458,-0.079217,0.162405,0.429851,0.058609,0.024245,-0.997987,0.306045,-0.017577,0.008698,0.874720,10.956222,-52.262367,,,,,,,
1508437071.770390,0.061058,-0.025963,-0.708313,-0.147078,0.089735,0.555713,0.060999,0.025960,-0.997800,0.361410,-0.052419,0.013196,1.125497,11.038665,-52.240215,,,,,,,
1508437071.790393,0.063004,-0.029117,-0.694338,-0.219106,0.069097,0.763995,0.062936,0.029113,-0.997593,0.392051,-0.063659,0.013538,1.232594,11.103078,-52.224148,,,,,,,
1508437071.810384,0.062908,-0.031618,-0.677395,-0.139174,-0.080245,0.858869,0.062835,0.031612,-0.997523,0.429612,-0.019207,-0.004140,1.566222,11.388178,-52.153767,,,,,,,
1508437071.830405,0.060472,-0.032531,-0.657669,-0.099583,-0.197875,1.081270,0.060403,0.032525,-0.997644,0.384284,-0.063211,-0.033560,1.669536,11.498622,-52.126320,,,,,,,
1508437071.850409,0.057788,-0.033815,-0.634489,-0.154133,-0.133014,1.147547,0.057723,0.033809,-0.997760,0.285127,-0.076030,-0.075101,1.747295,11.600259,-52.101246,,,,,,,
1508437071.870412,0.055240,-0.036147,-0.612720,-0.184226,-0.228623,1.019934,0.055176,0.036139,-0.997822,0.224121,-0.027930,-0.095302,1.844584,11.701045,-52.075356,,,,,,,
1508437071.890420,0.048079,-0.039859,-0.592981,-0.266936,-0.492764,1.012097,0.048023,0.039849,-0.998051,0.200421,-0.048500,-0.096172,1.803447,11.868631,-52.038857,,,,,,,
1508437071.910424,0.038845,-0.043119,-0.568511,-0.146268,-0.445451,1.308819,0.038799,0.043106,-0.998317,-0.148251,-0.001388,-0.133580,1.476434,12.145861,-51.985165,,,,,,,
1508437071.930410,0.034306,-0.040710,-0.545348,0.216818,-0.183924,0.990194,0.034271,0.040698,-0.998584,-0.329254,0.313366,-0.112302,1.422120,12.166374,-51.981880,,,,,,,
1508437071.950414,0.035631,-0.033585,-0.530144,0.356250,0.142528,0.727311,0.035604,0.033579,-0.998802,-0.368489,0.318716,-0.070611,1.464392,11.980598,-52.023842,,,,,,,
1508437071.970421,0.038909,-0.027436,-0.514596,0.219592,0.106219,0.789785,0.038884,0.027433,-0.998867,-0.374638,0.118319,-0.024158,1.913027,11.439199,-52.131031,,,,,,,
1508437071.990438,0.041822,-0.023787,-0.501496,0.135251,0.188653,0.594586,0.041798,0.023785,-0.998843,-0.451908,0.197162,0.039019,2.116885,11.269472,-52.160110,,,,,,,
1508437072.010452,0.048478,-0.020564,-0.490606,0.146151,0.391212,0.510601,0.048449,0.020562,-0.998614,-0.473086,0.184684,0.082278,-0.112134,12.577663,-49.792419,,,,,,,
1508437072.030444,0.056614,-0.017250,-0.482709,0.126510,0.352109,0.357636,0.056575,0.017249,-0.998249,-0.343044,0.144266,0.085652,0.525495,12.392097,-49.836281,,,,,,,
1508437072.050436,0.060510,-0.015167,-0.475412,0.072852,0.080419,0.392539,0.060466,0.015167,-0.998055,-0.263606,0.046097,0.059884,-1.561103,13.571251,-52.416817,,,,,,,
1508437072.070467,0.060037,-0.012790,-0.467719,0.120198,-0.045224,0.359138,0.059996,0.012790,-0.998117,-0.282088,0.068982,0.060113,-1.461558,13.519173,-52.433147,,,,,,,
1508437072.090471,0.062035,-0.010228,-0.463811,0.088699,0.191782,0.100878,0.061992,0.010227,-0.998024,-0.320262,0.076381,0.108437,-3.082316,14.738655,-55.804543,,,,,,,
1508437072.110478,0.066402,-0.010332,-0.464069,-0.063741,0.176173,-0.065124,0.066350,0.010331,-0.997743,-0.199422,0.009047,0.082841,-2.825722,14.702655,-55.827618,,,,,,,
1508437072.130483,0.068076,-0.013167,-0.466338,-0.160016,0.078354,-0.144672,0.068017,0.013167,-0.997597,-0.160501,0.002458,0.049523,-2.742104,14.779667,-55.811451,,,,,,,
1508437072.150486,0.071432,-0.015960,-0.469794,-0.101871,0.236144,-0.219513,0.071362,0.015959,-0.997323,-0.181515,0.089891,0.039223,-3.375615,16.460325,-59.996323,,,,,,,
1508437072.170466,0.076049,-0.018081,-0.474930,-0.082644,0.198944,-0.263772,0.075964,0.018080,-0.996947,-0.063375,0.051775,0.007765,-3.211987,16.532948,-59.985336,,,,,,,
1508437072.190478,0.078611,-0.019961,-0.478529,-0.080815,0.087894,-0.131008,0.078514,0.019959,-0.996713,-0.031059,0.008010,-0.028479,-3.069959,16.614632,-59.970203,,,,,,,
1508437072.210502,0.079060,-0.021074,-0.480448,-0.019533,0.011144,-0.111814,0.078960,0.021072,-0.996655,-0.064785,0.058533,-0.035007,-3.030231,16.705843,-59.946880,,,,,,,
1508437072.230489,0.079490,-0.021005,-0.483853,0.030420,0.037923,-0.192213,0.079389,0.021003,-0.996622,-0.094831,0.066887,-0.007940,-3.049845,16.701508,-59.947094,,,,,,,
1508437072.250513,0.080861,-0.020875,-0.487738,0.004592,0.086932,-0.192904,0.080755,0.020873,-0.996515,-0.081121,0.032014,0.006174,-3.057696,16.654346,-59.959812,,,,,,,
1508437072.270517,0.082336,-0.021650,-0.491400,-0.040227,0.057094,-0.181775,0.082224,0.021649,-0.996379,-0.070184,-0.016919,0.000316,-3.010665,16.649099,-59.963650,,,,,,,
1508437072.290517,0.081852,-0.023045,-0.495304,-0.050713,-0.040859,-0.204871,0.081739,0.023043,-0.996387,-0.081907,0.014753,-0.013394,-3.041551,16.684643,-59.952213,,,,,,,
1508437072.310529,0.080161,-0.023357,-0.499151,0.027594,-0.102668,-0.201901,0.080053,0.023355,-0.996517,-0.110220,0.031225,-0.027546,-3.168865,16.716389,-59.936771,,,,,,,
1508437072.330535,0.078457,-0.022976,-0.504371,0.036800,-0.055624,-0.290027,0.078356,0.022974,-0.996661,-0.183351,0.047812,-0.030073,-3.400011,16.649155,-59.942818,,,,,,,
1508437072.350515,0.077815,-0.023232,-0.510792,0.003389,-0.014000,-0.325793,0.077716,0.023230,-0.996705,-0.211047,0.075128,-0.031402,-3.512545,16.610796,-59.946968,,,,,,,
1508437072.370517,0.076466,-0.023102,-0.517109,0.063599,-0.100318,-0.316056,0.076371,0.023100,-0.996812,-0.219666,0.098940,-0.040832,-3.609353,16.588818,-59.947308,,,,,,,
1508437072.390548,0.072992,-0.021202,-0.524416,0.152456,-0.193936,-0.388340,0.072911,0.021201,-0.997113,-0.288121,0.143671,-0.041461,-3.979418,16.415224,-59.971661,,,,,,,
