timestamp(unix),attitude_roll(radians),attitude_pitch(radians),attitude_yaw(radians),rotation_rate_x(radians/s),rotation_rate_y(radians/s),rotation_rate_z(radians/s),gravity_x(G),gravity_y(G),gravity_z(G),user_acc_x(G),user_acc_y(G),user_acc_z(G),magnetic_field_x(microteslas),magnetic_field_y(microteslas),magnetic_field_z(microteslas),latitude(degree),longitude(degree),altitude(meter),speed(m/s),course(degree),timestamp(unix),User Mark
1508076504.785124,-0.037322,0.200512,1.845437,-0.075800,0.079726,-0.076913,-0.036565,-0.199171,-0.979282,0.006536,-0.017565,0.015446,19.234394,7.276566,-68.376343,,,,,,,
1508076504.805153,-0.034839,0.199998,1.843985,-0.057581,0.098847,-0.051613,-0.034137,-0.198668,-0.979472,0.009739,-0.023149,0.014827,19.366632,7.350896,-68.331047,,,,,,,
1508076504.825158,-0.033266,0.198521,1.843015,-0.091672,0.048788,-0.050862,-0.032606,-0.197220,-0.979817,0.014677,-0.026245,0.006688,19.427345,7.400348,-68.308472,,,,,,,
1508076504.845152,-0.032524,0.196769,1.841446,-0.073473,0.011563,-0.082325,-0.031891,-0.195501,-0.980185,0.009796,0.002554,-0.009378,19.503710,7.614878,-68.263115,,,,,,,
1508076504.865171,-0.031464,0.195784,1.840099,-0.024072,-0.005569,-0.042661,-0.030858,-0.194536,-0.980410,0.020878,0.004899,-0.015379,19.552589,7.730835,-68.236092,,,,,,,
1508076504.885155,-0.031785,0.195422,1.839206,-0.022956,-0.026864,-0.047684,-0.031175,-0.194180,-0.980470,0.021928,0.013959,-0.011076,19.541246,7.754167,-68.236702,,,,,,,
1508076504.905180,-0.031342,0.194759,1.838461,-0.036984,0.045515,-0.017801,-0.030745,-0.193530,-0.980613,0.022230,0.011371,-0.012552,19.508537,7.832967,-68.237061,,,,,,,
1508076504.925165,-0.029013,0.193552,1.838415,-0.039143,0.085935,0.013603,-0.028467,-0.192346,-0.980914,0.023599,0.002160,-0.005231,19.651733,7.917848,-68.186150,,,,,,,
1508076504.945183,-0.027628,0.192965,1.838907,-0.024023,0.060327,0.033157,-0.027112,-0.191770,-0.981065,0.017285,-0.006640,0.003770,19.651733,7.917848,-68.186150,,,,,,,
1508076504.965178,-0.026357,0.192881,1.839423,0.011405,0.013465,0.026345,-0.025865,-0.191687,-0.981115,0.009676,-0.001413,0.012106,19.805836,7.962523,-68.136345,,,,,,,
1508076504.985209,-0.026468,0.193350,1.839943,-0.005615,-0.019553,0.026836,-0.025972,-0.192147,-0.981022,0.006822,-0.005668,0.008366,19.883093,7.934023,-68.117165,,,,,,,
1508076505.005211,-0.026685,0.192713,1.840219,-0.060328,0.011383,0.011501,-0.026188,-0.191522,-0.981139,-0.008358,-0.005576,0.005599,19.874447,7.912697,-68.122169,,,,,,,
1508076505.025206,-0.026741,0.191736,1.840852,-0.039021,0.063533,0.029923,-0.026248,-0.190563,-0.981324,-0.013303,-0.002674,0.007401,19.896555,7.992829,-68.106361,,,,,,,
1508076505.045228,-0.025954,0.191777,1.841555,-0.001548,0.060320,0.033140,-0.025476,-0.190603,-0.981336,-0.012626,-0.010233,0.006758,19.935881,8.010349,-68.092796,,,,,,,
1508076505.065232,-0.025804,0.192687,1.842210,0.047773,0.017714,0.024125,-0.025323,-0.191497,-0.981166,-0.012518,-0.007127,0.009380,19.975075,7.976013,-68.085342,,,,,,,
1508076505.085234,-0.027405,0.194398,1.842921,0.002841,-0.002487,0.007392,-0.026885,-0.193176,-0.980796,-0.021531,-0.001602,0.013724,19.928337,7.789559,-68.120621,,,,,,,
1508076505.105246,-0.027792,0.193933,1.842412,-0.051994,0.027457,-0.046315,-0.027268,-0.192719,-0.980875,-0.023834,-0.004592,0.014948,19.884359,7.794925,-68.132858,,,,,,,
1508076505.125237,-0.027017,0.193046,1.841704,-0.063866,0.072179,-0.037358,-0.026512,-0.191849,-0.981066,-0.018868,-0.005005,0.000720,19.862116,7.843861,-68.133728,,,,,,,
1508076505.145248,-0.026408,0.192575,1.840875,-0.017810,0.047683,-0.046633,-0.025917,-0.191387,-0.981173,-0.017769,-0.001759,0.000734,19.917826,7.945033,-68.105736,,,,,,,
1508076505.165265,-0.026146,0.192189,1.839830,0.013248,0.010440,-0.071707,-0.025662,-0.191008,-0.981253,-0.014957,0.016615,-0.000970,19.929298,7.956325,-68.101059,,,,,,,
1508076505.185253,-0.025771,0.192305,1.838504,-0.016764,0.031742,-0.067728,-0.025294,-0.191122,-0.981240,-0.010885,0.003210,-0.002356,19.909197,7.993544,-68.102577,,,,,,,
1508076505.205260,-0.024717,0.191028,1.836707,-0.072549,0.049918,-0.094607,-0.024265,-0.189868,-0.981510,-0.000699,-0.006070,-0.001889,19.926332,8.103806,-68.084534,,,,,,,
1508076505.225284,-0.022904,0.189344,1.835158,-0.083320,0.111635,-0.060305,-0.022492,-0.188215,-0.981870,-0.008788,-0.002810,-0.001757,19.978682,8.214050,-68.055977,,,,,,,
1508076505.245289,-0.020229,0.188712,1.834137,0.053563,0.158435,-0.042959,-0.019868,-0.187594,-0.982046,-0.014845,0.021700,0.005224,20.069630,8.310492,-68.017494,,,,,,,
1508076505.265288,-0.017617,0.191386,1.833772,0.191791,0.122129,-0.016945,-0.017294,-0.190219,-0.981589,0.009146,-0.016034,0.031821,20.328045,8.247594,-67.948380,,,,,,,
1508076505.285301,-0.015935,0.196139,1.833173,0.169477,0.029535,-0.053973,-0.015629,-0.194884,-0.980702,0.016591,-0.020769,0.034474,20.453642,7.918164,-67.949875,,,,,,,
1508076505.305291,-0.014944,0.197886,1.831734,0.029206,0.060463,-0.054316,-0.014652,-0.196597,-0.980375,0.008289,-0.046384,0.058561,20.465036,7.826001,-67.957123,,,,,,,
1508076505.325285,-0.013010,0.196950,1.831323,-0.075669,0.103020,-0.018606,-0.012758,-0.195680,-0.980585,-0.015150,-0.011092,0.038996,20.587111,7.822617,-67.920631,,,,,,,
1508076505.345302,-0.012000,0.196132,1.830541,0.003492,0.068986,-0.056558,-0.011770,-0.194877,-0.980757,-0.025492,0.008994,0.035231,20.678007,7.901196,-67.883911,,,,,,,
1508076505.365319,-0.011005,0.198290,1.829805,0.155706,0.024126,-0.015503,-0.010789,-0.196993,-0.980346,-0.019088,-0.004637,0.052398,20.690485,7.911817,-67.878868,,,,,,,
1508076505.385324,-0.010977,0.201600,1.829864,0.152643,0.001707,0.009350,-0.010754,-0.200237,-0.979688,-0.004413,-0.033909,0.044996,20.727467,7.619243,-67.901054,,,,,,,
1508076505.405340,-0.011836,0.203751,1.830454,0.018992,-0.016401,0.024641,-0.011591,-0.202344,-0.979246,-0.014761,-0.019580,0.037061,20.724241,7.495817,-67.915779,,,,,,,
1508076505.425347,-0.011049,0.203578,1.830634,-0.019913,0.086984,0.000779,-0.010821,-0.202175,-0.979290,-0.045759,0.004253,0.046383,20.682407,7.405572,-67.938431,,,,,,,
1508076505.445341,-0.008190,0.202730,1.830218,-0.054486,0.158438,-0.036486,-0.008022,-0.201344,-0.979488,-0.016804,-0.003750,0.028926,20.872494,7.460187,-67.874290,,,,,,,
1508076505.465358,-0.005305,0.201943,1.829325,-0.007283,0.114756,-0.039087,-0.005197,-0.200573,-0.979665,-0.003348,0.005078,0.018209,21.026104,7.528420,-67.819321,,,,,,,
1508076505.485344,-0.004079,0.203569,1.829571,0.128068,0.036780,0.051512,-0.003995,-0.202166,-0.979343,0.002072,-0.009809,0.014881,21.132231,7.547245,-67.784233,,,,,,,
1508076505.505345,-0.005291,0.206811,1.831174,0.164912,-0.107059,0.063167,-0.005178,-0.205340,-0.978677,0.012472,-0.002302,0.005227,21.175478,7.248720,-67.803314,,,,,,,
1508076505.525376,-0.007296,0.209636,1.831114,0.062873,-0.074896,-0.026793,-0.007136,-0.208104,-0.978081,0.008372,-0.016398,0.017525,21.052958,7.090615,-67.858162,,,,,,,
1508076505.545362,-0.006743,0.209862,1.831290,-0.009030,0.068796,0.039421,-0.006595,-0.208325,-0.978037,0.002369,-0.013843,0.017573,20.994858,6.985288,-67.887085,,,,,,,
1508076505.565377,-0.005697,0.210420,1.832184,0.063778,0.052801,0.038532,-0.005572,-0.208871,-0.977927,0.007403,-0.003348,0.022498,21.115620,6.946155,-67.853638,,,,,,,
1508076505.585395,-0.005784,0.213425,1.833431,0.156163,-0.026126,0.076927,-0.005653,-0.211808,-0.977295,0.000205,-0.008926,0.018082,21.159204,6.839599,-67.850883,,,,,,,
1508076505.605387,-0.006950,0.216975,1.834773,0.172137,-0.029272,0.050303,-0.006787,-0.215276,-0.976530,0.008450,-0.007090,0.032148,21.125830,6.553793,-67.889481,,,,,,,
1508076505.625407,-0.006558,0.220008,1.835469,0.090667,0.002740,0.033905,-0.006400,-0.218238,-0.975875,0.017920,-0.011789,0.025847,21.104656,6.275266,-67.922371,,,,,,,
1508076505.645413,-0.006008,0.221673,1.836128,0.055263,0.043214,0.041874,-0.005860,-0.219862,-0.975513,0.008927,-0.005327,0.024021,21.148968,6.146646,-67.920357,,,,,,,
1508076505.665398,-0.005252,0.223489,1.837515,0.137727,0.058036,0.076786,-0.005121,-0.221633,-0.975117,-0.008490,0.010726,0.007725,21.215694,6.048428,-67.908356,,,,,,,
1508076505.685423,-0.005268,0.227864,1.839420,0.280195,0.028133,0.096306,-0.005132,-0.225897,-0.974138,-0.000255,-0.006342,0.040498,21.312035,5.694879,-67.908760,,,,,,,
1508076505.705406,-0.005826,0.234132,1.841534,0.238631,-0.032566,0.091886,-0.005667,-0.231998,-0.972700,0.002646,-0.015057,0.025419,21.328123,5.363123,-67.930717,,,,,,,
1508076505.725426,-0.006483,0.238170,1.842651,0.089609,0.002738,0.034972,-0.006300,-0.235925,-0.971751,-0.014773,-0.028312,0.023204,21.312126,5.040093,-67.960464,,,,,,,
1508076505.745421,-0.007456,0.238994,1.843477,0.022027,0.033689,0.011117,-0.007244,-0.236725,-0.971550,-0.003712,0.013062,-0.003319,21.261511,4.748906,-67.997284,,,,,,,
1508076505.765451,-0.006335,0.239847,1.842612,0.057200,0.006122,-0.056754,-0.006153,-0.237554,-0.971355,0.014805,-0.011058,-0.004628,21.278294,4.736805,-67.992874,,,,,,,
1508076505.785454,-0.005799,0.241940,1.841824,0.074637,-0.044047,-0.005924,-0.005630,-0.239587,-0.970859,0.020217,-0.019416,-0.000150,21.278294,4.736805,-67.992874,,,,,,,
1508076505.805449,-0.007079,0.242160,1.842219,-0.029073,-0.033441,0.030254,-0.006873,-0.239800,-0.970798,0.000632,-0.022743,0.007541,21.259617,4.550273,-68.011459,,,,,,,
1508076505.825469,-0.007338,0.241253,1.843594,-0.046104,-0.005846,0.083181,-0.007126,-0.238919,-0.971013,-0.004089,0.000669,-0.014796,21.253922,4.575027,-68.011574,,,,,,,
1508076505.845478,-0.008482,0.239724,1.843819,-0.014251,-0.067376,-0.048171,-0.008240,-0.237434,-0.971369,0.000915,0.032478,-0.021399,21.250715,4.596134,-68.011154,,,,,,,
1508076505.865477,-0.009540,0.238704,1.841882,-0.077554,-0.066193,-0.099323,-0.009269,-0.236443,-0.971601,0.014823,0.003442,-0.009036,21.099600,4.761696,-68.046806,,,,,,,
1508076505.885488,-0.009783,0.236889,1.840166,-0.083998,-0.022581,-0.066896,-0.009510,-0.234680,-0.972026,0.023243,0.009826,-0.007542,21.042952,4.881650,-68.055840,,,,,,,
1508076505.905479,-0.009631,0.235531,1.839818,-0.051494,-0.045163,0.036838,-0.009365,-0.233360,-0.972345,0.024227,-0.002084,-0.001364,21.013617,4.987237,-68.057251,,,,,,,
1508076505.925474,-0.011167,0.233699,1.841460,-0.044744,-0.097470,0.091973,-0.010863,-0.231577,-0.972756,-0.009049,0.050867,-0.025779,20.969734,5.092044,-68.063026,,,,,,,
1508076505.945506,-0.013584,0.233591,1.842104,0.011628,-0.102591,-0.017824,-0.013215,-0.231472,-0.972752,-0.027740,0.063015,-0.018902,20.878572,5.146361,-68.086960,,,,,,,
1508076505.965508,-0.013434,0.234105,1.840314,0.026941,0.045658,-0.110622,-0.013067,-0.231973,-0.972634,-0.008173,0.023614,0.007821,20.763201,5.139606,-68.122742,,,,,,,
1508076505.985497,-0.010779,0.234103,1.837930,-0.050158,0.074423,-0.101385,-0.010485,-0.231970,-0.972666,0.030230,-0.019067,0.004130,20.885651,5.166357,-68.083282,,,,,,,
1508076506.005526,-0.009011,0.231315,1.836051,-0.190238,0.063765,-0.080866,-0.008771,-0.229257,-0.973326,0.024472,-0.014929,-0.003099,20.970140,5.349489,-68.043152,,,,,,,
1508076506.025504,-0.008081,0.227122,1.834501,-0.188971,-0.008661,-0.086214,-0.007874,-0.225174,-0.974287,0.013413,0.049515,-0.032168,21.021242,5.586019,-68.008369,,,,,,,
1508076506.045537,-0.007879,0.222063,1.831524,-0.088433,-0.078838,-0.160980,-0.007686,-0.220242,-0.975415,0.031337,0.064588,-0.037509,21.004084,6.098323,-67.969650,,,,,,,
1508076506.065544,-0.008220,0.220228,1.828074,-0.106768,-0.029834,-0.160610,-0.008021,-0.218452,-0.975815,0.029002,0.020058,-0.029572,20.892048,6.288886,-67.986809,,,,,,,
1508076506.085534,-0.006949,0.216560,1.825014,-0.182787,0.010620,-0.136616,-0.006787,-0.214871,-0.976619,0.018658,0.010755,-0.031148,20.904951,6.510061,-67.962021,,,,,,,
1508076506.105524,-0.004487,0.211819,1.821582,-0.256088,0.134311,-0.189537,-0.004387,-0.210239,-0.977640,-0.000953,0.051364,-0.037435,20.898903,6.654634,-67.949883,,,,,,,
1508076506.125545,-0.000299,0.207189,1.816982,-0.204964,0.162091,-0.237962,-0.000293,-0.205710,-0.978613,0.011539,0.050024,-0.046915,21.086330,7.261008,-67.829781,,,,,,,
1508076506.145569,0.004070,0.203138,1.812229,-0.062387,0.106604,-0.206342,0.003986,-0.201744,-0.979430,0.031201,0.027580,-0.058808,21.314453,7.729819,-67.706558,,,,,,,
1508076506.165556,0.006033,0.202825,1.808779,-0.007427,0.036174,-0.150980,0.005909,-0.201437,-0.979484,0.010921,0.006201,-0.034249,21.427986,7.903683,-67.650627,,,,,,,
1508076506.185581,0.006779,0.201642,1.805729,-0.100444,0.002124,-0.157881,0.006641,-0.200278,-0.979717,0.009335,0.004462,-0.016423,21.431635,7.974549,-67.641159,,,,,,,
1508076506.205587,0.008583,0.198279,1.801964,-0.131872,0.089564,-0.199645,0.008414,-0.196983,-0.980371,-0.010947,0.024772,-0.004920,21.425594,8.237070,-67.611603,,,,,,,
1508076506.225584,0.012232,0.195702,1.798190,-0.143744,0.156617,-0.169686,0.011998,-0.194455,-0.980838,0.012111,-0.033786,-0.055646,21.579498,8.555271,-67.523087,,,,,,,
1508076506.245600,0.015414,0.192554,1.794653,-0.138328,0.115107,-0.187215,0.015128,-0.191366,-0.981402,0.015618,-0.019907,-0.062360,21.700369,8.768246,-67.456993,,,,,,,
1508076506.265585,0.018279,0.190274,1.791167,-0.071718,0.064952,-0.150284,0.017948,-0.189128,-0.981788,0.010631,0.005733,-0.054329,21.843046,9.045317,-67.374313,,,,,,,
1508076506.285597,0.019444,0.189346,1.788349,-0.033062,0.034024,-0.137069,0.019095,-0.188217,-0.981942,0.017053,0.006576,-0.013114,21.891996,9.226438,-67.333847,,,,,,,
1508076506.305618,0.020837,0.188896,1.786029,-0.001938,0.041403,-0.102011,0.020465,-0.187775,-0.981999,0.008100,-0.001312,-0.025646,21.920040,9.299749,-67.314644,,,,,,,
1508076506.325615,0.022083,0.189586,1.784087,0.037761,0.020056,-0.088941,0.021686,-0.188452,-0.981843,0.007794,-0.019434,-0.010299,21.974287,9.328787,-67.292938,,,,,,,
1508076506.345610,0.023028,0.189534,1.782003,-0.037288,0.037177,-0.117923,0.022613,-0.188401,-0.981832,0.013031,0.002854,0.010244,21.992924,9.342237,-67.284981,,,,,,,
1508076506.365627,0.025873,0.187226,1.778772,-0.116755,0.086286,-0.160162,0.025418,-0.186134,-0.982196,0.023273,0.008293,0.015368,22.018417,9.454443,-67.260963,,,,,,,
1508076506.385643,0.027989,0.185454,1.776714,-0.060698,0.055182,-0.060587,0.027505,-0.184393,-0.982468,0.063971,-0.034128,-0.022919,22.175890,9.687300,-67.176041,,,,,,,
1508076506.405639,0.027258,0.184443,1.776421,-0.051526,-0.090868,-0.005161,0.026793,-0.183399,-0.982673,0.022951,-0.024548,-0.018074,22.191507,9.806574,-67.153572,,,,,,,
1508076506.425656,0.024648,0.184103,1.776478,-0.063279,-0.088749,0.001215,0.024229,-0.183064,-0.982802,-0.008192,-0.020427,-0.005860,22.160730,9.824457,-67.161118,,,,,,,
1508076506.445662,0.024820,0.182720,1.775946,-0.059638,0.057314,-0.062751,0.024404,-0.181704,-0.983050,-0.047811,0.019122,0.004306,21.962994,9.896482,-67.215477,,,,,,,
1508076506.465666,0.027294,0.182007,1.773253,-0.013039,0.118208,-0.156437,0.026839,-0.181003,-0.983116,0.013825,0.014393,-0.006233,22.060862,10.031028,-67.163467,,,,,,,
1508076506.485648,0.030912,0.182454,1.770570,0.077065,0.110610,-0.095616,0.030394,-0.181443,-0.982932,0.014268,0.005281,-0.009363,22.165468,10.074948,-67.122437,,,,,,,
1508076506.505680,0.032015,0.184101,1.769085,0.067809,0.014686,-0.067561,0.031469,-0.183063,-0.982597,-0.000631,-0.007428,0.003609,22.311827,10.029642,-67.080719,,,,,,,
1508076506.525664,0.033349,0.184452,1.766907,-0.005404,0.089411,-0.137899,0.032778,-0.183408,-0.982490,-0.043306,0.034223,0.041237,22.336582,9.995679,-67.077553,,,,,,,
1508076506.545693,0.036211,0.182920,1.763564,-0.015464,0.180051,-0.186123,0.035599,-0.181902,-0.982672,-0.025009,0.031267,0.036398,22.439333,10.059843,-67.033646,,,,,,,
1508076506.565699,0.040017,0.182676,1.760121,-0.010909,0.128842,-0.148063,0.039341,-0.181662,-0.982574,0.050686,-0.004098,0.037124,22.576437,10.227227,-66.962250,,,,,,,
1508076506.585705,0.041508,0.181301,1.758201,-0.091639,0.013661,-0.069558,0.040816,-0.180309,-0.982763,0.039338,-0.011417,0.008611,22.710629,10.359270,-66.896538,,,,,,,
1508076506.605711,0.041922,0.179356,1.757248,-0.090227,-0.057787,-0.029071,0.041237,-0.178396,-0.983094,0.021980,0.002584,0.011827,22.692225,10.472760,-66.885117,,,,,,,
1508076506.625695,0.040431,0.177048,1.756878,-0.132942,-0.084412,-0.026520,0.039789,-0.176125,-0.983563,0.016974,0.001228,0.007443,22.667381,10.621596,-66.870064,,,,,,,
1508076506.645724,0.039637,0.174420,1.756304,-0.108566,-0.014096,-0.035022,0.039025,-0.173537,-0.984054,-0.010781,0.040343,-0.018433,22.547785,10.860869,-66.872063,,,,,,,
1508076506.665730,0.039637,0.172189,1.755917,0.004752,0.036974,-0.019853,0.039041,-0.171339,-0.984438,-0.012643,0.029692,-0.025709,22.547779,10.951364,-66.857307,,,,,,,
1508076506.685723,0.039973,0.172565,1.755787,0.002810,-0.002489,0.005246,0.039368,-0.171710,-0.984361,0.013580,-0.015653,-0.001128,22.548458,11.045065,-66.841660,,,,,,,
1508076506.705718,0.039158,0.170976,1.755995,-0.085883,-0.047202,0.002762,0.038577,-0.170145,-0.984664,-0.001483,0.010248,0.007552,22.520655,11.083827,-66.844620,,,,,,,
1508076506.725748,0.038645,0.168860,1.755901,-0.110664,-0.006685,-0.012736,0.038086,-0.168059,-0.985041,-0.014282,0.008071,-0.010137,22.466391,11.246850,-66.835648,,,,,,,
1508076506.745751,0.038463,0.167408,1.756019,-0.050673,0.000700,0.014836,0.037916,-0.166627,-0.985291,-0.006803,-0.006423,-0.017334,22.469013,11.351938,-66.816994,,,,,,,
1508076506.765746,0.037754,0.167484,1.756613,0.030849,-0.051544,0.028328,0.037217,-0.166703,-0.985305,-0.023560,-0.006302,-0.001359,22.434792,11.377878,-66.824081,,,,,,,
1508076506.785767,0.036175,0.168292,1.756673,0.020113,-0.084481,-0.012772,0.035656,-0.167499,-0.985227,-0.027371,-0.011456,0.011411,22.373335,11.328043,-66.853149,,,,,,,
1508076506.805774,0.034437,0.168207,1.756008,-0.089392,-0.012995,-0.059576,0.033944,-0.167415,-0.985302,-0.008248,-0.017521,0.007717,22.204439,11.261712,-66.920631,,,,,,,
1508076506.825779,0.034291,0.165872,1.754934,-0.134387,0.008313,-0.056652,0.033814,-0.165112,-0.985695,-0.004838,0.001706,-0.031456,22.165075,11.435312,-66.904243,,,,,,,
1508076506.845785,0.033861,0.163479,1.753661,-0.041209,-0.035359,-0.069951,0.033403,-0.162752,-0.986101,-0.003664,0.013643,-0.022764,22.165075,11.435312,-66.904243,,,,,,,
1508076506.865793,0.033052,0.163069,1.752715,0.043440,-0.037579,-0.035860,0.032608,-0.162347,-0.986195,-0.002121,0.005716,-0.019817,22.045515,11.751674,-66.888916,,,,,,,
1508076506.885798,0.032726,0.164791,1.752092,0.030680,-0.045065,-0.018682,0.032277,-0.164047,-0.985924,0.015209,-0.030305,0.002160,21.978817,11.686424,-66.922295,,,,,,,
1508076506.905796,0.032191,0.165194,1.751587,-0.086978,-0.068452,-0.026785,0.031747,-0.164444,-0.985875,0.020606,-0.034378,-0.000376,21.936745,11.644399,-66.943420,,,,,,,
1508076506.925811,0.032248,0.163824,1.750795,-0.057296,0.005083,-0.047067,0.031811,-0.163093,-0.986098,-0.013318,0.009070,-0.036653,21.923094,11.663776,-66.944519,,,,,,,
1508076506.945817,0.032167,0.164544,1.749857,0.075472,-0.015202,-0.040475,0.031727,-0.163803,-0.985983,0.014721,-0.011337,-0.028574,21.900307,11.715993,-66.942863,,,,,,,
1508076506.965797,0.031692,0.166513,1.749365,0.093899,-0.053631,-0.002611,0.031249,-0.165744,-0.985673,0.023439,-0.024578,-0.023802,21.880636,11.636660,-66.963127,,,,,,,
1508076506.985830,0.031120,0.168747,1.749476,0.078951,-0.049389,0.010134,0.030673,-0.167947,-0.985319,0.007108,-0.007941,-0.034594,21.852018,11.468214,-67.001518,,,,,,,
1508076507.005835,0.030604,0.170867,1.749489,0.099146,-0.015284,-0.001039,0.030154,-0.170036,-0.984976,-0.000643,-0.023262,-0.024820,21.787310,11.307720,-67.049858,,,,,,,
1508076507.025814,0.030850,0.172114,1.748947,0.032586,0.021018,-0.034570,0.030390,-0.171266,-0.984756,0.007544,-0.027282,-0.007157,21.779724,11.223848,-67.066406,,,,,,,
1508076507.045847,0.031867,0.173082,1.748321,0.012206,0.044448,-0.029563,0.031385,-0.172219,-0.984559,-0.007567,-0.011832,-0.018920,21.814989,11.142770,-67.068466,,,,,,,
1508076507.065837,0.032203,0.174712,1.747546,0.120456,-0.019484,-0.034049,0.031707,-0.173825,-0.984266,0.003785,-0.009495,-0.031985,21.855339,11.088586,-67.064308,,,,,,,
1508076507.085854,0.031864,0.178187,1.747018,0.134537,-0.048296,-0.009117,0.031354,-0.177245,-0.983667,0.003467,-0.005097,-0.002981,21.846916,11.051896,-67.073112,,,,,,,
1508076507.105866,0.031304,0.180617,1.746926,0.102254,0.015619,-0.006820,0.030790,-0.179636,-0.983251,-0.011945,0.002161,0.015920,21.769024,10.734884,-67.149879,,,,,,,
1508076507.125871,0.031931,0.181436,1.746282,0.001450,0.042361,-0.049785,0.031402,-0.180443,-0.983084,-0.004333,0.018349,0.035605,21.790939,10.615617,-67.161728,,,,,,,
1508076507.145879,0.033457,0.181567,1.745008,0.030283,0.059402,-0.052186,0.032900,-0.180571,-0.983012,-0.000872,0.025145,0.037913,21.838949,10.638163,-67.142563,,,,,,,
1508076507.165884,0.033936,0.182234,1.744501,0.042500,-0.038696,-0.003856,0.033368,-0.181227,-0.982875,0.018360,-0.001177,0.021388,21.916515,10.627661,-67.118950,,,,,,,
1508076507.185891,0.032328,0.183132,1.744860,0.044900,-0.089896,0.029940,0.031782,-0.182110,-0.982764,-0.008284,0.014309,0.031928,21.826303,10.551354,-67.160378,,,,,,,
1508076507.205898,0.030207,0.183743,1.745321,0.017907,-0.041896,-0.000591,0.029694,-0.182711,-0.982718,-0.023789,0.007723,0.029090,21.679884,10.488637,-67.217598,,,,,,,
1508076507.225904,0.030165,0.183121,1.744732,-0.051967,0.018927,-0.044073,0.029656,-0.182100,-0.982833,-0.007348,0.003343,0.019408,21.647398,10.496163,-67.226891,,,,,,,
1508076507.245908,0.031035,0.181186,1.743792,-0.070252,0.041316,-0.051848,0.030522,-0.180197,-0.983157,0.000591,0.031362,-0.013730,21.674896,10.656345,-67.192825,,,,,,,
1508076507.265916,0.031393,0.180946,1.742813,0.041200,-0.000282,-0.038533,0.030875,-0.179960,-0.983189,0.001382,0.044005,-0.010875,21.691923,10.726415,-67.176178,,,,,,,
1508076507.285905,0.031299,0.183002,1.742562,0.108662,0.021999,-0.003718,0.030771,-0.181982,-0.982820,-0.010828,0.000265,0.013857,21.690044,10.667979,-67.186089,,,,,,,
1508076507.305927,0.032302,0.184252,1.742341,0.027197,0.057195,-0.014831,0.031749,-0.183212,-0.982561,-0.003353,-0.018952,0.021455,21.720875,10.513032,-67.200554,,,,,,,
1508076507.325935,0.033126,0.183827,1.741821,-0.031610,0.018895,-0.035561,0.032562,-0.182794,-0.982612,0.001755,-0.012275,0.016547,21.770306,10.516027,-67.184082,,,,,,,
1508076507.345941,0.033664,0.184369,1.741435,0.008145,0.008154,0.004018,0.033087,-0.183326,-0.982495,0.001047,-0.017297,0.033444,21.802132,10.518376,-67.173393,,,,,,,
1508076507.365946,0.033141,0.184639,1.742005,0.021198,-0.027068,0.037574,0.032571,-0.183592,-0.982463,0.012900,-0.039110,0.034434,21.795338,10.496906,-67.178955,,,,,,,
1508076507.385950,0.032675,0.187217,1.743312,0.005352,-0.035690,0.089960,0.032098,-0.186125,-0.982002,0.006110,-0.054811,0.022865,21.795338,10.496906,-67.178955,,,,,,,
1508076507.405960,0.031317,0.185729,1.745031,-0.130557,-0.055851,0.067962,0.030774,-0.184663,-0.982320,0.003696,-0.048308,0.013387,21.764528,10.293033,-67.220482,,,,,,,
1508076507.425965,0.030437,0.182288,1.746732,-0.187313,-0.006899,0.099283,0.029928,-0.181280,-0.982976,0.000376,-0.027292,-0.022365,21.709705,10.501925,-67.205902,,,,,,,
1508076507.445972,0.029851,0.179711,1.749777,-0.183690,-0.063503,0.173676,0.029366,-0.178745,-0.983457,0.016838,-0.041165,-0.043566,21.720795,10.655722,-67.178101,,,,,,,
1508076507.465979,0.026583,0.176791,1.754240,-0.129689,-0.151013,0.247413,0.026166,-0.175872,-0.984065,0.038424,-0.047349,-0.055638,21.691643,10.739555,-67.174164,,,,,,,
1508076507.485984,0.021791,0.174629,1.760519,-0.129248,-0.201259,0.337711,0.021458,-0.173743,-0.984557,0.018734,-0.023263,-0.058503,21.488041,10.797050,-67.230362,,,,,,,
1508076507.505990,0.017032,0.172339,1.767705,-0.110124,-0.139509,0.351729,0.016779,-0.171487,-0.985043,0.001547,-0.015021,-0.053958,21.345730,10.821988,-67.271683,,,,,,,
1508076507.525997,0.013818,0.170962,1.775354,-0.060915,-0.083158,0.398859,0.013617,-0.170131,-0.985327,-0.008841,-0.016103,-0.035775,21.245996,10.798561,-67.307007,,,,,,,
1508076507.545985,0.009779,0.169887,1.783982,-0.063772,-0.168438,0.429954,0.009638,-0.169071,-0.985557,0.012274,-0.035565,-0.048608,21.181902,10.681411,-67.345886,,,,,,,
1508076507.566008,0.003830,0.169262,1.792701,-0.055077,-0.219561,0.424291,0.003775,-0.168455,-0.985702,-0.032828,-0.012117,-0.041565,20.988979,10.548570,-67.427185,,,,,,,
1508076507.585991,-0.001305,0.168359,1.800678,-0.036166,-0.166185,0.364856,-0.001286,-0.167564,-0.985860,-0.042934,-0.002495,-0.035258,20.888391,10.496475,-67.466537,,,,,,,
1508076507.606022,-0.006325,0.167400,1.807247,-0.015254,-0.092530,0.281669,-0.006237,-0.166620,-0.986002,-0.030766,0.006158,-0.019659,20.673798,10.343727,-67.556168,,,,,,,
1508076507.626027,-0.007912,0.166739,1.812103,-0.049932,-0.019949,0.213465,-0.007802,-0.165967,-0.986100,-0.024577,0.012525,-0.026229,20.558401,10.298419,-67.598289,,,,,,,
1508076507.646035,-0.009437,0.163871,1.815402,-0.057746,-0.011249,0.123776,-0.009310,-0.163139,-0.986559,-0.016386,0.036430,-0.006864,20.569641,10.299737,-67.594673,,,,,,,
1508076507.666039,-0.009774,0.163048,1.817344,-0.034377,0.004801,0.085139,-0.009644,-0.162327,-0.986690,-0.010421,0.029606,0.015163,20.542759,10.429889,-67.582886,,,,,,,
1508076507.686046,-0.009986,0.161927,1.818664,-0.007580,-0.036703,0.062262,-0.009855,-0.161221,-0.986869,0.008650,0.023068,0.035331,20.548847,10.432990,-67.580559,,,,,,,
1508076507.706053,-0.010979,0.161708,1.820167,-0.016085,-0.035672,0.080380,-0.010836,-0.161004,-0.986894,0.004198,0.013482,0.040209,20.552311,10.475613,-67.572914,,,,,,,
1508076507.726057,-0.012613,0.160823,1.821748,-0.059797,-0.097431,0.073845,-0.012450,-0.160131,-0.987017,-0.013353,0.024190,0.049349,20.479761,10.477594,-67.594627,,,,,,,
1508076507.746064,-0.016025,0.159124,1.822978,-0.036360,-0.101633,0.038701,-0.015822,-0.158453,-0.987240,-0.029283,0.021460,0.069637,20.278543,10.570403,-67.640831,,,,,,,
1508076507.766072,-0.017410,0.157802,1.823465,-0.089021,-0.045124,0.019794,-0.017193,-0.157148,-0.987425,-0.031787,0.006238,0.069548,20.218561,10.590036,-67.655708,,,,,,,
1508076507.786077,-0.018268,0.155097,1.823899,-0.145721,-0.044056,0.025152,-0.018048,-0.154476,-0.987832,-0.000064,0.006558,0.030724,20.130634,10.776494,-67.652489,,,,,,,
1508076507.806056,-0.019561,0.152583,1.824527,-0.105984,-0.073927,0.042617,-0.019332,-0.151992,-0.988193,-0.000123,0.008513,0.018329,20.082851,10.917518,-67.644081,,,,,,,
1508076507.826089,-0.021717,0.151277,1.825338,-0.034245,-0.102681,0.030184,-0.021467,-0.150701,-0.988346,-0.016008,0.027364,0.010823,20.013214,11.012595,-67.649307,,,,,,,
1508076507.846096,-0.023422,0.150172,1.825526,0.005929,0.014564,-0.012065,-0.023156,-0.149608,-0.988474,-0.023337,0.006435,0.015101,19.797216,11.127965,-67.693962,,,,,,,
1508076507.866101,-0.022012,0.150097,1.824646,-0.022248,0.074334,-0.067292,-0.021762,-0.149534,-0.988517,-0.011944,0.002058,0.013618,19.834921,11.129184,-67.682724,,,,,,,
1508076507.886108,-0.019950,0.149310,1.822659,-0.044921,0.098920,-0.107085,-0.019726,-0.148756,-0.988677,0.007763,-0.004290,0.013122,19.923683,11.194324,-67.645905,,,,,,,
1508076507.906114,-0.016885,0.148606,1.820477,-0.027866,0.125541,-0.103219,-0.016698,-0.148059,-0.988838,0.011952,0.008945,0.006843,20.100412,11.319133,-67.572807,,,,,,,
1508076507.926120,-0.014235,0.149054,1.818429,0.048203,0.101008,-0.096522,-0.014077,-0.148503,-0.988812,0.021065,0.006642,0.004422,20.210335,11.359300,-67.533272,,,,,,,
1508076507.946127,-0.012755,0.150189,1.816761,0.051624,0.047712,-0.079757,-0.012611,-0.149625,-0.988662,0.035774,-0.001361,0.005874,20.312428,11.330611,-67.507462,,,,,,,
1508076507.966124,-0.009495,0.150765,1.814982,0.012986,0.094586,-0.072945,-0.009387,-0.150195,-0.988612,0.021838,0.007906,0.013529,20.490883,11.305921,-67.457649,,,,,,,
1508076507.986133,-0.006907,0.151142,1.813545,0.026840,0.116946,-0.070081,-0.006828,-0.150568,-0.988576,0.034706,0.009485,0.006002,20.627022,11.315502,-67.414536,,,,,,,
1508076508.006129,-0.003468,0.152230,1.812066,0.062484,0.031678,-0.045414,-0.003428,-0.151643,-0.988429,0.043284,-0.000487,0.005031,20.691919,11.308846,-67.395760,,,,,,,
1508076508.026134,-0.003323,0.152816,1.811492,-0.006892,-0.003503,-0.022459,-0.003284,-0.152222,-0.988341,0.028186,-0.020569,0.019087,20.862518,11.239265,-67.354797,,,,,,,
1508076508.046140,-0.002687,0.150450,1.810748,-0.120493,0.028532,-0.046297,-0.002657,-0.149883,-0.988700,0.006349,0.015773,-0.000298,20.861473,11.324265,-67.340881,,,,,,,
1508076508.066164,-0.000137,0.145438,1.809470,-0.059782,0.107368,-0.057084,-0.000135,-0.144926,-0.989442,0.012434,0.036436,-0.014723,20.935804,11.612663,-67.268661,,,,,,,
1508076508.086169,0.001743,0.145748,1.808670,0.050668,0.062538,-0.025594,0.001724,-0.145232,-0.989396,0.040161,0.003448,-0.018920,21.121014,11.792338,-67.179443,,,,,,,
1508076508.106166,0.003138,0.146729,1.808717,0.055297,0.007035,0.031721,0.003105,-0.146203,-0.989250,0.024300,0.004952,-0.005639,21.167395,11.715226,-67.178337,,,,,,,
1508076508.126183,0.003325,0.148009,1.809600,0.067045,0.026186,0.042097,0.003288,-0.147470,-0.989061,0.003151,0.017312,0.004518,21.240362,11.687171,-67.160187,,,,,,,
1508076508.146189,0.004365,0.148748,1.809832,0.010022,0.077428,-0.006586,0.004316,-0.148201,-0.988948,-0.011870,-0.005471,0.028590,21.315950,11.554773,-67.159149,,,,,,,
1508076508.166189,0.006453,0.148058,1.809433,-0.070464,0.130755,-0.029692,0.006382,-0.147517,-0.989039,-0.009190,-0.002461,0.022135,21.341578,11.552110,-67.151474,,,,,,,
1508076508.186202,0.008868,0.146496,1.808946,-0.073546,0.103031,-0.015425,0.008773,-0.145972,-0.989250,0.010865,0.007132,0.003502,21.515329,11.636560,-67.081406,,,,,,,
1508076508.206207,0.010864,0.145177,1.809380,-0.008952,0.042168,0.050453,0.010750,-0.144668,-0.989422,0.015602,0.012771,-0.010288,21.708776,11.762822,-66.997009,,,,,,,
1508076508.226190,0.010334,0.145857,1.810728,0.053432,-0.045235,0.069801,0.010224,-0.145340,-0.989329,0.006194,0.001435,0.001292,21.777189,11.775678,-66.972542,,,,,,,
1508076508.246221,0.009127,0.147157,1.812169,0.009408,0.001654,0.064889,0.009028,-0.146626,-0.989151,-0.026057,-0.016917,0.014496,21.711615,11.638047,-67.017883,,,,,,,
1508076508.266225,0.010408,0.146378,1.812974,-0.059492,0.093372,0.019892,0.010296,-0.145856,-0.989252,-0.017468,-0.001819,-0.003332,21.781244,11.628176,-66.996994,,,,,,,
1508076508.286229,0.012325,0.145029,1.812816,-0.055333,0.094509,-0.016382,0.012195,-0.144521,-0.989426,0.012600,-0.000223,-0.013839,21.907825,11.719560,-66.939774,,,,,,,
1508076508.306239,0.014809,0.144594,1.812797,-0.004953,0.100824,0.016544,0.014654,-0.144090,-0.989456,0.009257,-0.001738,-0.013931,21.971497,11.754850,-66.912712,,,,,,,
1508076508.326244,0.016452,0.144597,1.813137,-0.003769,0.060343,0.013926,0.016279,-0.144094,-0.989430,0.004046,-0.001262,-0.006679,22.189877,11.762679,-66.839226,,,,,,,
1508076508.346224,0.017629,0.144708,1.813525,0.026256,0.053917,0.027859,0.017444,-0.144203,-0.989394,0.004865,0.005012,0.001601,22.288557,11.758547,-66.807121,,,,,,,
1508076508.366257,0.018396,0.145795,1.814240,0.039267,0.010216,0.040212,0.018199,-0.145279,-0.989223,0.005650,-0.004761,0.006710,22.326752,11.731311,-66.799156,,,,,,,
1508076508.386251,0.018115,0.146788,1.814943,-0.052814,0.014528,0.025291,0.017920,-0.146262,-0.989084,-0.013998,-0.014093,0.014947,22.396519,11.602448,-66.798309,,,,,,,
1508076508.406245,0.017386,0.142100,1.815413,-0.119365,0.050810,-0.001842,0.017210,-0.141622,-0.989771,-0.005338,0.036581,-0.019521,22.326134,11.757585,-66.794739,,,,,,,
1508076508.426266,0.018531,0.140678,1.815071,-0.030631,0.058281,-0.020144,0.018347,-0.140215,-0.989951,0.001169,0.032015,-0.014550,22.326134,11.757585,-66.794739,,,,,,,
1508076508.446282,0.019674,0.141124,1.815157,0.038071,0.031548,0.022844,0.019477,-0.140656,-0.989867,0.006203,-0.000854,-0.004991,22.453449,11.968553,-66.714546,,,,,,,
1508076508.466292,0.019783,0.141397,1.815656,0.012429,0.013453,0.018860,0.019585,-0.140926,-0.989826,-0.014320,0.015667,-0.001659,22.490526,11.928230,-66.709282,,,,,,,
1508076508.486295,0.019252,0.140785,1.816010,0.040079,0.052885,0.003340,0.019061,-0.140320,-0.989923,-0.018511,0.017731,0.007592,22.505796,11.917226,-66.706100,,,,,,,
1508076508.506300,0.020373,0.140987,1.815532,-0.005106,0.082816,-0.043977,0.020169,-0.140520,-0.989872,-0.002393,0.001406,0.011128,22.511536,11.948361,-66.698593,,,,,,,
1508076508.526300,0.022493,0.140146,1.814690,-0.040284,0.056161,-0.026504,0.022270,-0.139688,-0.989945,0.011925,0.005136,0.000092,22.593788,11.984369,-66.664307,,,,,,,
1508076508.546314,0.023268,0.138693,1.814239,-0.043404,0.024207,-0.027104,0.023043,-0.138248,-0.990130,-0.004839,0.009830,0.001543,22.693956,12.081550,-66.612724,,,,,,,
1508076508.566318,0.023331,0.137101,1.813922,-0.029632,0.081699,-0.016219,0.023110,-0.136672,-0.990347,-0.020348,0.016509,-0.000803,22.704309,12.208429,-66.586060,,,,,,,
1508076508.586317,0.025045,0.136330,1.813775,0.028213,0.069948,-0.006495,0.024810,-0.135908,-0.990411,0.007524,0.016569,0.001382,22.742321,12.287536,-66.558525,,,,,,,
1508076508.606332,0.026406,0.137758,1.813281,0.060409,0.023100,-0.020768,0.026152,-0.137323,-0.990181,0.008821,-0.014960,0.012291,22.854151,12.281368,-66.521347,,,,,,,
1508076508.626337,0.026726,0.140260,1.813280,0.028519,-0.005725,0.015928,0.026461,-0.139801,-0.989826,0.000898,-0.029145,0.027500,22.906408,12.118861,-66.533180,,,,,,,
1508076508.646276,0.025964,0.141073,1.813416,-0.058291,0.008204,-0.015131,0.025703,-0.140606,-0.989732,-0.020118,-0.019276,0.031144,22.891701,11.999007,-66.559959,,,,,,,
1508076508.666303,0.025632,0.139915,1.813088,-0.072321,0.036985,-0.026201,0.025379,-0.139459,-0.989903,-0.018757,-0.004874,0.003147,22.836828,12.027994,-66.573578,,,,,,,
1508076508.686309,0.025883,0.139458,1.812580,-0.025154,0.006087,-0.028987,0.025629,-0.139006,-0.989960,-0.000375,-0.012346,-0.003403,22.837412,12.125827,-66.555626,,,,,,,
1508076508.706309,0.025918,0.139715,1.811851,0.005815,0.012497,-0.042965,0.025662,-0.139261,-0.989923,-0.012005,-0.014501,-0.000555,22.838732,12.134102,-66.553658,,,,,,,
1508076508.726322,0.026010,0.140630,1.810889,-0.019851,-0.003453,-0.054444,0.025751,-0.140167,-0.989793,0.003394,-0.024964,0.012422,22.810507,12.094597,-66.570534,,,,,,,
1508076508.746327,0.026011,0.140556,1.809833,-0.047513,-0.041819,-0.041071,0.025752,-0.140094,-0.989803,0.017080,-0.027875,0.002483,22.803970,12.082078,-66.575043,,,,,,,
1508076508.766306,0.024946,0.140451,1.809269,-0.053776,-0.070619,-0.020389,0.024698,-0.139989,-0.989845,-0.002008,-0.021342,-0.006279,22.787560,12.102581,-66.576942,,,,,,,
1508076508.786339,0.023378,0.139348,1.809025,-0.056121,-0.007762,-0.026630,0.023149,-0.138897,-0.990036,-0.020647,0.003598,-0.012741,22.640890,12.148863,-66.618538,,,,,,,
1508076508.806317,0.023710,0.138101,1.807926,-0.014637,0.023213,-0.074027,0.023482,-0.137663,-0.990201,0.003450,0.008955,-0.019809,22.585276,12.276171,-66.614075,,,,,,,
1508076508.826334,0.025183,0.138256,1.806259,0.014307,0.012546,-0.067497,0.024940,-0.137816,-0.990144,0.027459,-0.005327,-0.007384,22.592878,12.307105,-66.605797,,,,,,,
1508076508.846359,0.026348,0.138771,1.805094,0.008009,-0.003472,-0.044869,0.026092,-0.138326,-0.990043,0.016282,-0.006922,0.000068,22.689472,12.326798,-66.569305,,,,,,,
1508076508.866364,0.026917,0.138963,1.804118,-0.016610,0.000796,-0.043846,0.026654,-0.138516,-0.990001,0.012301,-0.008105,0.011425,22.709743,12.331007,-66.561615,,,,,,,
1508076508.886362,0.027512,0.137872,1.803179,-0.071310,0.031724,-0.054917,0.027247,-0.137436,-0.990136,-0.001124,0.008987,-0.005439,22.734102,12.350883,-66.549614,,,,,,,
1508076508.906378,0.028989,0.136105,1.801851,-0.017951,0.071139,-0.061927,0.028717,-0.135685,-0.990336,0.007630,0.016651,-0.005239,22.765532,12.508637,-66.509392,,,,,,,
1508076508.926383,0.030973,0.136342,1.800821,0.013262,0.031682,-0.042185,0.030680,-0.135920,-0.990245,0.022283,-0.007268,-0.001851,22.885168,12.580466,-66.454758,,,,,,,
1508076508.946366,0.031804,0.136530,1.800134,-0.018579,-0.023757,-0.012568,0.031503,-0.136106,-0.990193,0.018714,-0.004107,0.003850,22.954435,12.564033,-66.433975,,,,,,,
1508076508.966397,0.031303,0.136199,1.800226,0.011496,-0.039782,0.007902,0.031008,-0.135778,-0.990254,0.000441,0.006246,0.014958,22.956007,12.594306,-66.427704,,,,,,,
1508076508.986402,0.030296,0.137048,1.800298,0.004945,-0.005676,-0.002184,0.030007,-0.136619,-0.990169,-0.015389,-0.011666,0.031978,22.888844,12.560976,-66.457176,,,,,,,
1508076509.006392,0.030393,0.137114,1.800074,-0.032724,0.043378,-0.025259,0.030103,-0.136685,-0.990157,-0.010404,-0.008182,0.022338,22.856495,12.526637,-66.474792,,,,,,,
1508076509.026416,0.031318,0.136678,1.799144,-0.078705,0.002969,-0.053429,0.031021,-0.136253,-0.990188,0.015457,-0.021996,-0.000824,22.893026,12.552475,-66.457352,,,,,,,
1508076509.046420,0.031809,0.134794,1.798302,-0.100028,0.007182,-0.025751,0.031515,-0.134386,-0.990428,0.003183,0.002596,-0.011296,22.919653,12.685858,-66.422836,,,,,,,
1508076509.066416,0.032309,0.132672,1.798135,-0.046590,0.042293,-0.012438,0.032019,-0.132283,-0.990695,-0.004447,0.015858,-0.021283,22.932741,12.810271,-66.394432,,,,,,,
1508076509.086433,0.032779,0.132044,1.797738,-0.005841,0.003951,-0.020443,0.032488,-0.131660,-0.990762,0.015165,0.003624,-0.021765,22.973129,12.913324,-66.360497,,,,,,,
1508076509.106440,0.032783,0.132612,1.797850,0.045713,-0.006812,0.028724,0.032490,-0.132224,-0.990687,0.014095,-0.004907,-0.010411,22.978516,12.902532,-66.360725,,,,,,,
1508076509.126444,0.031898,0.133691,1.798480,0.040426,-0.034495,0.022732,0.031608,-0.133293,-0.990573,-0.007087,-0.003289,0.004931,22.978107,12.884057,-66.364456,,,,,,,
1508076509.146452,0.031377,0.134389,1.798783,0.016664,0.025188,0.009089,0.031089,-0.133985,-0.990496,-0.013526,-0.002200,0.004961,22.908318,12.767301,-66.411133,,,,,,,
1508076509.166456,0.032318,0.134608,1.798534,-0.005981,0.045504,-0.026376,0.032020,-0.134201,-0.990437,0.004983,-0.006378,-0.005627,22.942684,12.738316,-66.404839,,,,,,,
1508076509.186442,0.033387,0.134343,1.797970,-0.003820,0.043365,-0.022082,0.033080,-0.133939,-0.990437,0.001436,0.002179,-0.008342,22.962732,12.736109,-66.398331,,,,,,,
1508076509.206458,0.034098,0.134424,1.797744,0.020880,0.029481,-0.006971,0.033784,-0.134019,-0.990403,-0.002457,0.007280,-0.006073,23.034077,12.766212,-66.367836,,,,,,,
1508076509.226476,0.034357,0.134962,1.797555,0.030622,-0.005679,-0.004336,0.034037,-0.134553,-0.990322,0.007726,-0.002288,0.006526,23.068733,12.746230,-66.359642,,,,,,,
1508076509.246470,0.034420,0.135343,1.797657,0.003853,0.015605,0.009237,0.034098,-0.134930,-0.990268,-0.010722,0.002453,0.009876,23.076180,12.718298,-66.362404,,,,,,,
1508076509.266490,0.034670,0.135231,1.797622,0.006947,0.028433,-0.014409,0.034346,-0.134819,-0.990275,-0.015349,0.009056,0.010966,23.091747,12.704315,-66.359673,,,,,,,
1508076509.286495,0.034980,0.135527,1.797227,0.029420,0.022046,-0.019665,0.034653,-0.135113,-0.990224,0.002869,-0.002766,0.014959,23.100718,12.715747,-66.354355,,,,,,,
1508076509.306495,0.035355,0.136571,1.797102,0.017791,-0.002492,0.000959,0.035018,-0.136147,-0.990070,0.002869,-0.011344,0.013415,23.128071,12.667920,-66.353981,,,,,,,
1508076509.326508,0.035195,0.136908,1.796969,-0.020737,-0.009927,-0.008505,0.034858,-0.136481,-0.990029,-0.002891,-0.006799,0.013192,23.132343,12.614104,-66.362740,,,,,,,
1508076509.346509,0.034902,0.136159,1.796877,-0.037889,0.004981,-0.004443,0.034572,-0.135739,-0.990141,-0.007594,0.003018,0.007780,23.107731,12.650469,-66.364395,,,,,,,
1508076509.366495,0.034937,0.135400,1.796798,0.004816,0.027356,-0.013330,0.034611,-0.134986,-0.990243,-0.008854,0.012504,0.010613,23.095779,12.700306,-66.359039,,,,,,,
1508076509.386527,0.035519,0.135926,1.796193,0.021859,0.030590,-0.034715,0.035184,-0.135508,-0.990151,-0.000562,-0.005849,0.012521,23.108032,12.714629,-66.352028,,,,,,,
1508076509.406532,0.036818,0.136516,1.795465,-0.014524,0.042300,-0.025261,0.036468,-0.136092,-0.990025,0.016145,-0.013734,0.013996,23.161337,12.683656,-66.339363,,,,,,,
1508076509.426527,0.037844,0.135828,1.795193,-0.066800,0.009259,-0.007683,0.037487,-0.135411,-0.990080,0.013233,-0.006878,0.003859,23.235622,12.685528,-66.313026,,,,,,,
1508076509.446545,0.038225,0.134089,1.795264,-0.057194,0.031599,0.005848,0.037873,-0.133688,-0.990300,-0.007935,0.014288,-0.009426,23.272274,12.777351,-66.282539,,,,,,,
1508076509.466551,0.038427,0.133397,1.795450,0.006037,0.002812,0.010483,0.038076,-0.133002,-0.990384,0.002650,0.007392,0.002072,23.295900,12.874421,-66.255455,,,,,,,
1508076509.486533,0.038591,0.133713,1.795733,0.017771,0.021971,0.016595,0.038237,-0.133315,-0.990336,-0.005369,-0.003541,0.002970,23.300941,12.880801,-66.252434,,,,,,,
1508076509.506564,0.038636,0.134013,1.796322,-0.011016,0.004901,0.032858,0.038280,-0.133612,-0.990294,-0.004985,-0.008477,0.007445,23.325439,12.825315,-66.254578,,,,,,,
1508076509.526570,0.038543,0.133643,1.796715,-0.048559,0.008157,0.007248,0.038190,-0.133246,-0.990347,-0.006940,-0.002374,0.006445,23.336449,12.806300,-66.254387,,,,,,,
1508076509.546571,0.038536,0.132864,1.796927,-0.037906,0.024131,0.007009,0.038187,-0.132473,-0.990451,-0.000803,-0.003818,0.009921,23.331644,12.880990,-66.241600,,,,,,,
1508076509.566582,0.038907,0.132431,1.797072,-0.031482,0.018812,0.002816,0.038556,-0.132044,-0.990494,0.000018,-0.009527,0.005737,23.353897,12.905994,-66.228882,,,,,,,
1508076509.586585,0.039179,0.131633,1.797087,-0.048615,0.013507,-0.005625,0.038830,-0.131253,-0.990588,0.000263,0.000378,0.003756,23.372797,12.919616,-66.219559,,,,,,,
1508076509.606577,0.039582,0.130374,1.796989,-0.059325,0.017769,-0.004612,0.039236,-0.130005,-0.990737,0.000895,0.003876,-0.013429,23.385128,12.965478,-66.206245,,,,,,,
1508076509.626594,0.040017,0.128830,1.796922,-0.032561,0.013500,-0.003504,0.039675,-0.128474,-0.990919,0.005369,0.015025,-0.016604,23.422228,13.107957,-66.165054,,,,,,,
1508076509.646588,0.040465,0.128190,1.797052,0.009253,0.005996,0.015766,0.040122,-0.127839,-0.990983,0.008249,0.009614,-0.014922,23.455271,13.186694,-66.137703,,,,,,,
1508076509.666603,0.040479,0.128830,1.797518,0.038224,-0.007883,0.027675,0.040133,-0.128474,-0.990901,0.001874,-0.005712,-0.003072,23.470116,13.172319,-66.135300,,,,,,,
1508076509.686620,0.040169,0.129655,1.797983,0.002781,0.024105,0.015509,0.039821,-0.129292,-0.990807,-0.016063,-0.010616,-0.002647,23.473623,13.104383,-66.147552,,,,,,,
1508076509.706625,0.040411,0.129283,1.797925,-0.034862,0.047622,-0.022124,0.040063,-0.128923,-0.990845,-0.010949,-0.002349,-0.004638,23.483015,13.094408,-66.146194,,,,,,,
1508076509.726624,0.041406,0.128803,1.797346,-0.022051,0.049763,-0.029629,0.041052,-0.128447,-0.990866,-0.002370,-0.004060,-0.002023,23.508625,13.130994,-66.129845,,,,,,,
1508076509.746638,0.042459,0.128752,1.796934,-0.002736,0.043346,-0.018887,0.042095,-0.128397,-0.990829,0.003666,-0.003760,-0.002213,23.563843,13.158063,-66.104805,,,,,,,
1508076509.766644,0.043229,0.129303,1.796575,0.015578,0.011370,-0.010973,0.042855,-0.128943,-0.990726,0.008415,-0.011453,0.013690,23.626043,13.153156,-66.083572,,,,,,,
1508076509.786625,0.043550,0.129673,1.796439,-0.002589,0.006045,-0.008750,0.043170,-0.129310,-0.990664,-0.000797,-0.002602,0.015765,23.656097,13.114450,-66.080513,,,,,,,
1508076509.806658,0.043631,0.129313,1.796039,-0.021835,-0.015224,-0.023355,0.043253,-0.128953,-0.990707,0.006811,0.004625,0.008880,23.659010,13.120574,-66.078255,,,,,,,
1508076509.826663,0.044189,0.128434,1.795599,-0.029388,0.017780,-0.012099,0.043810,-0.128081,-0.990796,0.009183,0.010085,-0.003025,23.666365,13.185249,-66.062744,,,,,,,
1508076509.846659,0.044851,0.127316,1.795625,-0.024028,0.030531,0.003706,0.044474,-0.126972,-0.990909,0.002539,0.016788,-0.001050,23.704884,13.247171,-66.036545,,,,,,,
1508076509.866676,0.045641,0.125869,1.795396,-0.032760,0.055090,-0.025434,0.045264,-0.125537,-0.991056,-0.007102,0.022815,-0.005206,23.748606,13.330012,-66.004158,,,,,,,
1508076509.886682,0.046942,0.124592,1.794848,-0.016648,0.040161,-0.018832,0.046561,-0.124270,-0.991155,0.010903,0.016222,-0.003397,23.820650,13.453816,-65.953056,,,,,,,
1508076509.906687,0.047856,0.124354,1.794986,0.003878,0.023025,0.026185,0.047468,-0.124034,-0.991142,0.005907,0.003169,-0.000145,23.845816,13.483532,-65.937889,,,,,,,
1508076509.926695,0.047480,0.124521,1.795776,0.008312,-0.014288,0.039519,0.047094,-0.124199,-0.991139,-0.010580,0.000588,0.011693,23.914431,13.486022,-65.912529,,,,,,,
1508076509.946701,0.046509,0.124582,1.796384,-0.001428,-0.005715,0.013811,0.046132,-0.124260,-0.991177,-0.015614,0.003853,0.022488,23.869480,13.453244,-65.935516,,,,,,,
1508076509.966680,0.046293,0.124575,1.796285,-0.022006,0.040159,-0.020960,0.045918,-0.124253,-0.991188,-0.007481,-0.004409,0.015876,23.829845,13.453491,-65.949806,,,,,,,
1508076509.986713,0.047593,0.123672,1.795786,-0.054207,0.068939,-0.025619,0.047212,-0.123357,-0.991239,0.002410,-0.001521,0.004407,23.864269,13.486852,-65.930542,,,,,,,
1508076510.006700,0.048903,0.122913,1.795490,-0.008009,0.026282,-0.006908,0.048515,-0.122604,-0.991269,0.008095,0.004241,-0.002353,23.937012,13.547711,-65.891678,,,,,,,
1508076510.026725,0.048881,0.123859,1.795480,0.036038,-0.020619,0.003336,0.048487,-0.123542,-0.991154,-0.004923,-0.014229,0.015370,23.998194,13.552322,-65.868469,,,,,,,
1508076510.046723,0.048512,0.124795,1.795564,0.018864,-0.004632,0.000985,0.048116,-0.124472,-0.991056,-0.007421,-0.015436,0.014798,23.976503,13.493589,-65.888428,,,,,,,
1508076510.066732,0.048475,0.125448,1.795364,-0.007925,-0.005663,-0.012842,0.048076,-0.125120,-0.990976,0.003545,-0.014224,0.020288,23.960894,13.429166,-65.907257,,,,,,,
1508076510.086730,0.048606,0.125420,1.794962,-0.045457,0.005032,-0.028963,0.048205,-0.125091,-0.990973,0.000867,-0.013626,0.017127,23.958574,13.415514,-65.910889,,,,,,,
1508076510.106750,0.048906,0.124184,1.794156,-0.080834,0.006144,-0.048146,0.048510,-0.123865,-0.991113,0.004560,-0.003149,-0.001304,23.955902,13.463795,-65.902016,,,,,,,
1508076510.126755,0.049693,0.122733,1.793493,-0.047492,-0.016293,-0.015858,0.049299,-0.122425,-0.991253,0.027194,0.002979,-0.011677,23.971754,13.611101,-65.865982,,,,,,,
1508076510.146762,0.049828,0.121965,1.793395,-0.017493,-0.013132,-0.000998,0.049437,-0.121662,-0.991340,0.006196,0.003926,-0.012963,24.006157,13.668205,-65.841621,,,,,,,
1508076510.166759,0.049473,0.121621,1.793375,0.005956,0.010309,-0.007754,0.049088,-0.121322,-0.991399,-0.009507,0.005721,-0.009776,23.987770,13.705563,-65.840561,,,,,,,
1508076510.186774,0.050279,0.121854,1.793067,-0.011275,0.038028,-0.016673,0.049885,-0.121553,-0.991331,0.010250,-0.011565,-0.010531,24.002256,13.709772,-65.834404,,,,,,,
1508076510.206766,0.051543,0.121626,1.792830,-0.022993,0.034813,-0.003822,0.051140,-0.121327,-0.991294,0.010704,-0.003933,-0.005913,24.067661,13.710011,-65.810463,,,,,,,
1508076510.226787,0.052034,0.121123,1.792858,-0.010143,0.031613,-0.003786,0.051630,-0.120828,-0.991330,-0.008401,0.004952,-0.002124,24.125706,13.741018,-65.782738,,,,,,,
1508076510.246793,0.052439,0.121137,1.792625,0.006965,0.023110,-0.015404,0.052031,-0.120841,-0.991307,-0.001540,-0.002007,0.000218,24.152617,13.763588,-65.768143,,,,,,,
1508076510.266794,0.053260,0.121219,1.792324,-0.015462,0.016711,-0.007831,0.052844,-0.120923,-0.991254,0.011410,-0.004703,-0.006670,24.180267,13.755007,-65.759781,,,,,,,
1508076510.286806,0.053824,0.120575,1.792332,-0.014317,0.007096,0.007235,0.053407,-0.120283,-0.991302,0.008742,0.009916,-0.007004,24.225744,13.781172,-65.737556,,,,,,,
1508076510.306812,0.054144,0.120044,1.792616,0.001786,0.002807,0.020081,0.053728,-0.119756,-0.991349,0.007627,0.012029,-0.001709,24.257544,13.821362,-65.717392,,,,,,,
1508076510.326815,0.054449,0.120521,1.793190,0.015822,-0.015354,0.041655,0.054028,-0.120230,-0.991275,0.003055,-0.011377,0.002078,24.299900,13.814349,-65.703224,,,,,,,
1508076510.346825,0.053445,0.120787,1.794196,-0.001195,-0.043060,0.048468,0.053030,-0.120493,-0.991297,-0.008642,-0.007604,0.000299,24.288233,13.772421,-65.716339,,,,,,,
1508076510.366830,0.051771,0.121064,1.795125,0.023425,-0.050518,0.044293,0.051369,-0.120769,-0.991351,-0.015328,0.002910,0.006670,24.227104,13.745729,-65.744476,,,,,,,
1508076510.386837,0.050412,0.121449,1.795813,-0.006715,-0.016379,0.020362,0.050020,-0.121151,-0.991373,-0.014589,0.003475,0.010080,24.113609,13.672317,-65.801491,,,,,,,
1508076510.406843,0.050000,0.120334,1.795878,-0.068927,-0.000324,-0.010747,0.049618,-0.120044,-0.991528,-0.014629,0.008273,0.013028,24.086824,13.695168,-65.806541,,,,,,,
1508076510.426846,0.050258,0.117758,1.795816,-0.086138,0.034820,-0.004846,0.049889,-0.117486,-0.991821,-0.002358,0.028649,0.000701,24.056923,13.795236,-65.796585,,,,,,,
1508076510.446855,0.051042,0.115324,1.796009,-0.001402,-0.004671,0.024453,0.050681,-0.115068,-0.992064,0.008310,0.024660,0.000609,24.124996,14.052286,-65.717209,,,,,,,
1508076510.466834,0.050333,0.115503,1.796956,0.026576,-0.020726,0.058786,0.049976,-0.115246,-0.992079,-0.009190,0.020626,0.004973,24.125906,14.056595,-65.715958,,,,,,,
1508076510.486868,0.048731,0.114605,1.798092,-0.013111,-0.015351,0.036346,0.048392,-0.114354,-0.992261,-0.033103,0.034764,0.016324,24.076473,14.060942,-65.733154,,,,,,,
1508076510.506874,0.049102,0.114206,1.798227,-0.020877,0.032668,-0.004864,0.048763,-0.113957,-0.992288,-0.012813,0.035222,0.021158,24.043480,14.101349,-65.736572,,,,,,,
1508076510.526881,0.049318,0.113532,1.798324,-0.014308,0.000674,0.012655,0.048980,-0.113288,-0.992354,-0.004730,0.021003,0.029464,24.069458,14.120890,-65.722870,,,,,,,
1508076510.546886,0.049054,0.113192,1.798981,-0.009932,-0.003640,0.038306,0.048720,-0.112950,-0.992405,-0.013656,0.010701,0.033467,24.071663,14.153385,-65.715080,,,,,,,
1508076510.566874,0.047747,0.112863,1.799847,-0.047147,-0.080336,0.041579,0.047425,-0.112623,-0.992505,0.003142,-0.021868,0.023832,24.022148,14.154516,-65.732948,,,,,,,
1508076510.586900,0.045730,0.110924,1.800797,-0.124123,-0.100561,0.044063,0.045433,-0.110697,-0.992815,-0.002083,-0.013052,0.020952,23.943789,14.207675,-65.750061,,,,,,,
1508076510.606904,0.043383,0.108329,1.801758,-0.132720,-0.096284,0.036543,0.043115,-0.108117,-0.993203,-0.017221,0.004403,0.012566,23.841854,14.308106,-65.765327,,,,,,,
1508076510.626884,0.041038,0.106574,1.802606,-0.035487,-0.051568,0.033689,0.040794,-0.106373,-0.993489,-0.037223,0.008808,-0.004222,23.678028,14.508766,-65.780548,,,,,,,
1508076510.646918,0.040312,0.107023,1.802842,0.041377,-0.035527,-0.007121,0.040071,-0.106818,-0.993471,-0.030107,-0.004327,-0.001860,23.593153,14.517689,-65.809074,,,,,,,
1508076510.666923,0.039851,0.107328,1.802013,-0.003772,-0.018376,-0.055319,0.039612,-0.107122,-0.993456,-0.020813,-0.013590,0.008334,23.557215,14.483221,-65.829544,,,,,,,
1508076510.686930,0.039261,0.106913,1.800697,-0.025226,-0.021531,-0.074451,0.039027,-0.106710,-0.993524,-0.022227,0.014562,0.016290,23.467398,14.527573,-65.851845,,,,,,,
1508076510.706937,0.038427,0.106069,1.798791,-0.012535,-0.016130,-0.115058,0.038201,-0.105870,-0.993646,-0.024026,0.020161,0.028543,23.423389,14.580400,-65.855843,,,,,,,
1508076510.726942,0.038449,0.104905,1.796025,-0.024707,0.070238,-0.158953,0.038228,-0.104713,-0.993767,-0.021397,0.014808,0.023690,23.311703,14.684712,-65.872284,,,,,,,
1508076510.746948,0.040490,0.103700,1.792500,-0.057994,0.084140,-0.181522,0.040262,-0.103514,-0.993813,0.042777,-0.002260,0.026909,23.342985,14.887972,-65.815552,,,,,,,
1508076510.766955,0.042042,0.102114,1.789519,-0.075891,0.043558,-0.127605,0.041811,-0.101936,-0.993912,0.044874,0.003700,0.035996,23.381268,15.013389,-65.773460,,,,,,,
1508076510.786961,0.042908,0.100360,1.787652,-0.078637,-0.051354,-0.070779,0.042679,-0.100191,-0.994052,0.034606,0.013674,0.033176,23.458641,15.144320,-65.715874,,,,,,,
1508076510.806967,0.041750,0.098453,1.786539,-0.075450,-0.036458,-0.063533,0.041536,-0.098294,-0.994290,-0.012712,0.012815,0.012479,23.343250,15.349665,-65.709320,,,,,,,
1508076510.826966,0.041857,0.096518,1.784903,-0.102495,0.021148,-0.101669,0.041651,-0.096368,-0.994474,-0.021631,0.010186,0.010984,23.284388,15.474005,-65.701042,,,,,,,
1508076510.846964,0.043159,0.094813,1.782572,-0.067387,0.061670,-0.127874,0.042952,-0.094671,-0.994582,-0.012862,0.011511,0.020186,23.281845,15.606532,-65.670586,,,,,,,
1508076510.866986,0.044404,0.093073,1.780021,-0.103719,0.038256,-0.133905,0.044197,-0.092939,-0.994690,0.015510,0.003812,0.022141,23.333651,15.841650,-65.595856,,,,,,,
1508076510.886992,0.045059,0.090236,1.777274,-0.145429,0.016987,-0.146361,0.044861,-0.090114,-0.994921,0.016068,0.007182,0.025408,23.328899,16.007118,-65.557373,,,,,,,
1508076510.906998,0.045742,0.087395,1.774802,-0.136630,-0.024628,-0.110576,0.045551,-0.087284,-0.995142,0.024090,-0.017605,0.002878,23.343100,16.197384,-65.505562,,,,,,,
1508076510.927005,0.044050,0.084786,1.773141,-0.116075,-0.075812,-0.088523,0.043878,-0.084685,-0.995441,-0.024102,-0.003816,-0.005505,23.227818,16.539309,-65.461090,,,,,,,
1508076510.947011,0.042468,0.082914,1.770627,-0.083114,-0.087387,-0.164087,0.042309,-0.082819,-0.995666,-0.032269,-0.000646,0.006546,23.079327,16.668171,-65.480919,,,,,,,
1508076510.967016,0.042067,0.080239,1.766224,-0.166074,0.005488,-0.253875,0.041919,-0.080152,-0.995901,-0.000354,-0.007494,0.023977,22.953537,16.808748,-65.489197,,,,,,,
1508076510.987021,0.044773,0.075421,1.760890,-0.241369,0.119524,-0.270401,0.044630,-0.075349,-0.996158,0.055299,0.007585,-0.017834,22.908150,17.338867,-65.366776,,,,,,,
1508076511.007030,0.046786,0.070797,1.756485,-0.197087,0.054400,-0.203379,0.046652,-0.070738,-0.996403,0.061991,0.002927,-0.023372,22.948740,17.659153,-65.266716,,,,,,,
1508076511.027036,0.048430,0.067699,1.752935,-0.121882,-0.014911,-0.173640,0.048300,-0.067647,-0.996539,0.017618,-0.005000,-0.017285,23.025196,17.925701,-65.167046,,,,,,,
1508076511.047037,0.048485,0.065967,1.748813,-0.105180,0.050204,-0.244973,0.048360,-0.065919,-0.996652,-0.013524,-0.024230,0.022577,22.914186,18.298529,-65.102524,,,,,,,
1508076511.067048,0.051489,0.063323,1.743849,-0.139751,0.158872,-0.247589,0.051363,-0.063281,-0.996673,0.022734,-0.034940,0.012817,22.913467,18.442711,-65.062080,,,,,,,
1508076511.087054,0.054441,0.059567,1.739130,-0.197315,0.093890,-0.239139,0.054318,-0.059531,-0.996747,0.062427,-0.039605,-0.014880,22.996792,18.664137,-64.969467,,,,,,,
1508076511.107061,0.056139,0.056062,1.735252,-0.191388,-0.029797,-0.175505,0.056021,-0.056033,-0.996856,0.029062,0.008899,-0.061921,23.093510,19.150398,-64.793411,,,,,,,
1508076511.127051,0.055984,0.053693,1.732408,-0.044777,0.007375,-0.137767,0.055875,-0.053667,-0.996994,0.013690,0.023394,-0.062698,23.017719,19.366814,-64.756050,,,,,,,
1508076511.147073,0.056813,0.054158,1.729805,0.086870,0.013704,-0.121964,0.056700,-0.054131,-0.996923,0.026629,-0.000892,-0.057124,23.002602,19.487633,-64.725159,,,,,,,
1508076511.167079,0.057487,0.055951,1.726946,0.030030,0.024434,-0.152999,0.057365,-0.055922,-0.996786,0.009926,-0.026979,-0.024607,22.954559,19.440136,-64.756493,,,,,,,
1508076511.187084,0.059479,0.054637,1.723597,-0.106267,0.132106,-0.177917,0.059355,-0.054610,-0.996742,-0.004210,-0.024080,-0.035729,22.971603,19.451046,-64.747177,,,,,,,
1508076511.207074,0.062398,0.052059,1.720123,-0.104097,0.124644,-0.175678,0.062273,-0.052035,-0.996702,0.018858,-0.003141,-0.045474,23.042599,19.611454,-64.673515,,,,,,,
1508076511.227071,0.064973,0.051396,1.717403,0.034354,0.061626,-0.105558,0.064842,-0.051373,-0.996572,0.026009,-0.000049,-0.042597,23.120144,19.787069,-64.592300,,,,,,,
1508076511.247105,0.065115,0.053753,1.715921,0.151435,-0.029057,-0.051016,0.064975,-0.053727,-0.996439,0.011960,-0.010955,-0.014516,23.223845,19.837229,-64.539688,,,,,,,
1508076511.267110,0.064768,0.056601,1.714618,0.052883,-0.009823,-0.068282,0.064619,-0.056571,-0.996305,-0.006361,-0.033089,-0.002596,23.161505,19.600983,-64.634201,,,,,,,
1508076511.287116,0.065127,0.056019,1.712862,-0.026629,0.059509,-0.105482,0.064979,-0.055990,-0.996315,-0.011635,0.006338,-0.021737,23.149023,19.627722,-64.630562,,,,,,,
1508076511.307123,0.066928,0.056101,1.710437,0.034219,0.087229,-0.125123,0.066773,-0.056071,-0.996191,-0.004609,-0.003057,-0.022958,23.161364,19.693048,-64.606262,,,,,,,
1508076511.327129,0.068175,0.056857,1.708020,0.051553,0.032860,-0.109423,0.068013,-0.056826,-0.996065,0.014568,-0.008695,-0.015654,23.206497,19.704395,-64.586609,,,,,,,
1508076511.347135,0.069166,0.059801,1.706391,0.089362,-0.018396,-0.048995,0.068988,-0.059765,-0.995826,-0.000872,-0.025623,-0.022439,23.263222,19.605871,-64.596184,,,,,,,
1508076511.367142,0.068209,0.062175,1.705600,0.089401,-0.017358,-0.037280,0.068024,-0.062135,-0.995747,-0.017930,-0.022018,-0.023510,23.227001,19.484398,-64.645950,,,,,,,
1508076511.387147,0.066846,0.064594,1.704304,0.099841,0.022134,-0.082644,0.066657,-0.064549,-0.995686,-0.024833,-0.009197,-0.015224,23.114042,19.345560,-64.728081,,,,,,,
1508076511.407145,0.067632,0.067555,1.702003,0.092153,0.050968,-0.119311,0.067426,-0.067504,-0.995438,0.008990,-0.015184,-0.001159,23.035921,19.147282,-64.814827,,,,,,,
1508076511.427161,0.069110,0.069239,1.699671,0.073014,0.033889,-0.097723,0.068889,-0.069184,-0.995223,0.016819,-0.009429,-0.001512,23.065649,19.076935,-64.824997,,,,,,,
1508076511.447166,0.070041,0.070968,1.698057,0.090457,-0.029041,-0.056304,0.069807,-0.070909,-0.995037,0.016359,0.000154,0.006176,23.132111,19.012733,-64.820183,,,,,,,
1508076511.467173,0.069502,0.072594,1.697189,0.093692,-0.006730,-0.027840,0.069264,-0.072530,-0.994958,-0.011448,0.009908,0.012124,23.094454,18.872398,-64.874596,,,,,,,
1508076511.487179,0.068958,0.074693,1.696627,0.132278,-0.023794,-0.023356,0.068712,-0.074624,-0.994842,-0.010103,0.008614,0.019805,23.060028,18.797005,-64.908722,,,,,,,
1508076511.507184,0.068368,0.077520,1.695919,0.116212,-0.021654,-0.026574,0.068110,-0.077442,-0.994668,-0.010904,-0.015896,0.039727,23.006382,18.672695,-64.963615,,,,,,,
1508076511.527190,0.067656,0.079306,1.695426,0.056367,-0.034447,-0.014614,0.067392,-0.079223,-0.994576,-0.010279,-0.008698,0.044030,22.944111,18.484594,-65.039391,,,,,,,
1508076511.547198,0.066893,0.079916,1.695023,0.010335,-0.040804,-0.026217,0.066630,-0.079831,-0.994579,-0.010966,-0.009341,0.039104,22.891581,18.419632,-65.076317,,,,,,,
1508076511.567201,0.066135,0.079358,1.694099,-0.038987,-0.038603,-0.055002,0.065879,-0.079275,-0.994674,-0.012900,0.001073,0.030745,22.843845,18.419250,-65.093193,,,,,,,
1508076511.587210,0.065688,0.078739,1.693238,-0.028233,-0.036510,-0.036913,0.065438,-0.078657,-0.994752,0.007911,-0.008501,0.013840,22.740398,18.526035,-65.099113,,,,,,,
1508076511.607193,0.064856,0.078539,1.692919,-0.013028,-0.072802,-0.001210,0.064610,-0.078458,-0.994821,0.007289,-0.007281,0.008676,22.708267,18.544376,-65.105110,,,,,,,
1508076511.627221,0.062695,0.078703,1.693113,0.015021,-0.134619,0.012461,0.062460,-0.078622,-0.994946,-0.001211,0.004205,0.014004,22.661339,18.535856,-65.123878,,,,,,,
1508076511.647229,0.059321,0.079064,1.693290,-0.011879,-0.095184,0.002313,0.059101,-0.078982,-0.995123,-0.016941,-0.001340,-0.002970,22.383053,18.500011,-65.230232,,,,,,,
1508076511.667235,0.058019,0.077807,1.693161,-0.047456,-0.036534,-0.025168,0.057811,-0.077729,-0.995297,-0.009151,0.014100,-0.016773,22.282801,18.526026,-65.257156,,,,,,,
1508076511.687241,0.057369,0.077092,1.692219,0.026272,-0.031173,-0.051959,0.057167,-0.077016,-0.995390,0.008873,0.009725,-0.028460,22.218616,18.640625,-65.246414,,,,,,,
1508076511.707247,0.057201,0.078283,1.691201,0.065809,-0.007755,-0.048063,0.056995,-0.078203,-0.995307,0.003918,-0.003081,0.001807,22.138329,18.613152,-65.281540,,,,,,,
1508076511.727254,0.057837,0.079118,1.689834,0.029180,0.044508,-0.076518,0.057624,-0.079035,-0.995205,0.005471,-0.007772,-0.001133,22.135256,18.567385,-65.295616,,,,,,,
1508076511.747258,0.059831,0.080227,1.688203,0.034543,0.050886,-0.068084,0.059603,-0.080141,-0.995000,0.019224,-0.015333,-0.007274,22.178875,18.541161,-65.288261,,,,,,,
1508076511.767248,0.061428,0.082513,1.687151,0.080723,0.029514,-0.037952,0.061180,-0.082419,-0.994718,-0.000420,-0.013162,0.000364,22.316166,18.427155,-65.273750,,,,,,,
1508076511.787271,0.062104,0.084687,1.685944,0.101983,0.050862,-0.062803,0.061842,-0.084586,-0.994495,-0.006559,-0.012185,0.009800,22.330597,18.335377,-65.294662,,,,,,,
