timestamp(unix),attitude_roll(radians),attitude_pitch(radians),attitude_yaw(radians),rotation_rate_x(radians/s),rotation_rate_y(radians/s),rotation_rate_z(radians/s),gravity_x(G),gravity_y(G),gravity_z(G),user_acc_x(G),user_acc_y(G),user_acc_z(G),magnetic_field_x(microteslas),magnetic_field_y(microteslas),magnetic_field_z(microteslas),latitude(degree),longitude(degree),altitude(meter),speed(m/s),course(degree),timestamp(unix),User Mark
1508184071.818374,0.035842,0.014417,-3.089494,0.007068,0.031910,-0.063843,0.035831,-0.014417,-0.999254,-0.015307,-0.004916,0.012331,21.481529,21.180735,-28.611036,,,,,,,
1508184071.838374,0.036493,0.014121,-3.091070,-0.022940,0.025566,-0.083989,0.036481,-0.014120,-0.999235,-0.015256,-0.010111,0.012144,21.476944,21.194622,-28.604191,,,,,,,
1508184071.858368,0.036436,0.013582,-3.092653,-0.045280,-0.011724,-0.078100,0.036425,-0.013582,-0.999244,0.000776,-0.007490,0.012718,21.437374,21.260719,-28.584816,,,,,,,
1508184071.878385,0.035584,0.012520,-3.093937,-0.040897,-0.025613,-0.058708,0.035573,-0.012519,-0.999289,-0.014089,0.001701,0.014731,21.393726,21.319597,-28.573664,,,,,,,
1508184071.898387,0.035242,0.012425,-3.095229,0.016832,-0.021341,-0.071609,0.035232,-0.012425,-0.999302,-0.014113,0.005467,0.015186,21.365641,21.342741,-28.577398,,,,,,,
1508184071.918397,0.034480,0.013218,-3.096773,0.009311,-0.016004,-0.077012,0.034470,-0.013217,-0.999318,-0.005326,-0.007702,0.019948,21.295364,21.368769,-28.610382,,,,,,,
1508184071.938415,0.034191,0.013194,-3.098253,-0.037773,-0.004294,-0.067550,0.034181,-0.013194,-0.999329,0.000441,-0.008901,0.016525,21.248360,21.394211,-28.626314,,,,,,,
1508184071.958419,0.034058,0.011946,-3.099358,-0.038721,-0.035205,-0.057504,0.034049,-0.011946,-0.999349,0.004876,0.012098,-0.000605,21.229183,21.427330,-28.615768,,,,,,,
1508184071.978426,0.032400,0.011388,-3.100575,-0.010846,-0.051198,-0.055161,0.032392,-0.011388,-0.999410,-0.019498,-0.000499,0.015005,21.163784,21.493710,-28.614429,,,,,,,
1508184071.998436,0.031562,0.011049,-3.101396,-0.004576,0.012687,-0.043296,0.031554,-0.011049,-0.999441,-0.031676,0.008348,0.015966,21.098852,21.521873,-28.641199,,,,,,,
1508184072.018443,0.030293,0.010109,-3.102764,-0.015365,-0.005342,-0.085679,0.030287,-0.010109,-0.999490,-0.026884,0.013436,0.013879,21.064802,21.552242,-28.643429,,,,,,,
1508184072.038422,0.029370,0.009953,-3.104440,-0.013033,-0.056500,-0.073209,0.029364,-0.009953,-0.999519,-0.012641,-0.003627,0.023002,20.990425,21.613747,-28.651686,,,,,,,
1508184072.058457,0.027546,0.009534,-3.105507,-0.026732,-0.099159,-0.046989,0.027541,-0.009534,-0.999575,-0.009108,-0.004763,0.024249,20.909300,21.645479,-28.687025,,,,,,,
1508184072.078455,0.024429,0.009145,-3.106514,-0.018141,-0.116196,-0.053146,0.024425,-0.009145,-0.999660,-0.026119,-0.001735,0.026363,20.824862,21.669481,-28.730291,,,,,,,
1508184072.098450,0.021169,0.009009,-3.107201,0.017986,0.003029,-0.022913,0.021167,-0.009009,-0.999735,-0.056018,0.011893,0.031886,20.710901,21.695610,-28.792881,,,,,,,
1508184072.118461,0.022091,0.010771,-3.107631,0.130186,0.056262,-0.022703,0.022088,-0.010771,-0.999698,-0.046579,0.013975,0.020496,20.675655,21.689966,-28.822451,,,,,,,
1508184072.138484,0.022084,0.013738,-3.108546,0.135704,-0.036349,-0.055486,0.022080,-0.013738,-0.999662,-0.028275,0.008336,0.013364,20.687235,21.623182,-28.864290,,,,,,,
1508184072.158478,0.019495,0.015294,-3.109359,0.042695,-0.026818,-0.020366,0.019492,-0.015294,-0.999693,-0.051581,0.003041,0.035429,20.620409,21.565304,-28.955265,,,,,,,
1508184072.178498,0.016824,0.014570,-3.109487,0.082194,-0.000208,-0.021848,0.016821,-0.014570,-0.999752,-0.045248,0.046812,0.032803,20.576111,21.551657,-28.996906,,,,,,,
1508184072.198481,0.016166,0.017010,-3.112009,0.124576,-0.031859,-0.180299,0.016163,-0.017009,-0.999725,-0.025867,0.050593,0.030120,20.468525,21.568449,-29.060497,,,,,,,
1508184072.218506,0.016108,0.018561,-3.115799,0.046380,0.003299,-0.173286,0.016105,-0.018560,-0.999698,-0.009055,0.016500,0.001102,20.355108,21.583923,-29.128590,,,,,,,
1508184072.238518,0.016703,0.017930,-3.118975,-0.006024,0.005421,-0.161548,0.016700,-0.017929,-0.999700,0.031991,0.029205,0.000371,20.300312,21.659109,-29.111015,,,,,,,
1508184072.258517,0.015817,0.017494,-3.122352,-0.040001,-0.082987,-0.160241,0.015814,-0.017493,-0.999722,0.054101,0.021567,0.003704,20.263634,21.694016,-29.110577,,,,,,,
1508184072.278504,0.015838,0.016331,-3.124475,-0.042931,-0.084213,-0.074916,0.015835,-0.016331,-0.999741,0.065449,0.001667,-0.015014,20.155914,21.818138,-29.092592,,,,,,,
1508184072.298533,0.014186,0.015934,-3.125569,-0.007545,-0.077888,-0.046244,0.014183,-0.015933,-0.999772,0.057625,0.018008,-0.045607,20.097113,21.851765,-29.108030,,,,,,,
1508184072.318546,0.012711,0.016252,-3.126484,0.029864,-0.070428,-0.052778,0.012709,-0.016251,-0.999787,0.070207,0.015381,-0.055312,20.047333,21.868937,-29.129454,,,,,,,
1508184072.338554,0.011570,0.017032,-3.127287,0.050236,-0.048128,-0.020062,0.011568,-0.017032,-0.999788,0.059339,-0.001981,-0.043913,19.957745,21.871853,-29.188721,,,,,,,
1508184072.358560,0.011990,0.018308,-3.127564,0.092902,-0.004457,-0.021793,0.011988,-0.018307,-0.999761,0.026510,0.010388,-0.025828,19.957932,21.845810,-29.208090,,,,,,,
1508184072.378568,0.012548,0.019779,-3.128710,0.048683,0.051058,-0.078013,0.012545,-0.019778,-0.999726,0.017088,0.010562,-0.016464,19.951859,21.824150,-29.228420,,,,,,,
1508184072.398573,0.013681,0.019452,-3.131035,-0.050970,0.028839,-0.141582,0.013678,-0.019450,-0.999717,0.050760,-0.031987,0.026741,19.938158,21.847033,-29.220678,,,,,,,
1508184072.418579,0.013158,0.016901,-3.134302,-0.172809,-0.045652,-0.163869,0.013156,-0.016901,-0.999771,0.087751,-0.059622,-0.006943,19.862175,21.965876,-29.183304,,,,,,,
1508184072.438563,0.012682,0.012741,-3.136935,-0.201658,-0.013772,-0.121658,0.012681,-0.012741,-0.999838,0.063094,-0.050919,-0.040140,19.795946,22.095829,-29.130156,,,,,,,
1508184072.458594,0.014738,0.010684,-3.139196,-0.088241,0.006419,-0.107107,0.014737,-0.010684,-0.999834,0.063571,-0.005216,-0.057691,19.782198,22.261429,-29.013176,,,,,,,
1508184072.478601,0.014654,0.009925,-3.140478,-0.010843,-0.029971,-0.030930,0.014653,-0.009925,-0.999843,0.079555,-0.026116,-0.034733,19.747343,22.327187,-28.986378,,,,,,,
1508184072.498608,0.012963,0.009973,-3.140644,0.002292,-0.102459,-0.006430,0.012962,-0.009973,-0.999866,0.074761,-0.027869,-0.024304,27.043640,20.470490,-28.329102,,,,,,,
1508184072.518615,0.013457,0.010807,-3.140723,-0.034235,-0.049185,-0.003976,0.013456,-0.010807,-0.999851,0.028704,-0.035351,-0.009457,27.054440,20.438934,-28.341572,,,,,,,
1508184072.538595,0.012872,0.009788,-3.141141,-0.041908,-0.018235,-0.032143,0.012872,-0.009788,-0.999869,0.026374,-0.024605,-0.013635,27.013203,20.467875,-28.360016,,,,,,,
1508184072.558628,0.012367,0.009849,3.141210,0.023373,-0.031016,-0.041604,0.012366,-0.009849,-0.999875,0.024530,-0.002923,-0.025012,26.994555,20.498104,-28.355938,,,,,,,
1508184072.578635,0.012881,0.010590,3.140734,0.010594,-0.024666,-0.017161,0.012880,-0.010589,-0.999861,0.025801,-0.016175,-0.005770,26.990990,20.500067,-28.357916,,,,,,,
1508184072.598643,0.012474,0.010451,3.140210,-0.014091,-0.016107,-0.032195,0.012473,-0.010451,-0.999868,0.005945,-0.012422,-0.005595,26.963394,20.507509,-28.378777,,,,,,,
1508184072.618626,0.012434,0.010562,3.139235,0.025366,-0.003274,-0.062267,0.012433,-0.010562,-0.999867,0.001727,-0.007169,-0.010738,26.947260,20.525930,-28.380783,,,,,,,
1508184072.638639,0.012347,0.011064,3.137667,0.056414,-0.023496,-0.074793,0.012345,-0.011064,-0.999863,0.016875,0.005662,-0.009018,26.906506,20.567368,-28.389450,,,,,,,
1508184072.658663,0.011468,0.011635,3.136485,0.012711,-0.054424,-0.050853,0.011467,-0.011635,-0.999867,0.036827,-0.013115,-0.016918,26.872149,20.574974,-28.416466,,,,,,,
1508184072.678666,0.010505,0.011785,3.135710,0.009528,-0.041681,-0.030776,0.010504,-0.011784,-0.999875,0.034265,-0.007457,-0.027926,26.833563,20.589741,-28.442221,,,,,,,
1508184072.698676,0.010221,0.011980,3.135207,0.009422,0.003043,-0.022894,0.010220,-0.011979,-0.999876,0.049228,0.004518,-0.040087,26.785692,20.606627,-28.475096,,,,,,,
1508184072.718684,0.014176,0.012259,3.134799,-0.017380,0.030742,-0.013678,0.014174,-0.012259,-0.999824,0.078569,-0.010126,-0.026146,26.884775,20.606804,-28.381435,,,,,,,
1508184072.738690,0.016148,0.012377,3.135271,0.032849,0.133909,0.060495,0.016146,-0.012377,-0.999793,0.085020,-0.011945,-0.003243,26.895298,20.614176,-28.366110,,,,,,,
1508184072.758696,0.017682,0.014209,3.138514,0.118294,0.008921,0.227520,0.017679,-0.014208,-0.999743,0.109045,-0.032255,0.010821,27.040838,20.504025,-28.307518,,,,,,,
1508184072.778704,0.015375,0.016957,-3.138907,0.129749,-0.157420,0.308830,0.015372,-0.016956,-0.999738,0.094201,-0.056210,0.022107,27.111721,20.284218,-28.397936,,,,,,,
1508184072.798711,0.012591,0.019139,-3.133393,0.084420,-0.097626,0.244019,0.012588,-0.019138,-0.999738,0.041947,-0.049145,0.029645,27.128292,20.165302,-28.466717,,,,,,,
1508184072.818717,0.009968,0.021302,-3.129845,0.008945,-0.018576,0.138432,0.009966,-0.021301,-0.999723,-0.031740,-0.023514,0.008177,27.167322,19.974089,-28.564135,,,,,,,
1508184072.838709,0.010423,0.021013,-3.127990,-0.009668,0.051866,0.072380,0.010420,-0.021011,-0.999725,-0.034544,0.019043,-0.050797,27.190163,19.822739,-28.647717,,,,,,,
1508184072.858714,0.011595,0.022179,-3.127273,0.104582,0.066875,0.010231,0.011592,-0.022177,-0.999687,-0.035808,0.032644,-0.058998,27.231327,19.792040,-28.629833,,,,,,,
1508184072.878720,0.013719,0.025347,-3.127771,0.178093,0.129791,-0.032322,0.013714,-0.025344,-0.999585,-0.040753,0.031631,-0.038227,27.264006,19.743402,-28.632318,,,,,,,
1508184072.898746,0.016717,0.029163,-3.128941,0.201418,0.151184,-0.079567,0.016709,-0.029159,-0.999435,-0.035858,0.027114,0.014984,27.353924,19.621405,-28.630419,,,,,,,
1508184072.918726,0.020078,0.033138,-3.131453,0.190430,0.177946,-0.143925,0.020065,-0.033132,-0.999250,-0.040634,0.021353,0.034284,27.391626,19.573530,-28.627142,,,,,,,
1508184072.938752,0.024222,0.036012,-3.134741,0.117516,0.202512,-0.167685,0.024204,-0.036004,-0.999058,-0.038013,0.005258,0.073064,27.426523,19.550970,-28.609138,,,,,,,
1508184072.958766,0.027666,0.037348,-3.138069,0.053526,0.141789,-0.157160,0.027643,-0.037340,-0.998920,-0.009699,0.000368,0.073414,27.485176,19.581034,-28.532187,,,,,,,
1508184072.978755,0.029963,0.038038,-3.141003,0.032341,0.093812,-0.134056,0.029937,-0.038029,-0.998828,-0.003219,0.008290,0.068759,27.499401,19.623419,-28.489326,,,,,,,
1508184072.998780,0.030990,0.038650,3.140004,0.033751,0.014919,-0.100924,0.030962,-0.038640,-0.998773,-0.005190,0.014135,0.051019,27.501427,19.679049,-28.448973,,,,,,,
1508184073.018787,0.031017,0.037636,3.138060,-0.023982,0.007457,-0.091176,0.030991,-0.037627,-0.998811,-0.010513,0.009673,0.049959,27.463396,19.758018,-28.430971,,,,,,,
1508184073.038783,0.031509,0.036485,3.136160,-0.072273,0.035200,-0.108603,0.031483,-0.036477,-0.998838,-0.022999,0.010064,0.041105,27.438599,19.805626,-28.421787,,,,,,,
1508184073.058783,0.032723,0.034913,3.133836,-0.069151,0.056519,-0.116378,0.032697,-0.034906,-0.998856,-0.008100,0.019022,-0.004135,27.407852,19.954197,-28.347433,,,,,,,
1508184073.078807,0.033697,0.032971,3.131968,-0.059360,0.042594,-0.078863,0.033672,-0.032965,-0.998889,-0.000927,0.010260,-0.002881,27.393238,20.066837,-28.281977,,,,,,,
1508184073.098811,0.034261,0.031783,3.130968,-0.055955,0.021207,-0.038036,0.034237,-0.031778,-0.998908,0.001224,0.007013,-0.002022,27.387964,20.119534,-28.249622,,,,,,,
1508184073.118822,0.034689,0.030900,3.130508,-0.032341,0.019030,-0.017763,0.034665,-0.030895,-0.998921,-0.015088,0.010387,0.017781,27.386341,20.177950,-28.209503,,,,,,,
1508184073.138828,0.033738,0.030444,3.130456,-0.012871,-0.028956,0.003178,0.033716,-0.030439,-0.998968,-0.015329,0.001768,0.020590,27.362759,20.198242,-28.217865,,,,,,,
1508184073.158809,0.032170,0.029508,3.130720,-0.078988,-0.090750,0.016920,0.032151,-0.029503,-0.999048,-0.012620,-0.034675,0.012307,27.342052,20.204966,-28.233120,,,,,,,
1508184073.178834,0.030283,0.027250,3.131013,-0.130361,-0.102427,0.003266,0.030267,-0.027247,-0.999170,-0.035821,-0.037985,-0.055914,27.285221,20.259872,-28.248745,,,,,,,
1508184073.198841,0.025126,0.027582,3.131405,-0.116094,-0.190906,0.029063,0.025114,-0.027579,-0.999304,-0.070479,-0.096521,-0.211267,27.157644,20.245291,-28.381824,,,,,,,
1508184073.218857,0.020312,0.025087,3.131765,-0.116181,-0.206802,-0.012292,0.020304,-0.025085,-0.999479,-0.106974,-0.126725,-0.297747,27.157644,20.245291,-28.381824,,,,,,,
1508184073.238858,0.020330,0.025540,3.128972,0.142088,0.141912,-0.236135,0.020322,-0.025538,-0.999467,-0.217694,-0.058065,-0.478789,26.948702,20.369741,-28.491728,,,,,,,
1508184073.258870,0.026002,0.032750,3.122096,0.484733,0.282701,-0.368522,0.025985,-0.032745,-0.999126,-0.102905,-0.134217,-0.584019,26.961458,20.371513,-28.478390,,,,,,,
1508184073.278859,0.030901,0.043206,3.114243,0.536382,0.197448,-0.357728,0.030867,-0.043193,-0.998590,-0.059523,-0.163900,-0.617438,26.961771,20.329370,-28.508190,,,,,,,
1508184073.298859,0.034982,0.054971,3.107568,0.686343,0.211140,-0.298326,0.034922,-0.054943,-0.997879,-0.034144,-0.107349,-0.754639,26.922976,20.135141,-28.682173,,,,,,,
1508184073.318890,0.039544,0.074963,3.100943,1.235462,0.169424,-0.281072,0.039423,-0.074893,-0.996412,0.019553,-0.079114,-0.737582,26.929295,19.791857,-28.914234,,,,,,,
1508184073.338894,0.041235,0.105709,3.095996,1.691234,0.045354,-0.086614,0.040993,-0.105512,-0.993573,0.063133,-0.103228,-0.696781,26.916615,19.485344,-29.133398,,,,,,,
1508184073.358894,0.042026,0.143326,3.096582,1.996055,0.042584,0.195767,0.041582,-0.142836,-0.988873,0.054197,-0.085298,-0.553135,26.932831,17.990196,-30.065147,,,,,,,
1508184073.378910,0.041994,0.187471,3.099082,2.323600,0.013727,0.202338,0.041246,-0.186375,-0.981613,0.065016,-0.009350,-0.460953,27.022751,16.585497,-30.783596,,,,,,,
1508184073.398908,0.043879,0.238430,3.100672,2.679441,0.163865,0.188174,0.042624,-0.236177,-0.970775,0.046991,0.057649,-0.380345,27.064020,15.799829,-31.158335,,,,,,,
1508184073.418915,0.047219,0.295504,3.101819,2.922270,0.186180,0.185535,0.045156,-0.291222,-0.955589,0.095179,0.127267,-0.101143,18.166351,18.800135,-43.694759,,,,,,,
1508184073.438931,0.050135,0.355599,3.103090,3.024161,0.143478,0.219134,0.046979,-0.348152,-0.936260,0.097232,0.194511,-0.017414,18.338240,16.791161,-44.434887,,,,,,,
1508184073.458918,0.052344,0.415727,3.104579,2.965328,0.142416,0.224525,0.047864,-0.403855,-0.913570,0.079639,0.272828,0.181499,18.487703,14.701571,-45.108337,,,,,,,
1508184073.478943,0.054520,0.473044,3.105769,2.771563,0.136137,0.192772,0.048509,-0.455598,-0.888863,0.094573,0.353242,0.405968,18.757765,10.554514,-46.145874,,,,,,,
1508184073.498952,0.057935,0.524861,3.106662,2.469479,0.240617,0.187218,0.050109,-0.501093,-0.863942,0.091844,0.402689,0.447194,18.890465,8.626625,-46.491127,,,,,,,
1508184073.518946,0.062847,0.570820,3.108130,2.181520,0.299239,0.205777,0.052848,-0.540323,-0.839797,0.081628,0.465417,0.528365,19.078255,6.845509,-46.710304,,,,,,,
1508184073.538941,0.067392,0.611014,3.109849,1.886323,0.247126,0.201423,0.055157,-0.573698,-0.817208,0.084965,0.502226,0.636361,19.513851,3.713596,-46.884029,,,,,,,
1508184073.558947,0.069494,0.644727,3.112415,1.553983,0.125717,0.229024,0.055499,-0.600980,-0.797335,0.087125,0.506589,0.634417,19.683001,2.385937,-46.899681,,,,,,,
1508184073.578978,0.068449,0.671872,3.116192,1.214028,0.036286,0.247637,0.053530,-0.622452,-0.780825,0.042768,0.500260,0.683703,19.779371,1.225912,-46.903805,,,,,,,
1508184073.598969,0.066074,0.691366,3.120773,0.781745,0.007672,0.228117,0.050865,-0.637590,-0.768695,-0.016212,0.494234,0.724215,19.840700,-0.553366,-46.890656,,,,,,,
1508184073.618993,0.064291,0.699007,3.123372,0.115522,0.039071,0.057553,0.049180,-0.643457,-0.763900,-0.004075,0.478479,0.715500,19.826653,-1.049353,-46.888123,,,,,,,
1508184073.638972,0.067515,0.693684,3.123608,-0.461052,0.234341,-0.036548,0.051872,-0.639374,-0.767144,-0.060265,0.436417,0.684823,19.855129,-1.149490,-46.873722,,,,,,,
1508184073.658997,0.074498,0.679989,3.122245,-0.778439,0.336896,-0.143361,0.057875,-0.628785,-0.775423,-0.057615,0.460389,0.591310,20.200472,-0.427727,-46.738113,,,,,,,
1508184073.679014,0.082016,0.662038,3.118710,-0.945305,0.212493,-0.237399,0.064617,-0.614725,-0.786090,-0.051052,0.428385,0.571383,20.418913,0.200287,-46.644630,,,,,,,
1508184073.698999,0.085904,0.639883,3.114927,-1.198340,0.009117,-0.247055,0.068825,-0.597101,-0.799208,-0.041160,0.339045,0.480314,20.561817,0.935005,-46.572853,,,,,,,
1508184073.719008,0.087270,0.610948,3.110789,-1.547272,-0.042841,-0.322814,0.071393,-0.573644,-0.815987,-0.048581,0.273641,0.313851,20.545982,2.849018,-46.502033,,,,,,,
1508184073.739034,0.090985,0.578328,3.105689,-1.589546,0.075529,-0.382079,0.076083,-0.546624,-0.833914,-0.100177,0.297052,0.216162,20.533405,4.470787,-46.379787,,,,,,,
1508184073.759028,0.096864,0.548481,3.098618,-1.350234,0.116109,-0.462820,0.082527,-0.521392,-0.849317,-0.104240,0.280746,0.208097,20.552830,5.279369,-46.286098,,,,,,,
1508184073.779031,0.102597,0.523877,3.090941,-1.125083,0.029656,-0.406287,0.088682,-0.500241,-0.861333,-0.062330,0.141034,0.223485,20.618122,7.388395,-45.967358,,,,,,,
1508184073.799056,0.099455,0.500918,3.087500,-1.179622,-0.484177,-0.203661,0.087093,-0.480231,-0.872808,-0.035228,0.069754,0.197911,20.541960,8.258476,-45.853233,,,,,,,
1508184073.819053,0.083646,0.468493,3.085996,-1.949971,-0.925970,-0.246793,0.074546,-0.451542,-0.889130,0.018410,-0.082943,0.108292,20.183828,9.147863,-45.843464,,,,,,,
1508184073.839051,0.068557,0.417477,3.084200,-2.833417,-0.722261,-0.260813,0.062620,-0.405456,-0.911967,-0.058409,-0.220170,-0.050359,18.938498,12.146252,-45.678169,,,,,,,
1508184073.859076,0.050619,0.353116,3.084905,-3.440850,-1.027093,-0.097058,0.047475,-0.345823,-0.937098,-0.025686,-0.304202,-0.153661,18.372831,14.246636,-45.300835,,,,,,,
1508184073.879084,0.024613,0.276107,3.089650,-4.156639,-1.422764,0.228041,0.023678,-0.272613,-0.961832,0.054386,-0.476487,-0.367635,17.408546,17.433439,-44.561317,,,,,,,
1508184073.899078,-0.018778,0.173153,3.098864,-5.797475,-2.449738,0.478752,-0.018496,-0.172289,-0.984873,0.230914,-0.650342,-0.711783,15.713124,22.313814,-42.987026,,,,,,,
1508184073.919096,-0.074502,0.037220,3.097505,-7.140336,-2.476430,0.144262,-0.074381,-0.037211,-0.996535,0.214945,-0.545095,-0.875855,14.125820,26.186148,-41.321182,,,,,,,
1508184073.939076,-0.092692,-0.088359,3.089996,-5.258157,0.153024,0.211347,-0.092198,0.088244,-0.991823,-0.435756,0.245008,-1.088484,12.723864,30.415882,-38.802979,,,,,,,
1508184073.959107,-0.069441,-0.134285,3.094726,-0.309958,1.181164,0.562731,-0.068760,0.133882,-0.988609,-0.196163,0.962127,-2.001351,13.276398,35.240211,-34.271824,,,,,,,
1508184073.979093,-0.061686,-0.083907,3.104374,3.845288,-0.178084,0.047241,-0.061430,0.083809,-0.994587,0.282011,0.545296,-1.620983,13.983742,34.640488,-34.600361,,,,,,,
1508184073.999110,-0.073799,0.005617,3.106033,4.547923,-0.695438,-0.215558,-0.073731,-0.005617,-0.997262,0.210526,0.107210,-1.370291,13.930266,32.623104,-36.529087,,,,,,,
1508184074.019105,-0.077157,0.088533,3.112484,3.833149,0.314048,0.051842,-0.076779,-0.088417,-0.993120,-0.338764,-0.269188,-0.499373,13.244568,27.569061,-40.708988,,,,,,,
1508184074.039138,-0.056177,0.155383,3.113170,3.076373,1.378191,-0.374615,-0.055471,-0.154759,-0.986394,-0.313929,-0.176418,-0.368159,13.632509,25.325083,-42.017715,,,,,,,
1508184074.059138,-0.024856,0.212898,3.103428,2.781901,1.456670,-0.696489,-0.024293,-0.211294,-0.977121,-0.058975,-0.037882,-0.221747,14.614269,22.860838,-43.087105,,,,,,,
1508184074.079133,0.004503,0.270044,3.088693,2.953831,1.169093,-0.736166,0.004340,-0.266774,-0.963749,0.104089,0.174092,-0.012340,15.743322,20.072056,-44.067604,,,,,,,
1508184074.099158,0.028109,0.333192,3.073744,3.272967,0.875789,-0.593532,0.026559,-0.327061,-0.944630,0.095603,0.254689,0.079930,16.252470,18.214594,-44.685333,,,,,,,
1508184074.119166,0.048474,0.399873,3.061567,3.366181,0.741060,-0.349598,0.044632,-0.389301,-0.920029,0.098785,0.292515,0.308426,16.692110,16.153358,-45.311543,,,,,,,
1508184074.139166,0.064133,0.464135,3.051348,3.099712,0.478911,-0.265624,0.057309,-0.447650,-0.892371,0.106799,0.309420,0.538519,17.495094,11.762730,-46.349251,,,,,,,
1508184074.159179,0.077284,0.519159,3.041162,2.554315,0.394842,-0.239470,0.067034,-0.496150,-0.865645,0.092360,0.338115,0.648955,17.848778,9.140976,-46.803387,,,,,,,
1508184074.179179,0.089195,0.561528,3.032108,1.893273,0.360825,-0.191564,0.075399,-0.532480,-0.843077,0.059596,0.379297,0.669600,18.009377,8.022923,-46.946655,,,,,,,
1508184074.199168,0.101670,0.591204,3.025195,1.289567,0.500386,-0.123825,0.084268,-0.557361,-0.825983,0.018302,0.454685,0.777399,18.517323,5.555475,-47.105614,,,,,,,
1508184074.219200,0.115596,0.611877,3.020870,0.931237,0.573757,-0.013725,0.094413,-0.574405,-0.813108,0.003915,0.497470,0.772856,19.030945,4.520519,-47.011505,,,,,,,
1508184074.239195,0.123371,0.626336,3.020349,0.557031,0.224237,0.095056,0.099700,-0.586180,-0.804023,0.016557,0.503859,0.759513,19.287550,4.097740,-46.945633,,,,,,,
1508184074.259186,0.123394,0.629990,3.022449,-0.077804,-0.008947,0.123439,0.099454,-0.589136,-0.801890,0.025775,0.425745,0.735911,19.587805,3.393475,-46.877453,,,,,,,
1508184074.279219,0.118515,0.621619,3.029121,-0.640043,-0.052779,0.272712,0.096120,-0.582352,-0.807234,-0.019292,0.389100,0.721815,19.572979,3.512115,-46.874908,,,,,,,
1508184074.299217,0.112506,0.604966,3.037257,-0.996618,-0.067424,0.183623,0.092344,-0.568734,-0.817321,-0.070081,0.405038,0.634490,19.537489,4.047930,-46.846497,,,,,,,
1508184074.319234,0.107904,0.579922,3.043051,-1.417619,-0.054272,0.051526,0.090087,-0.547959,-0.831640,-0.078399,0.334229,0.483358,19.472479,5.276688,-46.751175,,,,,,,
1508184074.339239,0.107409,0.548696,3.045146,-1.632689,0.072965,-0.159153,0.091466,-0.521575,-0.848289,-0.091908,0.341949,0.431937,19.459328,6.313793,-46.627930,,,,,,,
1508184074.359248,0.109313,0.513674,3.044358,-1.787002,0.074205,-0.227298,0.095016,-0.491381,-0.865746,-0.060775,0.254168,0.313729,19.499079,7.921341,-46.365200,,,,,,,
1508184074.379243,0.108886,0.478363,3.045271,-1.700546,-0.062443,-0.088895,0.096473,-0.460326,-0.882492,-0.016547,0.177154,0.225891,19.504505,10.068190,-45.944519,,,,,,,
1508184074.399251,0.102115,0.448339,3.050448,-1.402539,-0.324005,0.166329,0.091863,-0.433469,-0.896474,-0.038931,0.144757,0.198354,19.415737,11.196234,-45.720528,,,,,,,
1508184074.419245,0.088886,0.421399,3.058410,-1.421917,-0.582968,0.224481,0.081004,-0.409037,-0.908915,-0.054362,0.086116,0.140986,19.131836,12.400380,-45.529076,,,,,,,
1508184074.439271,0.076171,0.389575,3.064157,-1.718018,-0.469714,0.091905,0.070396,-0.379795,-0.922388,-0.047752,-0.055843,0.068049,18.567804,14.019685,-45.292149,,,,,,,
1508184074.459282,0.063474,0.350403,3.069301,-2.184982,-0.660329,0.119545,0.059577,-0.343277,-0.937343,-0.028968,-0.148697,0.060695,18.267630,15.212613,-45.028477,,,,,,,
1508184074.479273,0.043375,0.296633,3.075744,-3.051385,-1.055467,0.196301,0.041467,-0.292302,-0.955427,0.117209,-0.352305,-0.070574,17.676332,17.215836,-44.540497,,,,,,,
1508184074.499292,0.015558,0.221680,3.082542,-4.234691,-1.449360,0.223161,0.015176,-0.219869,-0.975411,0.193625,-0.472545,-0.296790,16.503654,20.793737,-43.450470,,,,,,,
1508184074.519302,-0.024401,0.112715,3.085588,-6.317090,-2.291187,0.097246,-0.024244,-0.112476,-0.993359,0.314558,-0.608395,-0.345448,15.521562,23.741096,-42.286346,,,,,,,
1508184074.539301,-0.068173,-0.031965,3.078561,-7.522299,-1.938078,-0.010402,-0.068086,0.031960,-0.997167,0.446717,-0.499718,-0.513910,14.158440,27.619205,-40.365967,,,,,,,
1508184074.559296,-0.085012,-0.164910,3.071309,-5.705231,-0.177270,0.306048,-0.083757,0.164164,-0.982871,0.100573,0.783590,-1.253961,12.401043,35.671013,-34.153866,,,,,,,
1508184074.579324,-0.076301,-0.226954,3.080473,-1.228731,0.416788,0.982906,-0.074272,0.225011,-0.971521,0.337654,0.998439,-1.738821,12.696854,37.921520,-31.518909,,,,,,,
1508184074.599324,-0.071721,-0.200512,3.108300,2.667579,-0.397593,1.299954,-0.070224,0.199171,-0.977445,0.553073,0.988405,-1.724688,13.433950,38.312668,-30.730471,,,,,,,
1508184074.619316,-0.078869,-0.134001,3.140256,3.509773,-0.647309,1.420236,-0.078081,0.133601,-0.987955,0.479387,-0.017024,-1.189154,14.477148,35.199894,-33.824150,,,,,,,
1508184074.639344,-0.077544,-0.071856,-3.102293,3.053973,0.247669,1.919424,-0.077266,0.071794,-0.994422,0.270260,-0.163683,-0.867059,15.333116,32.347679,-36.210724,,,,,,,
1508184074.659329,-0.058067,-0.020400,-3.061622,2.533861,1.182325,1.761243,-0.058022,0.020398,-0.998107,-0.012763,-0.026685,-0.409165,16.520395,30.287395,-37.449215,,,,,,,
1508184074.679358,-0.030723,0.026665,-3.025678,2.414134,1.409422,1.674867,-0.030707,-0.026662,-0.999173,0.071173,0.045858,-0.288211,18.963926,27.141182,-38.683578,,,,,,,
1508184074.699365,-0.009416,0.076270,-2.990779,2.611445,0.959744,1.724959,-0.009388,-0.076196,-0.997049,0.022266,0.125086,-0.298529,20.397419,25.219786,-39.250492,,,,,,,
1508184074.719360,0.002569,0.131737,-2.954783,2.860626,0.720933,1.793280,0.002547,-0.131356,-0.991332,-0.173690,0.240121,-0.017335,21.962173,22.380362,-40.118271,,,,,,,
1508184074.739378,0.010671,0.191080,-2.920368,2.995048,0.693503,1.643228,0.010476,-0.189920,-0.981744,-0.306253,0.327172,0.184731,23.577219,18.425976,-41.198196,,,,,,,
1508184074.759382,0.020193,0.250645,-2.890702,2.892101,0.860197,1.396705,0.019561,-0.248029,-0.968555,-0.405349,0.347959,0.350055,24.442911,15.992164,-41.707172,,,,,,,
1508184074.779392,0.030688,0.306186,-2.866258,2.634589,0.837299,1.160511,0.029256,-0.301424,-0.953041,-0.433934,0.359011,0.407982,25.559149,12.905607,-42.105446,,,,,,,
1508184074.799399,0.039957,0.354850,-2.846780,2.243477,0.739905,0.905239,0.037458,-0.347450,-0.936950,-0.453428,0.358009,0.580016,26.727518,9.505112,-42.284584,,,,,,,
1508184074.819406,0.046810,0.395066,-2.833038,1.815176,0.514763,0.614526,0.043189,-0.384869,-0.921960,-0.451636,0.361081,0.649331,27.267969,7.809089,-42.286751,,,,,,,
1508184074.839414,0.052433,0.425529,-2.824268,1.321412,0.447123,0.409015,0.047735,-0.412803,-0.909569,-0.478384,0.341621,0.702965,27.773855,6.006248,-42.251995,,,,,,,
1508184074.859406,0.059177,0.448006,-2.819078,1.006275,0.422014,0.219814,0.053306,-0.433169,-0.899735,-0.475105,0.376742,0.695649,28.297274,4.445221,-42.097477,,,,,,,
1508184074.879427,0.065007,0.464859,-2.818347,0.728993,0.249913,0.020987,0.058068,-0.448297,-0.891997,-0.442849,0.341592,0.680891,28.543673,3.782003,-41.995815,,,,,,,
1508184074.899434,0.068199,0.474336,-2.819615,0.316245,0.057377,-0.063348,0.060623,-0.456748,-0.887528,-0.416549,0.271552,0.634660,28.733711,3.204174,-41.914204,,,,,,,
1508184074.919423,0.071179,0.476104,-2.825375,-0.009953,0.000595,-0.392834,0.063210,-0.458320,-0.886537,-0.423043,0.307685,0.561479,28.768904,3.059534,-41.900871,,,,,,,
1508184074.939448,0.078569,0.471031,-2.838894,-0.318537,0.129176,-0.731418,0.069941,-0.453805,-0.888352,-0.397059,0.277657,0.497880,28.753979,3.328400,-41.890617,,,,,,,
1508184074.959437,0.092067,0.461154,-2.857886,-0.457863,0.307574,-0.966354,0.082334,-0.444982,-0.891747,-0.333783,0.297155,0.362847,28.826820,4.051138,-41.776741,,,,,,,
1508184074.979461,0.108589,0.450775,-2.879610,-0.361766,0.292792,-1.044052,0.097550,-0.435663,-0.894808,-0.250733,0.293970,0.208910,29.061573,5.224810,-41.482765,,,,,,,
1508184074.999468,0.117240,0.442338,-2.902287,-0.307635,-0.296270,-1.056876,0.105713,-0.428054,-0.897549,-0.133881,0.182235,0.151486,29.016035,6.103773,-41.394531,,,,,,,
1508184075.019475,0.113541,0.431318,-2.923254,-0.555281,-0.786357,-0.985605,0.102921,-0.418068,-0.902566,-0.146027,0.066918,0.169412,28.639687,6.766679,-41.553265,,,,,,,
1508184075.039482,0.101519,0.410205,-2.941656,-1.281905,-1.060068,-0.921377,0.092937,-0.398797,-0.912318,-0.167995,-0.126563,0.139948,27.554697,8.195974,-42.026871,,,,,,,
1508184075.059489,0.083855,0.368936,-2.955705,-2.471745,-1.268877,-0.760710,0.078121,-0.360623,-0.929434,-0.178829,-0.297580,0.030783,26.467800,10.101691,-42.309631,,,,,,,
1508184075.079495,0.054825,0.300950,-2.965339,-3.913206,-1.875857,-0.681517,0.052334,-0.296427,-0.953620,-0.155896,-0.371877,-0.141564,25.466206,12.175111,-42.378441,,,,,,,
1508184075.099502,0.007695,0.198725,-2.979186,-5.836273,-2.835684,-0.947658,0.007543,-0.197419,-0.980290,-0.198537,-0.437697,-0.315975,22.906883,17.268543,-42.068581,,,,,,,
1508184075.119492,-0.034667,0.069419,-3.005637,-6.599574,-1.803373,-1.435494,-0.034577,-0.069363,-0.996992,-0.349822,-0.270267,-0.232119,20.352642,22.958437,-40.637096,,,,,,,
1508184075.139516,-0.045608,-0.041600,-3.046279,-4.674540,0.279503,-1.849946,-0.045553,0.041588,-0.998096,-0.747278,0.663124,-0.803113,18.926466,27.213812,-38.650883,,,,,,,
1508184075.159502,-0.029264,-0.088019,-3.078940,-0.922209,0.945480,-1.356993,-0.029146,0.087905,-0.995702,-0.393003,0.827393,-1.241663,18.170362,31.484446,-35.654751,,,,,,,
1508184075.179514,-0.024722,-0.067087,-3.110577,1.853500,0.014822,-1.882995,-0.024664,0.067036,-0.997446,0.060476,0.644512,-1.049246,17.879971,31.891884,-35.438789,,,,,,,
1508184075.199530,-0.033148,-0.021034,3.129298,2.262227,-0.458425,-2.325351,-0.033135,0.021032,-0.999230,0.069679,0.355662,-0.930794,17.879971,31.891884,-35.438789,,,,,,,
1508184075.219543,-0.037704,0.022092,3.084517,1.949564,-0.006725,-2.307142,-0.037685,-0.022090,-0.999045,-0.315281,-0.006123,-0.431939,14.496966,30.040300,-38.472218,,,,,,,
1508184075.239551,-0.028075,0.060310,3.039068,1.801210,0.530295,-2.359604,-0.028020,-0.060274,-0.997789,-0.201350,-0.028410,-0.275435,13.567961,29.424383,-39.278614,,,,,,,
1508184075.259558,-0.018596,0.099491,2.990152,1.990279,0.037486,-2.580787,-0.018503,-0.099327,-0.994883,0.023706,0.063423,-0.216543,12.558077,28.595158,-40.215729,,,,,,,
1508184075.279563,-0.017758,0.142693,2.936519,2.165623,-0.432040,-2.723392,-0.017576,-0.142209,-0.989681,0.126799,0.040296,-0.081120,10.624868,27.272884,-41.665276,,,,,,,
1508184075.299570,-0.019269,0.187763,2.882683,2.206657,-0.512026,-2.681743,-0.018929,-0.186661,-0.982242,0.131707,0.072144,0.061023,9.226100,26.293852,-42.616970,,,,,,,
1508184075.319569,-0.016024,0.231973,2.827713,2.094525,-0.308388,-2.757121,-0.015594,-0.229898,-0.973090,0.257034,0.124353,0.174124,7.417766,24.836813,-43.826969,,,,,,,
1508184075.339585,-0.006014,0.270109,2.773408,1.731959,-0.127650,-2.535547,-0.005795,-0.266837,-0.963724,0.405667,0.108176,0.245722,5.512166,23.045279,-45.069107,,,,,,,
1508184075.359593,0.002004,0.300950,2.726210,1.436835,-0.441633,-2.095721,0.001914,-0.296427,-0.955054,0.518212,0.142008,0.144171,4.277144,21.812931,-45.810429,,,,,,,
1508184075.379598,0.001055,0.326520,2.685651,1.198725,-0.726449,-1.866422,0.000999,-0.320749,-0.947164,0.589302,0.283731,0.170903,3.241679,20.980190,-46.281925,,,,,,,
1508184075.399605,0.002266,0.346597,2.646897,0.866495,-0.461283,-1.782577,0.002132,-0.339699,-0.940532,0.622929,0.306221,0.200252,1.525817,19.782917,-46.893513,,,,,,,
1508184075.419584,0.008340,0.359020,2.612925,0.486889,-0.178515,-1.443043,0.007809,-0.351357,-0.936209,0.709782,0.318780,0.201224,0.540668,19.135841,-47.182846,,,,,,,
1508184075.439619,0.015616,0.365162,2.589384,0.260303,0.001480,-0.866482,0.014586,-0.357101,-0.933952,0.770967,0.360412,0.182182,0.081836,18.853134,-47.299534,,,,,,,
1508184075.459625,0.019715,0.371961,2.577480,0.437481,-0.046387,-0.389284,0.018366,-0.363443,-0.931435,0.794012,0.472239,0.157235,-0.269497,18.494526,-47.440208,,,,,,,
1508184075.479622,0.019278,0.382383,2.574262,0.538464,-0.090910,0.022878,0.017885,-0.373132,-0.927606,0.759642,0.403299,0.222726,-0.396695,18.147896,-47.572998,,,,,,,
1508184075.499610,0.015682,0.390650,2.580818,0.288200,-0.002269,0.473892,0.014500,-0.380790,-0.924548,0.621059,0.306022,0.285296,-0.449893,17.661243,-47.755325,,,,,,,
1508184075.519646,0.013412,0.391635,2.594779,-0.096973,0.245546,0.714770,0.012396,-0.381700,-0.924203,0.509943,0.294054,0.334954,-0.137117,17.444576,-47.836819,,,,,,,
1508184075.539654,0.015170,0.386765,2.611282,-0.326457,0.493654,0.789184,0.014049,-0.377194,-0.926028,0.422765,0.291379,0.346712,-0.015957,17.468052,-47.828445,,,,,,,
1508184075.559661,0.019827,0.378845,2.630367,-0.444023,0.611623,0.940043,0.018420,-0.369848,-0.928910,0.351346,0.252264,0.334107,1.054075,17.883575,-47.662983,,,,,,,
1508184075.579667,0.022723,0.369631,2.652338,-0.522569,0.507047,1.041850,0.021187,-0.361272,-0.932220,0.303383,0.202886,0.297683,2.183356,18.386219,-47.432827,,,,,,,
1508184075.599674,0.025366,0.357715,2.675959,-0.682003,0.597463,1.125963,0.023758,-0.350135,-0.936398,0.209839,0.162925,0.254498,2.399699,18.498192,-47.378815,,,,,,,
1508184075.619682,0.030935,0.342406,2.702097,-0.862013,0.813505,1.248788,0.029134,-0.335755,-0.941499,0.119593,0.146073,0.224702,3.870799,19.335808,-46.945042,,,,,,,
1508184075.639688,0.040735,0.326098,2.729739,-0.830376,1.003051,1.278005,0.038577,-0.320349,-0.946514,0.091183,0.202490,0.125240,5.505459,20.193829,-46.417591,,,,,,,
1508184075.659695,0.053200,0.313359,2.756963,-0.599663,1.111708,1.247466,0.050585,-0.308256,-0.949958,0.097364,0.200468,0.002478,5.867659,20.350040,-46.304859,,,,,,,
1508184075.679695,0.069402,0.307438,2.783957,-0.246874,1.270255,1.289687,0.066095,-0.302618,-0.950817,0.084067,0.185354,-0.081028,8.160790,20.940775,-45.690029,,,,,,,
1508184075.699708,0.085756,0.309284,2.813479,0.100689,1.224978,1.515072,0.081587,-0.304376,-0.949051,0.091646,0.112787,-0.050918,10.303379,20.800674,-45.319595,,,,,,,
1508184075.719715,0.094460,0.313565,2.851234,-0.028115,0.830922,2.024178,0.089721,-0.308452,-0.946999,0.049394,-0.167103,0.028283,12.001431,20.350277,-45.105713,,,,,,,
1508184075.739723,0.088282,0.312243,2.899906,-0.502367,0.215676,2.387468,0.083904,-0.307194,-0.947941,-0.061809,-0.323849,0.063175,13.110263,20.014288,-44.947105,,,,,,,
1508184075.759729,0.074840,0.293008,2.949709,-1.606924,0.090640,2.194977,0.071583,-0.288833,-0.954700,-0.156056,-0.501816,-0.034863,14.453594,20.061182,-44.512199,,,,,,,
1508184075.779736,0.064166,0.246534,2.996782,-3.021852,0.034829,2.048632,0.062183,-0.244044,-0.967768,-0.162846,-0.643361,-0.177022,15.433095,21.292166,-43.602257,,,,,,,
1508184075.799744,0.042803,0.165858,3.043136,-4.969977,-1.190794,2.062536,0.042203,-0.165098,-0.985374,-0.002393,-0.908251,-0.457925,16.021336,23.025703,-42.495026,,,,,,,
1508184075.819749,-0.007220,0.031598,3.085262,-7.787980,-2.651238,1.887498,-0.007217,-0.031592,-0.999475,0.032745,-0.881051,-0.564109,15.592325,28.077324,-39.512486,,,,,,,
1508184075.839756,-0.018637,-0.117084,3.121515,-6.282877,0.916648,2.021229,-0.018509,0.116817,-0.992981,-0.753372,0.605519,-0.797317,15.592407,33.317966,-35.206295,,,,,,,
1508184075.859765,0.002558,-0.169052,-3.125691,0.120150,0.241452,1.671139,0.002522,0.168247,-0.985742,-0.602665,1.359508,-2.307303,17.128536,35.371731,-32.375099,,,,,,,
1508184075.879761,-0.005720,-0.100569,-3.098521,4.581911,-1.047331,1.037104,-0.005691,0.100399,-0.994931,0.024017,0.870227,-2.094531,18.399323,33.451828,-33.691738,,,,,,,
1508184075.899778,-0.025628,-0.004343,-3.083596,4.825721,-0.745062,0.601752,-0.025625,0.004343,-0.999662,-0.081279,0.331503,-1.906130,18.200394,30.742388,-36.281464,,,,,,,
1508184075.919784,-0.024015,0.085933,-3.069036,4.386910,0.648528,0.524291,-0.023924,-0.085827,-0.996023,-0.629091,0.089291,-1.111536,18.134808,26.929096,-39.225578,,,,,,,
1508184075.939791,-0.003771,0.175158,-3.061723,4.618930,1.093294,0.212704,-0.003713,-0.174263,-0.984692,-0.312830,0.184273,-0.888919,19.232086,22.260841,-41.560497,,,,,,,
1508184075.959775,0.009505,0.275336,-3.059025,5.230646,0.387078,0.119056,0.009146,-0.271870,-0.962290,-0.179373,0.340138,-0.576711,19.483624,21.275402,-41.957584,,,,,,,
1508184075.979805,0.010417,0.384102,-3.058173,5.499358,-0.045424,0.094204,0.009658,-0.374727,-0.927085,-0.156280,0.400529,-0.215829,20.210091,14.539246,-44.416840,,,,,,,
1508184075.999813,0.010592,0.492881,-3.058621,5.366975,0.093309,-0.015405,0.009331,-0.473166,-0.880924,-0.195397,0.517950,0.091449,20.198734,8.308023,-45.996536,,,,,,,
1508184076.019804,0.019030,0.596524,-3.061404,5.076774,0.489719,-0.050793,0.015743,-0.561770,-0.827143,-0.151881,0.644687,0.374293,20.219656,7.072054,-46.193558,,,,,,,
1508184076.039826,0.033670,0.694289,-3.067868,4.757332,0.531614,-0.186581,0.025871,-0.639839,-0.768073,-0.062813,0.791161,0.546836,20.787588,-0.018799,-46.481922,,,,,,,
1508184076.059831,0.048689,0.783080,-3.077207,4.222028,0.357941,-0.099423,0.034495,-0.705466,-0.707904,0.017721,0.821891,0.717334,21.369295,-5.288425,-45.913826,,,,,,,
1508184076.079832,0.056702,0.857931,-3.083551,3.434623,0.037329,-0.012078,0.037064,-0.756491,-0.652953,0.078674,0.861075,0.823104,21.454227,-6.245758,-45.753685,,,,,,,
1508184076.099848,0.061961,0.915979,-3.092743,2.618034,-0.112310,-0.189500,0.037711,-0.793159,-0.607846,0.082375,0.969428,0.931775,21.584642,-11.029171,-44.778946,,,,,,,
1508184076.119753,0.068300,0.958672,-3.102190,1.878858,-0.034650,-0.046121,0.039215,-0.818429,-0.573267,0.002121,0.957330,0.991907,21.537029,-13.636213,-44.078377,,,,,,,
1508184076.139750,0.066660,0.988067,-3.101073,1.220480,-0.025395,0.202687,0.036656,-0.834964,-0.549082,-0.019185,0.992282,1.001536,21.483843,-15.094343,-43.626812,,,,,,,
1508184076.159782,0.064016,1.005083,-3.096028,0.617403,0.151653,0.168583,0.034290,-0.844206,-0.534921,-0.037174,0.987990,0.977425,21.446917,-15.636455,-43.453705,,,,,,,
1508184076.179788,0.064999,1.010168,-3.093797,0.037933,0.136198,-0.020560,0.034537,-0.846921,-0.530596,-0.038519,0.891965,0.865755,21.539272,-16.436037,-43.111595,,,,,,,
1508184076.199771,0.076699,1.003795,-3.101333,-0.506173,0.338273,-0.325912,0.041155,-0.843516,-0.535526,-0.079729,0.792566,0.752780,21.773455,-16.228001,-43.072754,,,,,,,
1508184076.219803,0.097247,0.985997,-3.116327,-1.074389,0.431588,-0.575287,0.053599,-0.833823,-0.549423,-0.075602,0.708945,0.719879,21.982161,-15.903069,-43.087936,,,,,,,
1508184076.239809,0.121837,0.955155,-3.133795,-1.716079,0.536397,-0.703215,0.070185,-0.816403,-0.573201,-0.038462,0.592343,0.609700,22.832031,-14.009075,-43.302860,,,,,,,
1508184076.259812,0.146206,0.912527,3.133304,-2.209682,0.571797,-0.765204,0.089123,-0.791052,-0.605222,-0.022870,0.513556,0.463682,23.338778,-12.543039,-43.481800,,,,,,,
1508184076.279823,0.164941,0.863279,3.120720,-2.435943,0.363083,-0.772670,0.106718,-0.759978,-0.641128,0.001940,0.438094,0.266235,23.987181,-10.223215,-43.735504,,,,,,,
1508184076.299831,0.174140,0.813216,3.111116,-2.392828,-0.077983,-0.748179,0.119059,-0.726501,-0.676773,-0.011866,0.408950,0.142273,24.430378,-7.109631,-44.105591,,,,,,,
1508184076.319829,0.178646,0.762258,3.099854,-2.480861,-0.135202,-0.889101,0.128525,-0.690556,-0.711768,-0.015732,0.279118,0.073356,24.402601,-5.224854,-44.383636,,,,,,,
1508184076.339844,0.184790,0.708943,3.089640,-2.603934,-0.006502,-0.776781,0.139468,-0.651032,-0.746127,-0.031405,0.091294,0.019992,24.371426,-2.573391,-44.632999,,,,,,,
1508184076.359851,0.181022,0.653468,3.088230,-2.772995,-0.385252,-0.458735,0.142944,-0.607944,-0.781007,0.071396,-0.045758,-0.144836,24.262756,0.805702,-44.758942,,,,,,,
1508184076.379857,0.168453,0.597368,3.090980,-2.755687,-0.661424,-0.322522,0.138623,-0.562468,-0.815116,0.032291,-0.086137,-0.235376,24.173851,1.482328,-44.789742,,,,,,,
1508184076.399865,0.149567,0.540542,3.097223,-2.958750,-0.858886,-0.095579,0.127766,-0.514601,-0.847857,0.076168,-0.339693,-0.313947,23.322422,5.466478,-44.931900,,,,,,,
1508184076.419871,0.122492,0.475680,3.109050,-3.502550,-1.227839,0.163959,0.108621,-0.457943,-0.882321,0.102149,-0.653370,-0.575809,22.265575,8.955263,-44.908134,,,,,,,
1508184076.439880,0.085367,0.395224,3.123231,-4.493891,-1.737941,0.215819,0.078691,-0.385015,-0.919549,0.138304,-0.802286,-0.651725,21.377621,11.380689,-44.790298,,,,,,,
1508184076.459882,0.036822,0.279897,3.133289,-6.758187,-2.649908,0.030279,0.035381,-0.276256,-0.960433,0.254246,-1.110691,-0.769853,19.790224,15.532513,-44.269417,,,,,,,
1508184076.479890,-0.020387,0.105963,3.132664,-9.597648,-2.528681,-0.041858,-0.020271,-0.105765,-0.994184,-0.230125,-0.207605,-0.783129,16.758173,23.754456,-41.804100,,,,,,,
1508184076.499900,-0.035139,-0.064164,3.137072,-7.162509,0.195176,0.690948,-0.035060,0.064120,-0.997326,-0.454518,0.692395,-1.275242,15.743265,29.376352,-38.495102,,,,,,,
1508184076.519899,-0.025413,-0.123615,-3.135406,-0.029820,0.263774,0.651547,-0.025217,0.123300,-0.992049,-0.113470,1.358008,-2.331651,16.114027,33.123249,-35.155113,,,,,,,
1508184076.539894,-0.034561,-0.055883,-3.124114,4.731747,-0.875274,0.212381,-0.034500,0.055854,-0.997843,0.177597,0.129083,-1.739874,16.717129,32.339100,-35.600750,,,,,,,
1508184076.559920,-0.048499,0.045881,-3.122168,5.102322,-0.339823,-0.186995,-0.048429,-0.045865,-0.997773,-0.038043,-0.199618,-1.244994,16.088320,28.618992,-38.920593,,,,,,,
1508184076.579928,-0.040068,0.137400,-3.120678,4.208494,0.873673,-0.173000,-0.039679,-0.136968,-0.989780,-0.217279,-0.316936,-0.555416,15.968146,26.654573,-40.339130,,,,,,,
1508184076.599934,-0.014149,0.213627,-3.124964,3.656454,1.355670,-0.359781,-0.013827,-0.212006,-0.977171,0.023532,-0.076202,-0.298754,16.954391,21.563103,-42.898422,,,,,,,
1508184076.619942,0.011097,0.287373,-3.132070,3.758178,0.977474,-0.353306,0.010642,-0.283434,-0.958933,0.065927,0.116625,-0.012228,17.700800,19.283190,-43.675320,,,,,,,
1508184076.639924,0.027196,0.365691,-3.140465,3.985553,0.520283,-0.278603,0.025395,-0.357594,-0.933532,0.033062,0.223607,0.255050,18.386168,16.050831,-44.687950,,,,,,,
1508184076.659955,0.039213,0.444003,3.135177,3.820213,0.451953,-0.180454,0.035402,-0.429558,-0.902345,0.030562,0.269097,0.427858,18.858662,11.680083,-45.832523,,,,,,,
1508184076.679959,0.052345,0.514436,3.129146,3.354838,0.548768,-0.061017,0.045549,-0.492044,-0.869378,0.042601,0.325159,0.468469,18.952316,10.819675,-46.004761,,,,,,,
1508184076.699969,0.064879,0.576126,3.123843,2.934654,0.434885,-0.056918,0.054368,-0.544780,-0.836815,0.071624,0.443934,0.589562,19.651955,6.115879,-46.573494,,,,,,,
1508184076.719975,0.074103,0.628634,3.117848,2.445328,0.180411,-0.053927,0.059882,-0.588041,-0.806612,0.081048,0.474836,0.700258,20.086958,2.862560,-46.701317,,,,,,,
1508184076.739982,0.078503,0.670348,3.113379,1.884071,0.087721,0.023546,0.061453,-0.621259,-0.781192,0.055262,0.505719,0.721774,20.171427,1.260826,-46.735611,,,,,,,
1508184076.759990,0.081472,0.702438,3.113614,1.454125,0.192961,0.186553,0.062116,-0.646081,-0.760737,-0.029432,0.616387,0.768077,20.268719,-0.466478,-46.708191,,,,,,,
1508184076.779996,0.084783,0.727771,3.114690,1.132819,0.188966,0.094084,0.063228,-0.665207,-0.743977,-0.008754,0.614609,0.764348,20.490545,-2.160492,-46.563538,,,,,,,
1508184076.800003,0.088990,0.743314,3.112623,0.522701,0.088218,-0.054346,0.065431,-0.676731,-0.733317,0.002333,0.575337,0.722132,20.612148,-2.880007,-46.470833,,,,,,,
1508184076.820010,0.091603,0.745457,3.110747,-0.110754,0.097933,-0.039084,0.067214,-0.678308,-0.731697,-0.055297,0.524164,0.678200,20.690718,-3.264959,-46.410427,,,,,,,
1508184076.840017,0.094155,0.737306,3.112457,-0.568828,0.226761,0.051094,0.069598,-0.672296,-0.737003,-0.105197,0.513849,0.621967,20.849651,-2.991764,-46.357685,,,,,,,
1508184076.860023,0.097348,0.722091,3.114296,-0.861275,0.199386,-0.073047,0.072937,-0.660955,-0.746872,-0.091248,0.513845,0.584580,21.008091,-2.550270,-46.312523,,,,,,,
1508184076.880029,0.102249,0.701103,3.110912,-1.149648,0.099832,-0.326233,0.077996,-0.645061,-0.760140,-0.100869,0.390483,0.456277,21.183508,-1.677591,-46.272434,,,,,,,
1508184076.900032,0.109318,0.671042,3.103652,-1.682126,0.152471,-0.481211,0.085444,-0.621802,-0.778499,-0.067576,0.289176,0.390224,21.320803,-0.001612,-46.239777,,,,,,,
1508184076.920044,0.117963,0.631253,3.096941,-2.038769,0.254830,-0.484560,0.095009,-0.590157,-0.801678,-0.067681,0.335412,0.281094,21.499107,1.923599,-46.117043,,,,,,,
1508184076.940052,0.125184,0.589187,3.091315,-2.038504,0.177046,-0.473836,0.103806,-0.555686,-0.824887,-0.012223,0.298682,0.197140,21.639688,3.502108,-45.958160,,,,,,,
1508184076.960058,0.129783,0.550353,3.087293,-1.802494,0.075606,-0.381906,0.110309,-0.522988,-0.845172,-0.025836,0.241921,0.117709,21.762318,6.017178,-45.638672,,,,,,,
1508184076.980064,0.130663,0.517816,3.085555,-1.498691,-0.076058,-0.218923,0.113211,-0.494983,-0.861496,-0.008398,0.141803,0.026168,21.766371,7.304848,-45.448406,,,,,,,
1508184077.000072,0.127346,0.487960,3.086607,-1.516384,-0.135905,-0.119942,0.112180,-0.468825,-0.876139,0.024051,0.075133,-0.022818,21.690851,8.404114,-45.294273,,,,,,,
1508184077.020079,0.125152,0.455730,3.088877,-1.655662,-0.026245,-0.072378,0.112086,-0.440118,-0.890917,0.079732,-0.069693,-0.138884,21.509813,10.575062,-44.924263,,,,,,,
1508184077.040074,0.122297,0.421990,3.093314,-1.711862,-0.080775,0.036151,0.111291,-0.409577,-0.905462,0.127768,-0.186538,-0.218821,21.470417,12.098351,-44.557205,,,,,,,
1508184077.060093,0.113872,0.389217,3.101714,-1.658860,-0.376330,0.272852,0.105127,-0.379464,-0.919215,0.117712,-0.282188,-0.161169,21.392776,13.197159,-44.281796,,,,,,,
1508184077.080099,0.097754,0.352510,3.112913,-2.126289,-0.724685,0.343299,0.091597,-0.345255,-0.934028,0.218828,-0.561331,-0.240517,20.976221,14.962633,-43.918232,,,,,,,
1508184077.100102,0.076650,0.295724,3.125380,-3.376640,-0.918231,0.336380,0.073251,-0.291432,-0.953783,0.273230,-0.686503,-0.299681,20.544001,16.438168,-43.593853,,,,,,,
1508184077.120088,0.050833,0.209003,3.138243,-5.047691,-1.404634,0.341489,0.049705,-0.207484,-0.976975,0.355874,-0.797826,-0.479263,19.855537,19.381008,-42.694584,,,,,,,
1508184077.140121,0.008480,0.078536,-3.138250,-7.504095,-2.289621,0.005353,0.008454,-0.078456,-0.996882,0.489013,-0.497533,-0.582403,18.218245,25.130917,-40.363670,,,,,,,
1508184077.160125,-0.022245,-0.077130,-3.134237,-7.420721,-0.896413,0.586480,-0.022177,0.077053,-0.996780,0.138922,0.624607,-1.065247,17.760990,26.631327,-39.598141,,,,,,,
1508184077.180134,-0.020796,-0.181814,-3.113439,-3.449054,0.218237,1.480089,-0.020452,0.180814,-0.983305,0.145620,0.905016,-1.417223,16.962706,34.421417,-33.468285,,,,,,,
1508184077.200141,-0.015300,-0.177964,-3.077403,2.216426,-0.417516,1.740971,-0.015058,0.177026,-0.984091,0.498380,0.908560,-1.517298,18.468184,35.263210,-31.750992,,,,,,,
1508184077.220128,-0.026459,-0.102708,-3.051162,4.155939,-0.738147,0.962567,-0.026317,0.102527,-0.994382,0.412929,0.452969,-1.248965,18.950634,33.351902,-33.484585,,,,,,,
1508184077.240155,-0.027674,-0.031074,-3.028916,3.283245,0.373837,1.131565,-0.027657,0.031069,-0.999135,-0.112251,-0.270723,-0.582805,19.143167,30.198713,-36.252865,,,,,,,
1508184077.260161,-0.007937,0.020912,-3.003220,2.296509,1.245264,1.222033,-0.007935,-0.020910,-0.999750,-0.004455,-0.141397,-0.418387,20.556747,26.826508,-38.084797,,,,,,,
1508184077.280150,0.016834,0.063209,-2.979031,2.091115,1.236774,1.231907,0.016800,-0.063167,-0.997862,0.096176,0.073634,-0.298800,21.773153,25.182747,-38.528595,,,,,,,
1508184077.300167,0.032748,0.109324,-2.956391,2.408313,0.629673,1.150904,0.032547,-0.109106,-0.993497,0.002213,0.171423,-0.154635,22.931108,23.549088,-38.888279,,,,,,,
1508184077.320163,0.038210,0.162541,-2.934389,2.724952,0.379121,1.222543,0.037697,-0.161827,-0.986099,-0.184243,0.204338,0.181976,24.430786,19.812250,-40.041290,,,,,,,
1508184077.340184,0.042245,0.218899,-2.911304,2.750414,0.468567,1.236155,0.041225,-0.217155,-0.975266,-0.237773,0.224541,0.350205,25.209898,16.958881,-40.860134,,,,,,,
1508184077.360197,0.047469,0.272231,-2.889454,2.518690,0.555116,1.132709,0.045703,-0.268881,-0.962088,-0.253055,0.275534,0.417746,25.606203,15.527449,-41.181477,,,,,,,
1508184077.380203,0.052639,0.319877,-2.869686,2.207107,0.504276,1.025983,0.049946,-0.314450,-0.947959,-0.293979,0.316495,0.552299,26.746273,11.560144,-41.757553,,,,,,,
1508184077.400210,0.054316,0.361221,-2.851886,1.914013,0.322471,0.892357,0.050785,-0.353416,-0.934087,-0.333348,0.363579,0.613332,27.307964,9.277143,-41.963116,,,,,,,
1508184077.420210,0.054121,0.396951,-2.837763,1.642794,0.231399,0.657162,0.049888,-0.386609,-0.920894,-0.350670,0.378308,0.642848,27.511738,8.248881,-42.044662,,,,,,,
1508184077.440223,0.054937,0.425890,-2.827756,1.281578,0.242495,0.480266,0.050004,-0.413131,-0.909298,-0.351365,0.343918,0.702724,27.949497,5.707971,-42.177460,,,,,,,
1508184077.460231,0.056509,0.447619,-2.819946,0.936681,0.247042,0.380226,0.050914,-0.432820,-0.900041,-0.353145,0.360356,0.692888,28.136637,4.762945,-42.170341,,,,,,,
1508184077.480238,0.056887,0.462231,-2.814587,0.572866,0.042977,0.195790,0.050890,-0.445946,-0.893612,-0.342027,0.343774,0.658855,28.356293,3.804363,-42.120552,,,,,,,
1508184077.500245,0.056836,0.468273,-2.813962,0.142045,0.017969,-0.029580,0.050690,-0.451346,-0.890908,-0.356446,0.327963,0.587655,28.405533,3.223946,-42.135796,,,,,,,
1508184077.520248,0.059517,0.466480,-2.817408,-0.202418,0.122858,-0.234507,0.053127,-0.449745,-0.891576,-0.345104,0.343666,0.520100,28.413313,3.227057,-42.130310,,,,,,,
1508184077.540258,0.067912,0.459557,-2.825034,-0.376983,0.288460,-0.458568,0.060819,-0.443551,-0.894183,-0.286131,0.360665,0.407718,28.525364,3.563608,-42.027348,,,,,,,
1508184077.560265,0.078374,0.448860,-2.838682,-0.560583,0.177241,-0.751116,0.070538,-0.433939,-0.898177,-0.186719,0.306253,0.321181,28.741625,4.392437,-41.800941,,,,,,,
1508184077.580265,0.088658,0.434926,-2.855575,-0.634613,0.143354,-0.842271,0.080298,-0.421343,-0.903339,-0.196097,0.300478,0.235279,28.761744,4.617620,-41.762821,,,,,,,
1508184077.600278,0.097298,0.422201,-2.873486,-0.506962,-0.000416,-0.876536,0.088614,-0.409769,-0.907875,-0.206199,0.216013,0.211479,28.796322,6.109504,-41.546829,,,,,,,
1508184077.620285,0.101509,0.411410,-2.890745,-0.441874,-0.241282,-0.822976,0.092880,-0.399902,-0.911840,-0.219680,0.152237,0.207296,28.596539,7.231112,-41.504730,,,,,,,
1508184077.640294,0.100892,0.399588,-2.908211,-0.590193,-0.449909,-0.883817,0.092786,-0.389039,-0.916537,-0.250348,0.042603,0.191836,28.516237,7.440421,-41.522980,,,,,,,
1508184077.660300,0.095667,0.377953,-2.926444,-1.305651,-0.688162,-0.973660,0.088779,-0.369019,-0.925172,-0.225071,-0.144867,0.118837,27.759109,8.935924,-41.740562,,,,,,,
1508184077.680304,0.082668,0.337447,-2.942093,-2.363349,-1.126999,-0.860938,0.077917,-0.331079,-0.940381,-0.267019,-0.255285,0.002575,27.186722,10.156470,-41.838039,,,,,,,
1508184077.700291,0.057902,0.274953,-2.955730,-3.523118,-1.607022,-0.913886,0.055696,-0.271502,-0.960825,-0.309038,-0.237333,-0.134893,26.421858,11.825884,-41.889465,,,,,,,
1508184077.720308,0.026285,0.184425,-2.973807,-5.151820,-1.829864,-1.138687,0.025836,-0.183381,-0.982702,-0.323352,-0.305297,-0.275476,24.097795,16.782404,-41.597363,,,,,,,
1508184077.740315,-0.002629,0.065361,-2.992583,-6.203188,-1.345451,-0.873016,-0.002624,-0.065315,-0.997861,-0.398148,0.191718,-0.538333,21.812723,22.993366,-39.852272,,,,,,,
1508184077.760319,-0.017099,-0.050714,-3.009088,-5.282921,-0.451203,-0.713935,-0.017076,0.050692,-0.998568,-0.302153,0.642484,-0.956617,20.875246,26.845936,-37.897408,,,,,,,
1508184077.780341,-0.024242,-0.124319,-3.026891,-2.532390,-0.114866,-0.920274,-0.024053,0.123999,-0.991991,-0.125987,0.814874,-1.209959,20.123520,30.786072,-35.212997,,,,,,,
1508184077.800322,-0.028946,-0.128823,-3.052725,1.063095,-0.090044,-1.532190,-0.028702,0.128467,-0.991298,-0.152115,0.751996,-1.173695,19.179577,32.695572,-33.997601,,,,,,,
1508184077.820347,-0.035260,-0.081562,-3.088254,2.677653,-0.135411,-1.953932,-0.035135,0.081472,-0.996056,-0.095709,0.479777,-1.026084,18.304539,32.296902,-34.850357,,,,,,,
1508184077.840362,-0.037105,-0.028606,-3.126241,2.415666,0.127838,-1.989542,-0.037081,0.028602,-0.998903,-0.031522,-0.072303,-0.472594,16.988068,31.101614,-36.562122,,,,,,,
1508184077.860368,-0.034362,0.014892,3.119448,1.954767,0.107568,-1.916394,-0.034351,-0.014892,-0.999299,-0.011486,-0.132707,-0.276794,15.611797,29.766741,-38.247955,,,,,,,
1508184077.880351,-0.033582,0.053562,3.083866,1.880799,-0.106712,-1.822596,-0.033528,-0.053536,-0.998003,0.046116,-0.049094,-0.138868,14.815243,29.093157,-39.074165,,,,,,,
1508184077.900382,-0.035473,0.094738,3.046340,2.060465,-0.287454,-2.019508,-0.035306,-0.094596,-0.994889,0.157285,0.007041,0.020601,13.647783,28.108616,-40.203697,,,,,,,
1508184077.920389,-0.037235,0.137972,3.007003,2.067081,-0.334361,-2.001772,-0.036872,-0.137535,-0.989810,0.275215,-0.020623,0.121372,11.959111,26.632042,-41.718193,,,,,,,
1508184077.940373,-0.039622,0.177378,2.970058,1.767371,-0.460356,-1.815249,-0.038990,-0.176449,-0.983537,0.338856,-0.041965,0.234590,10.959072,25.699137,-42.569317,,,,,,,
1508184077.960403,-0.042908,0.209814,2.938277,1.459196,-0.481141,-1.503357,-0.041954,-0.208278,-0.977170,0.343956,0.032100,0.268658,9.672793,24.583672,-43.528999,,,,,,,
1508184077.980409,-0.048595,0.238855,2.910989,1.357362,-0.639032,-1.371968,-0.047196,-0.236591,-0.970462,0.355790,0.112628,0.325611,8.212685,23.331747,-44.507019,,,,,,,
1508184078.000401,-0.052984,0.265561,2.883330,1.176974,-0.480176,-1.417855,-0.051103,-0.262450,-0.963591,0.479753,0.133178,0.319625,7.033293,22.368626,-45.198128,,,,,,,
1508184078.020425,-0.053253,0.286152,2.856645,0.811137,-0.348311,-1.259548,-0.051064,-0.282263,-0.957977,0.535607,0.160986,0.321655,6.281267,21.761389,-45.603519,,,,,,,
1508184078.040429,-0.053463,0.298897,2.834737,0.464231,-0.317920,-0.965429,-0.051068,-0.294466,-0.954296,0.625226,0.208315,0.279095,5.840353,21.444443,-45.811783,,,,,,,
1508184078.060429,-0.054713,0.307511,2.819739,0.372175,-0.263245,-0.595080,-0.052120,-0.302687,-0.951664,0.645321,0.242034,0.251301,5.081064,21.029131,-46.093948,,,,,,,
1508184078.080417,-0.057201,0.315339,2.812708,0.389342,-0.228847,-0.219187,-0.054350,-0.310139,-0.949136,0.647078,0.267628,0.199289,4.304693,20.590471,-46.370201,,,,,,,
1508184078.100436,-0.060490,0.322397,2.810991,0.275109,-0.131157,-0.048844,-0.057338,-0.316841,-0.946744,0.592891,0.189689,0.224591,3.962415,20.172087,-46.584114,,,,,,,
1508184078.120457,-0.061132,0.323704,2.813004,-0.050103,0.083658,0.173275,-0.057921,-0.318081,-0.946293,0.508101,0.174556,0.242161,3.907890,20.035921,-46.647438,,,,,,,
1508184078.140466,-0.057440,0.319519,2.817854,-0.257112,0.362593,0.277081,-0.054503,-0.314110,-0.947821,0.466445,0.183800,0.241522,4.096339,20.096237,-46.605309,,,,,,,
1508184078.160473,-0.049996,0.313405,2.825457,-0.283872,0.551872,0.447097,-0.047541,-0.308299,-0.950101,0.429408,0.175380,0.216519,4.433404,20.254959,-46.505646,,,,,,,
1508184078.180455,-0.043241,0.308603,2.836049,-0.174190,0.451565,0.520978,-0.041186,-0.303728,-0.951868,0.359743,0.153200,0.206842,5.264703,20.516674,-46.303810,,,,,,,
1508184078.200486,-0.036446,0.303752,2.847009,-0.288868,0.567605,0.570564,-0.034770,-0.299103,-0.953587,0.300380,0.087402,0.207463,5.745411,20.599621,-46.209732,,,,,,,
1508184078.220493,-0.026904,0.294380,2.861644,-0.529468,0.749388,0.786700,-0.025744,-0.290147,-0.956636,0.198565,0.031694,0.161256,6.953247,20.936333,-45.891346,,,,,,,
1508184078.240498,-0.015916,0.282883,2.877700,-0.536131,0.791008,0.749847,-0.015282,-0.279125,-0.960133,0.173989,0.115963,0.091542,7.728642,21.229996,-45.631664,,,,,,,
1508184078.260508,-0.003617,0.274396,2.891924,-0.336420,0.823097,0.658596,-0.003482,-0.270965,-0.962583,0.136569,0.125961,0.057935,8.508033,21.501801,-45.364956,,,,,,,
1508184078.280514,0.010601,0.269906,2.904688,-0.186166,0.957419,0.588292,0.010217,-0.266641,-0.963742,0.070746,0.034951,0.005597,10.062017,21.748009,-44.927425,,,,,,,
1508184078.300507,0.029949,0.267295,2.916945,-0.091658,1.208781,0.593106,0.028881,-0.264123,-0.964056,0.063069,0.048730,0.002112,10.947358,21.774780,-44.706905,,,,,,,
1508184078.320528,0.052466,0.268087,2.929249,0.096458,1.306689,0.616070,0.050568,-0.264887,-0.962953,0.071548,0.065378,0.017015,11.947801,21.734367,-44.469776,,,,,,,
1508184078.340535,0.072961,0.273278,2.943238,0.271792,1.128513,0.735816,0.070191,-0.269889,-0.960330,0.091018,0.002815,0.013903,14.046692,21.330523,-44.049889,,,,,,,
1508184078.360539,0.085721,0.279296,2.961759,0.134869,0.728466,1.045616,0.082298,-0.275679,-0.957720,0.045967,-0.169161,0.040072,14.987221,20.974865,-43.910492,,,,,,,
1508184078.380549,0.088882,0.277371,2.988493,-0.447413,0.434992,1.386194,0.085372,-0.273828,-0.957982,-0.030288,-0.230246,0.069860,16.043465,20.579342,-43.724037,,,,,,,
1508184078.400555,0.087169,0.261162,3.021269,-1.307746,0.278258,1.572518,0.084107,-0.258203,-0.962423,-0.083649,-0.424170,-0.018275,16.522470,20.518068,-43.574192,,,,,,,
1508184078.420536,0.077387,0.221335,3.060602,-2.669815,-0.203401,1.830039,0.075424,-0.219532,-0.972685,-0.072998,-0.573375,-0.156404,17.847565,21.300409,-42.666737,,,,,,,
1508184078.440569,0.057064,0.149101,3.105267,-4.523616,-0.960636,1.989561,0.056400,-0.148549,-0.987295,-0.096012,-0.706462,-0.299951,18.444920,23.047256,-41.488579,,,,,,,
1508184078.460573,0.019128,0.026666,-3.137652,-7.250822,-1.905053,1.575584,0.019120,-0.026663,-0.999462,-0.125428,-0.446405,-0.358464,18.316938,27.397034,-38.814758,,,,,,,
1508184078.480555,0.000026,-0.123292,-3.108873,-7.215145,-0.546291,1.275415,0.000026,0.122979,-0.992409,-0.525553,0.682639,-0.943962,18.093180,31.210255,-35.933968,,,,,,,
1508184078.500579,0.002804,-0.221909,-3.086769,-3.022241,0.158288,1.053056,0.002735,0.220092,-0.975475,-0.432316,0.905274,-1.422154,18.433599,34.524570,-32.572231,,,,,,,
1508184078.520596,0.009339,-0.205501,-3.062684,2.955439,-0.161990,1.191835,0.009142,0.204057,-0.978916,-0.148272,1.185683,-1.882381,19.715385,35.901459,-30.250324,,,,,,,
1508184078.540593,0.001435,-0.106321,-3.045489,5.539406,-0.665436,0.662981,0.001427,0.106121,-0.994352,-0.195839,0.340107,-1.502703,20.122360,33.720268,-32.414925,,,,,,,
1508184078.560609,-0.004791,-0.003415,-3.034754,4.878913,-0.005610,0.521686,-0.004791,0.003415,-0.999983,-0.317414,-0.007748,-1.193316,20.125639,30.751801,-35.241722,,,,,,,
1508184078.580616,0.003748,0.086793,-3.024621,4.355587,0.623224,0.413793,0.003734,-0.086684,-0.996229,-0.350154,0.079498,-0.784960,20.651045,25.046169,-39.229034,,,,,,,
1508184078.600595,0.015342,0.173606,-3.020884,4.396801,0.515077,0.155153,0.015110,-0.172736,-0.984852,-0.128697,0.195410,-0.563640,21.293671,21.449564,-40.977909,,,,,,,
1508184078.620631,0.019709,0.265370,-3.020257,4.698724,0.034693,0.098981,0.019018,-0.262267,-0.964808,-0.092413,0.310073,-0.290243,21.588190,18.615574,-42.191277,,,,,,,
1508184078.640637,0.017120,0.360462,-3.019986,4.720668,-0.147470,0.100540,0.016019,-0.352707,-0.935597,-0.066785,0.357010,0.020664,21.593119,13.460469,-44.104946,,,,,,,
1508184078.660646,0.016798,0.452164,-3.019760,4.483493,0.074181,0.088973,0.015110,-0.436913,-0.899377,-0.038440,0.419594,0.285500,21.545609,10.308422,-44.969067,,,,,,,
1508184078.680652,0.017918,0.536465,-3.017956,4.026948,0.071941,0.201310,0.015400,-0.511100,-0.859383,0.025173,0.423210,0.493096,21.634424,6.247490,-45.668522,,,,,,,
1508184078.700658,0.014205,0.610376,-3.014085,3.512973,-0.152732,0.219882,0.011640,-0.573176,-0.819350,0.059070,0.545237,0.677321,21.655350,1.674175,-46.053627,,,,,,,
1508184078.720646,0.007731,0.676219,-3.010199,3.178116,-0.242009,0.160649,0.006030,-0.625849,-0.779921,0.011106,0.663339,0.800780,21.535955,-0.757530,-46.133743,,,,,,,
1508184078.740673,0.001631,0.736264,-3.009039,2.874821,-0.259722,0.000122,0.001209,-0.671525,-0.740981,0.022946,0.696610,0.921554,21.300764,-3.719515,-46.099197,,,,,,,
1508184078.760679,-0.002181,0.786982,-3.010135,2.291365,-0.208369,-0.037506,-0.001540,-0.708226,-0.705984,0.046782,0.636189,0.980032,21.018810,-6.860535,-45.867592,,,,,,,
1508184078.780672,-0.007681,0.822907,-3.007815,1.498956,-0.171267,0.152352,-0.005224,-0.733126,-0.680073,0.038503,0.643267,1.029087,20.972370,-7.381968,-45.807854,,,,,,,
1508184078.800693,-0.014388,0.844036,-3.000904,0.816021,-0.013583,0.223086,-0.009560,-0.747331,-0.664384,-0.008873,0.755418,1.044175,20.710814,-9.656260,-45.502884,,,,,,,
1508184078.820699,-0.014982,0.854233,-2.997318,0.346218,0.141400,0.019660,-0.009840,-0.754067,-0.656723,-0.015566,0.773492,0.964066,20.712135,-10.538879,-45.305992,,,,,,,
