timestamp(unix),attitude_roll(radians),attitude_pitch(radians),attitude_yaw(radians),rotation_rate_x(radians/s),rotation_rate_y(radians/s),rotation_rate_z(radians/s),gravity_x(G),gravity_y(G),gravity_z(G),user_acc_x(G),user_acc_y(G),user_acc_z(G),magnetic_field_x(microteslas),magnetic_field_y(microteslas),magnetic_field_z(microteslas),latitude(degree),longitude(degree),altitude(meter),speed(m/s),course(degree),timestamp(unix),User Mark
1508436980.713204,-0.091972,0.039507,-0.697603,0.165885,0.068108,-0.048365,-0.091771,-0.039496,-0.994997,0.029622,-0.007302,0.021150,-2.767115,3.144172,-53.689522,,,,,,,
1508436980.733183,-0.090229,0.043505,-0.697948,0.204387,0.086186,-0.037993,-0.090021,-0.043491,-0.994990,0.027261,-0.005871,0.020991,-2.727871,3.049859,-53.696968,,,,,,,
1508436980.753196,-0.086746,0.047140,-0.699203,0.149525,0.119345,-0.097080,-0.086541,-0.047123,-0.995133,0.017754,-0.015881,0.034516,-2.509927,2.733691,-53.724617,,,,,,,
1508436980.773217,-0.082630,0.049130,-0.700799,0.063635,0.238631,-0.076353,-0.082436,-0.049110,-0.995386,0.007546,-0.021599,0.041070,-2.389219,2.629227,-53.735332,,,,,,,
1508436980.793199,-0.078269,0.050474,-0.702422,0.064803,0.188595,-0.091623,-0.078090,-0.050453,-0.995669,0.046809,0.014579,0.011111,-2.204143,2.572885,-53.745968,,,,,,,
1508436980.813225,-0.071246,0.051021,-0.703466,0.098126,0.216146,-0.018473,-0.071093,-0.050999,-0.996165,0.015963,0.010579,0.011332,-1.727010,2.519511,-53.765945,,,,,,,
1508436980.833232,-0.066333,0.054231,-0.703615,0.200691,0.240675,-0.045563,-0.066187,-0.054205,-0.996334,0.003184,0.045080,-0.010716,-1.535789,2.421702,-53.776241,,,,,,,
1508436980.853227,-0.060344,0.060173,-0.704759,0.358742,0.339718,-0.053516,-0.060198,-0.060137,-0.996373,0.037508,0.063387,-0.018641,-1.339141,2.258195,-53.788612,,,,,,,
1508436980.873222,-0.051608,0.066817,-0.703513,0.449958,0.396953,0.081005,-0.051470,-0.066768,-0.996440,0.041292,0.015620,-0.039479,-0.925274,1.995757,-53.807697,,,,,,,
1508436980.893245,-0.042428,0.076363,-0.701232,0.497917,0.482124,0.098927,-0.042291,-0.076288,-0.996188,0.019007,0.042826,-0.055569,-0.239774,1.259353,-53.837383,,,,,,,
1508436980.913224,-0.032820,0.086666,-0.698886,0.556853,0.444843,0.090893,-0.032691,-0.086558,-0.995710,0.032691,0.043528,-0.048113,-0.239774,1.259353,-53.837383,,,,,,,
1508436980.933250,-0.025216,0.098150,-0.697625,0.579329,0.365087,0.019525,-0.025092,-0.097993,-0.994871,0.042304,0.025819,-0.011767,0.532178,0.412566,-53.848434,,,,,,,
1508436980.953260,-0.016109,0.109871,-0.696559,0.570955,0.374550,0.085505,-0.016011,-0.109650,-0.993841,0.038854,-0.016571,-0.022394,1.127336,-0.379096,-53.839508,,,,,,,
1508436980.973252,-0.009869,0.120534,-0.694510,0.497315,0.306398,0.083349,-0.009797,-0.120242,-0.992696,0.043015,-0.014325,-0.020396,1.127336,-0.379096,-53.839508,,,,,,,
1508436980.993258,-0.003692,0.129093,-0.693410,0.387899,0.335300,0.026498,-0.003661,-0.128735,-0.991672,0.001784,-0.011631,0.011982,1.759963,-1.392875,-53.805855,,,,,,,
1508436981.013264,0.003548,0.135928,-0.693859,0.321244,0.363154,-0.044232,0.003516,-0.135510,-0.990770,0.021066,-0.012241,0.036928,2.305540,-2.009349,-53.765736,,,,,,,
1508436981.033280,0.010023,0.141943,-0.694502,0.287394,0.268288,-0.009775,0.009922,-0.141467,-0.989893,0.023861,-0.023297,0.044001,2.305540,-2.009349,-53.765736,,,,,,,
1508436981.053275,0.014626,0.148813,-0.695079,0.239545,0.135208,-0.038732,0.014464,-0.148264,-0.988842,0.016069,-0.014989,0.077999,2.808301,-2.492113,-53.721596,,,,,,,
1508436981.073261,0.016946,0.152330,-0.696271,0.128300,0.105438,-0.053145,0.016749,-0.151742,-0.988278,-0.010295,-0.046393,0.102368,3.081296,-2.937893,-53.684093,,,,,,,
1508436981.093278,0.018674,0.153048,-0.697674,-0.005407,0.044832,-0.092685,0.018454,-0.152451,-0.988139,-0.008536,-0.042159,0.098643,3.138607,-2.993973,-53.677670,,,,,,,
1508436981.113273,0.020236,0.152601,-0.699870,-0.013035,0.088514,-0.095445,0.020000,-0.152010,-0.988177,-0.050288,0.010424,0.121935,3.243025,-2.983347,-53.672058,,,,,,,
1508436981.133303,0.022474,0.152711,-0.701577,0.015805,0.102362,-0.098867,0.022210,-0.152119,-0.988113,-0.042199,0.030445,0.141357,3.350441,-2.977957,-53.665760,,,,,,,
1508436981.153310,0.024306,0.152594,-0.704106,-0.026901,0.034261,-0.130902,0.024021,-0.152003,-0.988088,-0.055958,0.022379,0.146978,3.408858,-2.982257,-53.661839,,,,,,,
1508436981.173301,0.024468,0.151159,-0.707154,-0.087822,-0.039135,-0.175643,0.024186,-0.150584,-0.988301,-0.033708,0.027354,0.148580,3.465329,-2.911838,-53.662090,,,,,,,
1508436981.193317,0.023196,0.148152,-0.710519,-0.184886,-0.122240,-0.155172,0.022940,-0.147611,-0.988779,-0.021384,-0.005221,0.113642,3.402404,-2.768817,-53.673687,,,,,,,
1508436981.213309,0.019289,0.143087,-0.713552,-0.296891,-0.254277,-0.167035,0.019091,-0.142600,-0.989596,0.001203,0.006064,0.089557,3.329438,-2.658716,-53.683830,,,,,,,
1508436981.233323,0.013165,0.134285,-0.717439,-0.333420,-0.288211,-0.241157,0.013046,-0.133881,-0.990911,-0.023865,0.047471,0.037268,2.937798,-2.167013,-53.728771,,,,,,,
1508436981.253330,0.008684,0.126875,-0.723442,-0.399052,-0.252886,-0.319460,0.008614,-0.126534,-0.991925,0.015373,-0.000022,0.011670,2.590290,-1.657103,-53.764782,,,,,,,
1508436981.273332,0.003709,0.117550,-0.729459,-0.503695,-0.290212,-0.284719,0.003683,-0.117279,-0.993092,0.051386,-0.026611,-0.006481,2.590290,-1.657103,-53.764782,,,,,,,
1508436981.293327,-0.001631,0.107074,-0.734863,-0.479959,-0.337122,-0.266996,-0.001622,-0.106869,-0.994272,0.062688,0.028271,-0.059363,2.144180,-0.889613,-53.802586,,,,,,,
1508436981.313344,-0.006369,0.098612,-0.740103,-0.387089,-0.228550,-0.237717,-0.006338,-0.098452,-0.995122,0.041235,-0.004132,-0.052638,1.688380,-0.097821,-53.826080,,,,,,,
1508436981.333329,-0.009575,0.091702,-0.744132,-0.325053,-0.158370,-0.182267,-0.009534,-0.091573,-0.995753,0.050779,-0.021235,-0.028234,1.688380,-0.097821,-53.826080,,,,,,,
1508436981.353355,-0.010925,0.086276,-0.748124,-0.285589,-0.134904,-0.200764,-0.010885,-0.086169,-0.996221,0.018514,-0.009519,-0.005503,1.391039,0.472917,-53.832596,,,,,,,
1508436981.373359,-0.012595,0.081191,-0.752215,-0.239680,-0.092320,-0.193952,-0.012553,-0.081102,-0.996627,0.012431,-0.016036,0.013472,1.253133,0.903540,-53.830479,,,,,,,
1508436981.393357,-0.014538,0.077226,-0.756734,-0.178763,-0.134820,-0.256293,-0.014494,-0.077149,-0.996914,0.012098,-0.010268,0.016232,1.199233,1.031253,-53.829414,,,,,,,
1508436981.413348,-0.016857,0.077477,-0.762120,-0.189551,-0.080442,-0.252856,-0.016806,-0.077399,-0.996859,-0.009149,-0.058785,0.031572,1.002514,1.344201,-53.826530,,,,,,,
1508436981.433373,-0.017707,0.073734,-0.766896,-0.182089,-0.057034,-0.240405,-0.017658,-0.073667,-0.997127,-0.004650,-0.020846,0.036494,0.890863,1.347729,-53.828403,,,,,,,
1508436981.453358,-0.019015,0.070567,-0.772192,-0.148916,-0.094258,-0.274012,-0.018967,-0.070509,-0.997331,-0.004364,-0.018786,0.042848,0.854447,1.446473,-53.826435,,,,,,,
1508436981.473367,-0.021920,0.069369,-0.777762,-0.183074,-0.129390,-0.282007,-0.021865,-0.069314,-0.997355,-0.019242,-0.029319,0.036174,0.695899,1.707761,-53.821064,,,,,,,
1508436981.493387,-0.024574,0.065055,-0.784137,-0.238844,-0.137804,-0.328760,-0.024520,-0.065009,-0.997583,-0.040879,-0.016625,0.059717,0.452055,1.830326,-53.819633,,,,,,,
1508436981.513383,-0.025501,0.060799,-0.790885,-0.201712,-0.033414,-0.332435,-0.025451,-0.060762,-0.997828,-0.063981,-0.003951,0.060541,0.380218,1.959734,-53.815628,,,,,,,
1508436981.533396,-0.026194,0.057985,-0.797812,-0.162276,0.000697,-0.350019,-0.026147,-0.057953,-0.997977,-0.014549,-0.004502,0.076193,0.304724,2.279637,-53.803509,,,,,,,
1508436981.553402,-0.026149,0.054004,-0.804260,-0.240083,-0.028183,-0.281299,-0.026108,-0.053977,-0.998201,0.022446,-0.043694,0.055421,0.230089,2.458528,-53.796005,,,,,,,
1508436981.573405,-0.028625,0.048260,-0.808990,-0.313196,-0.206178,-0.221082,-0.028587,-0.048241,-0.998427,0.032906,-0.040352,0.036802,0.199865,2.594880,-53.789722,,,,,,,
1508436981.593406,-0.034016,0.042948,-0.813916,-0.306764,-0.220012,-0.230483,-0.033978,-0.042935,-0.998500,-0.016544,-0.012973,0.065700,-0.006260,2.923271,-53.773243,,,,,,,
1508436981.613416,-0.037195,0.036301,-0.817762,-0.368865,-0.124276,-0.155051,-0.037162,-0.036293,-0.998650,0.025840,-0.013268,0.059044,-0.410476,3.397475,-53.743801,,,,,,,
1508436981.633409,-0.038074,0.027267,-0.820702,-0.517763,-0.014621,-0.104281,-0.038050,-0.027263,-0.998904,0.051234,-0.012165,0.053927,-0.410476,3.397475,-53.743801,,,,,,,
1508436981.653403,-0.034344,0.018343,-0.821029,-0.672064,-0.075699,0.101450,-0.034331,-0.018342,-0.999242,0.097549,-0.076537,0.013234,-0.512730,4.136042,-53.691132,,,,,,,
1508436981.673429,-0.037945,0.004009,-0.816568,-0.713649,-0.249755,0.318332,-0.037936,-0.004009,-0.999272,0.080294,-0.018910,-0.007045,-0.416240,5.034870,-53.615147,,,,,,,
1508436981.693437,-0.043041,-0.011191,-0.810468,-0.747835,-0.273172,0.314432,-0.043025,0.011191,-0.999011,0.063747,0.021112,-0.010266,-0.609429,5.616072,-53.555534,,,,,,,
1508436981.713432,-0.047093,-0.026908,-0.807507,-0.809901,-0.171483,0.076285,-0.047059,0.026905,-0.998530,0.074418,0.071972,-0.076391,-0.768814,6.232789,-53.485218,,,,,,,
1508436981.733420,-0.049296,-0.043385,-0.810793,-0.842243,-0.054770,-0.221816,-0.049230,0.043372,-0.997845,0.097356,0.055185,-0.095752,-1.013787,7.526811,-53.314415,,,,,,,
1508436981.753429,-0.050282,-0.060165,-0.816829,-0.844535,-0.037663,-0.252985,-0.050170,0.060129,-0.996929,0.096725,0.005667,-0.096913,-1.013787,7.526811,-53.314415,,,,,,,
1508436981.773429,-0.051649,-0.076685,-0.821984,-0.838935,-0.049514,-0.186706,-0.051474,0.076610,-0.995732,0.107840,-0.012569,-0.057491,-1.186191,9.315475,-53.027561,,,,,,,
1508436981.793457,-0.052420,-0.093060,-0.824117,-0.792199,-0.065920,0.021425,-0.052170,0.092925,-0.994305,0.106201,-0.004897,-0.103915,-1.235703,10.196706,-52.864048,,,,,,,
1508436981.813462,-0.056422,-0.107061,-0.824071,-0.631136,-0.269391,0.007194,-0.056070,0.106856,-0.992692,0.121087,0.034822,-0.135436,-1.282413,10.606407,-52.782257,,,,,,,
1508436981.833457,-0.062310,-0.116471,-0.826815,-0.391080,-0.233927,-0.179037,-0.061848,0.116207,-0.991297,0.009968,0.091327,-0.140630,-1.701073,11.542523,-52.573601,,,,,,,
1508436981.853474,-0.063095,-0.122919,-0.832535,-0.333655,0.122078,-0.295138,-0.062577,0.122610,-0.990480,-0.005965,0.007761,-0.101637,-1.854904,11.906044,-52.487263,,,,,,,
1508436981.873460,-0.059933,-0.130027,-0.839178,-0.394925,0.206264,-0.303777,-0.059392,0.129661,-0.989778,0.044789,-0.017219,-0.089720,-1.813026,12.080780,-52.448784,,,,,,,
1508436981.893455,-0.058292,-0.137301,-0.844786,-0.348223,0.069727,-0.215461,-0.057711,0.136870,-0.988907,0.094301,0.004579,-0.072678,-1.649460,12.672499,-52.314381,,,,,,,
1508436981.913486,-0.058017,-0.141936,-0.847835,-0.183967,0.014064,-0.100683,-0.057402,0.141460,-0.988278,0.046720,0.023259,-0.095050,-1.640901,12.961098,-52.243896,,,,,,,
1508436981.933488,-0.059089,-0.144043,-0.850070,-0.078968,-0.059412,-0.126354,-0.058443,0.143546,-0.987917,0.058031,0.020807,-0.108244,-1.651304,13.046962,-52.222195,,,,,,,
1508436981.953486,-0.060419,-0.145509,-0.853653,-0.101806,-0.004952,-0.190038,-0.059745,0.144996,-0.987627,0.009055,-0.008338,-0.046934,-1.784396,13.177916,-52.184921,,,,,,,
1508436981.973500,-0.059105,-0.147851,-0.857506,-0.135349,0.130324,-0.181312,-0.058426,0.147313,-0.987363,0.026047,0.025035,-0.035815,-1.770832,13.296432,-52.155308,,,,,,,
1508436981.993486,-0.057324,-0.150354,-0.861530,-0.127800,0.102640,-0.188380,-0.056646,0.149788,-0.987094,0.056433,0.031944,-0.036588,-1.726269,13.364668,-52.139359,,,,,,,
1508436982.013511,-0.055374,-0.151484,-0.863933,-0.021511,0.118345,-0.064997,-0.054712,0.150906,-0.987033,0.050332,0.035999,-0.055997,-1.659316,13.492221,-52.108673,,,,,,,
1508436982.033514,-0.048222,-0.151717,-0.863619,0.047352,0.044743,-0.014933,-0.047650,0.151136,-0.987364,0.073117,0.017855,-0.051897,-1.519155,13.514020,-52.107300,,,,,,,
1508436982.053514,-0.049012,-0.150022,-0.863663,0.113014,-0.077791,-0.006807,-0.048442,0.149460,-0.987580,0.044429,0.032471,-0.032775,-1.218336,13.505297,-52.117462,,,,,,,
1508436982.073508,-0.048083,-0.146828,-0.863665,0.101077,-0.047905,-0.031756,-0.047547,0.146301,-0.988097,0.032044,-0.013778,0.013579,-1.277105,13.419554,-52.138199,,,,,,,
1508436982.093514,-0.048476,-0.146169,-0.864025,-0.011324,-0.007444,-0.008800,-0.047940,0.145649,-0.988174,0.041013,-0.045338,0.016052,-1.228886,13.247981,-52.183216,,,,,,,
1508436982.113511,-0.047208,-0.145539,-0.863616,-0.029478,0.026569,0.032306,-0.046692,0.145026,-0.988326,0.014755,-0.018393,-0.004442,5.182239,14.812202,-44.983459,,,,,,,
1508436982.133537,-0.046502,-0.145644,-0.863001,0.007891,0.029800,0.009839,-0.045993,0.145130,-0.988343,0.026172,0.004544,-0.012664,5.253243,14.770063,-44.989082,,,,,,,
1508436982.153517,-0.046421,-0.144835,-0.863286,0.065681,-0.011687,-0.025857,-0.045918,0.144330,-0.988464,0.018605,0.004428,-0.026932,5.285371,14.747433,-44.992741,,,,,,,
1508436982.173539,-0.045888,-0.142743,-0.863629,0.137336,-0.001046,-0.028198,-0.045405,0.142259,-0.988787,0.012675,0.008025,-0.022184,5.285371,14.747433,-44.992741,,,,,,,
1508436982.193534,-0.045098,-0.139963,-0.864117,0.117858,0.072460,-0.028183,-0.044642,0.139506,-0.989214,0.004801,-0.023097,0.011569,5.300639,14.610443,-45.035618,,,,,,,
1508436982.213556,-0.043575,-0.138831,-0.864702,0.013998,0.079969,-0.041010,-0.043142,0.138385,-0.989438,0.026113,-0.020954,0.012800,5.378566,14.477009,-45.069458,,,,,,,
1508436982.233537,-0.040882,-0.139106,-0.865617,-0.035173,0.044866,-0.057525,-0.040476,0.138658,-0.989513,0.025156,-0.005357,0.007610,5.406876,14.478930,-45.065453,,,,,,,
1508436982.253556,-0.040146,-0.138707,-0.866230,0.059169,0.034101,-0.012655,-0.039749,0.138262,-0.989598,0.022599,0.027372,-0.000255,5.528905,14.493500,-45.045959,,,,,,,
1508436982.273571,-0.039694,-0.136598,-0.865962,0.117128,0.005269,0.015444,-0.039314,0.136174,-0.989905,0.024666,0.000713,-0.005030,5.554685,14.410929,-45.069275,,,,,,,
1508436982.293565,-0.038626,-0.134262,-0.865724,0.065720,-0.003193,-0.006787,-0.038269,0.133859,-0.990261,0.017685,-0.007699,-0.000278,5.557230,14.359083,-45.085506,,,,,,,
1508436982.313578,-0.035912,-0.133426,-0.865286,0.019717,0.014897,0.012178,-0.035585,0.133030,-0.990473,0.024065,-0.001454,0.007441,5.661772,14.244014,-45.108990,,,,,,,
1508436982.333574,-0.034654,-0.133897,-0.864811,0.044362,0.008492,0.017583,-0.034337,0.133497,-0.990454,0.017476,0.017901,0.004340,5.742726,14.219546,-45.106476,,,,,,,
1508436982.353585,-0.034108,-0.133119,-0.864285,0.089405,-0.021353,0.022247,-0.033799,0.132726,-0.990576,0.012803,0.015604,0.005637,5.793890,14.239917,-45.093506,,,,,,,
1508436982.373587,-0.033496,-0.130179,-0.863530,0.038128,-0.046905,0.023723,-0.033206,0.129811,-0.990983,0.011417,-0.016652,0.020463,5.837432,14.120260,-45.125504,,,,,,,
1508436982.393600,-0.033918,-0.130418,-0.863263,-0.005821,-0.045782,0.001347,-0.033624,0.130049,-0.990937,0.010720,0.005221,0.006135,5.822903,14.072912,-45.142170,,,,,,,
1508436982.413590,-0.034076,-0.130700,-0.863125,0.034821,-0.015925,0.007231,-0.033779,0.130328,-0.990895,0.007305,0.013013,-0.001048,5.827807,14.087200,-45.137081,,,,,,,
1508436982.433584,-0.033192,-0.130645,-0.862900,0.099986,0.011771,0.000382,-0.032903,0.130274,-0.990932,0.006185,0.013724,-0.000416,5.828543,14.086403,-45.137238,,,,,,,
1508436982.453612,-0.032295,-0.128180,-0.862414,0.111812,0.024495,0.028979,-0.032025,0.127829,-0.991279,0.010296,-0.006216,0.006172,5.887135,14.018460,-45.150780,,,,,,,
1508436982.473608,-0.030801,-0.125820,-0.861996,0.046480,0.012856,-0.000659,-0.030553,0.125488,-0.991625,0.014546,-0.015014,0.011034,5.950610,13.923256,-45.171917,,,,,,,
1508436982.493613,-0.029797,-0.124659,-0.861758,-0.025112,-0.008450,0.010367,-0.029561,0.124336,-0.991800,0.010610,-0.012337,0.013299,6.015058,13.830415,-45.191895,,,,,,,
1508436982.513628,-0.029780,-0.125976,-0.861521,-0.006992,0.020297,0.015268,-0.029540,0.125643,-0.991636,-0.005769,0.018797,0.005369,6.038853,13.841814,-45.185230,,,,,,,
1508436982.533633,-0.029232,-0.126501,-0.861310,0.068870,0.047989,0.007344,-0.028994,0.126164,-0.991586,-0.004605,0.016658,-0.002860,6.045737,13.900493,-45.166290,,,,,,,
1508436982.553611,-0.028267,-0.124697,-0.861118,0.081781,0.021361,0.004522,-0.028043,0.124374,-0.991839,0.007246,-0.008453,-0.000089,6.072088,13.878426,-45.169544,,,,,,,
1508436982.573628,-0.027999,-0.123200,-0.861025,0.042219,0.012847,0.005741,-0.027783,0.122889,-0.992031,-0.001331,-0.011423,0.002621,6.117378,13.772609,-45.195816,,,,,,,
1508436982.593644,-0.027518,-0.122616,-0.861032,0.015350,0.039508,-0.006354,-0.027308,0.122309,-0.992116,-0.002554,-0.003764,0.008153,6.117378,13.772609,-45.195816,,,,,,,
1508436982.613636,-0.026305,-0.122788,-0.861212,0.033448,0.064016,-0.012055,-0.026104,0.122479,-0.992128,0.002834,0.014423,0.006883,6.151491,13.716761,-45.208168,,,,,,,
1508436982.633655,-0.024842,-0.121422,-0.861400,0.054977,0.030972,-0.003062,-0.024656,0.121124,-0.992331,0.017256,-0.010238,-0.006372,6.225263,13.697556,-45.203892,,,,,,,
1508436982.653642,-0.024155,-0.119909,-0.860668,0.053077,0.003181,0.045327,-0.023979,0.119622,-0.992530,0.012337,-0.012841,-0.006539,6.263092,13.656237,-45.211166,,,,,,,
1508436982.673637,-0.023885,-0.119255,-0.860126,0.037982,0.006444,0.013302,-0.023713,0.118973,-0.992614,0.003388,0.005051,-0.000962,6.303101,13.564559,-45.233200,,,,,,,
1508436982.693670,-0.023522,-0.118580,-0.859900,0.040164,-0.019100,0.003007,-0.023355,0.118302,-0.992703,0.015833,0.005492,-0.003223,6.310043,13.532658,-45.241787,,,,,,,
1508436982.713661,-0.023312,-0.117726,-0.859512,0.055192,-0.011687,0.024215,-0.023148,0.117454,-0.992808,0.021027,0.003258,-0.001576,6.322805,13.520562,-45.243618,,,,,,,
1508436982.733655,-0.022880,-0.116631,-0.858890,0.066914,0.004290,0.023974,-0.022722,0.116367,-0.992946,0.007662,-0.002658,0.002849,6.351936,13.454188,-45.259323,,,,,,,
1508436982.753684,-0.022752,-0.114996,-0.858317,0.063694,0.017056,0.032322,-0.022600,0.114743,-0.993138,-0.005430,-0.010632,0.005833,6.376632,13.385851,-45.276112,,,,,,,
1508436982.773689,-0.022384,-0.113848,-0.857826,0.035847,0.008573,0.016471,-0.022237,0.113602,-0.993277,0.001500,-0.007431,0.007834,6.380326,13.342157,-45.288486,,,,,,,
1508436982.793672,-0.021924,-0.113151,-0.857351,0.039095,0.007487,0.027148,-0.021782,0.112910,-0.993366,0.000420,0.003224,0.001515,6.415546,13.271743,-45.304195,,,,,,,
1508436982.813698,-0.021946,-0.111894,-0.856930,0.093602,0.009639,0.008948,-0.021807,0.111660,-0.993507,-0.010145,0.007755,-0.005181,6.432370,13.218793,-45.317287,,,,,,,
1508436982.833696,-0.021946,-0.109758,-0.857271,0.109502,0.019296,-0.028524,-0.021812,0.109537,-0.993743,-0.008492,0.004049,-0.001084,6.423328,13.183054,-45.328983,,,,,,,
1508436982.853690,-0.021382,-0.107260,-0.858095,0.037691,0.036402,-0.050044,-0.021257,0.107054,-0.994026,0.005434,-0.022429,0.010963,6.420031,13.090721,-45.356201,,,,,,,
1508436982.873712,-0.020801,-0.107934,-0.858825,-0.098252,0.074742,-0.029172,-0.020679,0.107725,-0.993966,-0.021954,-0.000044,0.053963,6.442163,13.018059,-45.373974,,,,,,,
1508436982.893719,-0.019747,-0.109118,-0.859657,-0.032821,-0.001928,-0.050501,-0.019629,0.108902,-0.993859,-0.016474,0.023850,-0.004615,6.490724,13.072844,-45.351295,,,,,,,
1508436982.913720,-0.019748,-0.109863,-0.859616,0.006039,-0.028727,0.029830,-0.019628,0.109642,-0.993777,0.015309,-0.010017,0.000323,6.486308,13.102996,-45.343227,,,,,,,
1508436982.933727,-0.020881,-0.109812,-0.859268,-0.005776,-0.053153,-0.006061,-0.020754,0.109592,-0.993760,0.006120,0.012753,-0.006499,6.462990,13.127947,-45.339336,,,,,,,
1508436982.953721,-0.021470,-0.110103,-0.859798,-0.007130,0.019325,-0.027371,-0.021339,0.109881,-0.993716,-0.012231,-0.010928,-0.014234,6.420043,13.141498,-45.341511,,,,,,,
1508436982.973716,-0.020673,-0.110463,-0.860224,-0.025314,0.031022,-0.014731,-0.020545,0.110238,-0.993693,0.029044,-0.020944,-0.025869,6.427312,13.149468,-45.338173,,,,,,,
1508436982.993733,-0.020222,-0.110545,-0.860164,0.005872,0.010717,0.014330,-0.020097,0.110320,-0.993693,0.007539,-0.002425,-0.020437,6.458565,13.177666,-45.325546,,,,,,,
1508436983.013719,-0.019823,-0.109809,-0.860095,0.049599,0.025682,-0.016842,-0.019703,0.109588,-0.993782,0.002247,0.006134,-0.018517,6.458565,13.177666,-45.325546,,,,,,,
1508436983.033744,-0.019213,-0.108814,-0.860534,0.047454,0.035255,-0.009516,-0.019099,0.108599,-0.993902,0.011332,-0.017428,-0.003382,6.496957,13.124827,-45.335384,,,,,,,
1508436983.053755,-0.018253,-0.107659,-0.860193,0.056150,0.021348,0.019470,-0.018146,0.107451,-0.994045,0.011661,-0.001311,-0.000493,6.537347,13.055014,-45.349735,,,,,,,
1508436983.073740,-0.017961,-0.106700,-0.859964,0.040087,0.014980,0.009978,-0.017857,0.106498,-0.994153,0.009206,-0.005408,0.006070,6.566006,13.025934,-45.353958,,,,,,,
1508436983.093742,-0.017289,-0.106081,-0.859656,0.010070,0.038415,0.013925,-0.017191,0.105882,-0.994230,0.000071,-0.003129,0.012052,6.599679,12.969158,-45.365334,,,,,,,
1508436983.113768,-0.016622,-0.106037,-0.859567,0.036732,0.048031,-0.004361,-0.016528,0.105838,-0.994246,-0.005887,0.011273,0.009810,6.638576,12.950819,-45.364899,,,,,,,
1508436983.133770,-0.016103,-0.105045,-0.859633,0.065721,0.022444,0.002386,-0.016014,0.104851,-0.994359,-0.006707,0.006629,0.009633,6.650975,12.950167,-45.363270,,,,,,,
1508436983.153752,-0.015632,-0.103529,-0.859551,0.017592,0.011811,-0.000623,-0.015548,0.103344,-0.994524,0.001174,-0.013958,0.025789,6.681057,12.867874,-45.382263,,,,,,,
1508436983.173783,-0.015087,-0.103725,-0.859396,-0.031640,0.028841,0.011963,-0.015005,0.103540,-0.994512,-0.000055,-0.005700,0.016454,6.703860,12.853834,-45.382881,,,,,,,
1508436983.193767,-0.014907,-0.104357,-0.859385,-0.010150,-0.018003,-0.003368,-0.014825,0.104168,-0.994449,0.005212,0.002155,0.008762,6.716208,12.862976,-45.378468,,,,,,,
1508436983.213767,-0.015913,-0.104708,-0.859364,0.040104,0.007523,0.009019,-0.015826,0.104516,-0.994397,-0.016248,0.012702,0.004407,6.694612,12.890450,-45.373859,,,,,,,
1508436983.233797,-0.014983,-0.104164,-0.859338,0.031347,0.053368,-0.009767,-0.014902,0.103976,-0.994468,0.002420,0.007901,0.008674,6.700954,12.869256,-45.378941,,,,,,,
1508436983.253801,-0.013663,-0.104058,-0.859606,0.003598,0.025686,-0.012543,-0.013588,0.103870,-0.994498,0.009133,0.001110,0.008612,6.749763,12.870298,-45.371407,,,,,,,
1508436983.273777,-0.013088,-0.104072,-0.859453,-0.015532,0.010725,0.014346,-0.013017,0.103884,-0.994504,0.004258,-0.006732,0.008771,6.792258,12.875677,-45.363541,,,,,,,
1508436983.293793,-0.012998,-0.104717,-0.859167,-0.039022,-0.007376,0.013560,-0.012926,0.104526,-0.994438,0.001589,0.002575,0.008995,6.806616,12.885223,-45.358677,,,,,,,
1508436983.313798,-0.012886,-0.105533,-0.858930,-0.010225,0.021383,0.010988,-0.012814,0.105338,-0.994354,-0.004611,0.010217,0.009231,6.806616,12.885223,-45.358677,,,,,,,
1508436983.333795,-0.012254,-0.105703,-0.859014,0.015421,0.008639,-0.011238,-0.012186,0.105506,-0.994344,0.009042,-0.002234,0.001760,6.820526,12.932915,-45.343014,,,,,,,
1508436983.353827,-0.012591,-0.105052,-0.858599,-0.014167,-0.057506,0.043058,-0.012521,0.104859,-0.994408,0.008478,-0.026047,-0.001121,6.830636,12.940138,-45.339428,,,,,,,
1508436983.373811,-0.013721,-0.105427,-0.857683,-0.045279,-0.038309,0.035339,-0.013644,0.105232,-0.994354,0.000415,-0.012810,0.003555,6.830636,12.940138,-45.339428,,,,,,,
1508436983.393766,-0.014432,-0.106671,-0.857556,-0.033883,0.048041,-0.001110,-0.014349,0.106469,-0.994212,-0.017099,0.011039,0.000301,6.786351,12.929367,-45.349152,,,,,,,
1508436983.413774,-0.013450,-0.107003,-0.857961,0.000423,0.017250,-0.027406,-0.013373,0.106799,-0.994191,0.010580,0.004330,-0.009990,6.781592,12.988232,-45.333038,,,,,,,
1508436983.433754,-0.013590,-0.106696,-0.858232,0.009223,-0.037127,-0.003166,-0.013513,0.106493,-0.994222,0.009576,-0.005602,-0.007823,6.796799,12.992815,-45.329449,,,,,,,
1508436983.453783,-0.014065,-0.106424,-0.858119,-0.014373,-0.012630,0.001828,-0.013985,0.106223,-0.994244,-0.002754,-0.006919,0.006817,6.774549,12.972019,-45.338737,,,,,,,
1508436983.473787,-0.013652,-0.106897,-0.858427,-0.028514,0.038553,-0.022362,-0.013574,0.106693,-0.994199,0.001092,-0.001713,0.008878,6.775641,12.985020,-45.334850,,,,,,,
1508436983.493788,-0.012586,-0.107281,-0.858819,-0.018890,0.050252,-0.014008,-0.012513,0.107075,-0.994172,0.004121,-0.002415,0.002992,6.792995,12.998270,-45.328457,,,,,,,
1508436983.513794,-0.011446,-0.107292,-0.859018,-0.001734,0.038530,-0.013851,-0.011380,0.107086,-0.994185,0.002881,-0.001679,0.002745,6.868060,13.014537,-45.312473,,,,,,,
1508436983.533801,-0.010825,-0.107142,-0.859475,0.011162,0.007659,-0.025142,-0.010762,0.106937,-0.994208,0.008611,-0.001331,-0.001062,6.893070,13.013901,-45.308861,,,,,,,
1508436983.553806,-0.010634,-0.106844,-0.859826,-0.004834,0.005503,-0.010171,-0.010573,0.106641,-0.994241,0.007826,-0.006589,0.004434,6.902364,13.007784,-45.309200,,,,,,,
1508436983.573809,-0.009609,-0.106977,-0.859710,-0.035905,0.037436,0.006450,-0.009554,0.106773,-0.994238,0.009981,-0.004127,0.009039,6.935691,13.000426,-45.306225,,,,,,,
1508436983.593795,-0.008634,-0.107693,-0.859774,-0.033771,0.026807,-0.005126,-0.008584,0.107485,-0.994170,0.009423,-0.002627,0.000105,6.983170,13.032740,-45.289642,,,,,,,
1508436983.613807,-0.008301,-0.107758,-0.859562,-0.017523,-0.021164,0.011552,-0.008252,0.107550,-0.994165,0.005933,-0.009466,-0.002890,7.016960,13.043027,-45.281456,,,,,,,
1508436983.633824,-0.008852,-0.107894,-0.859370,-0.015436,-0.003056,0.011288,-0.008800,0.107684,-0.994146,-0.005925,0.000455,0.001501,7.001509,13.039442,-45.284882,,,,,,,
1508436983.653829,-0.008519,-0.108257,-0.859560,0.005764,0.030024,-0.020131,-0.008469,0.108045,-0.994110,0.003205,0.004137,0.005203,6.998606,13.056622,-45.280380,,,,,,,
1508436983.673836,-0.007277,-0.107759,-0.859714,-0.001643,0.024661,0.000213,-0.007235,0.107551,-0.994173,0.013873,-0.013404,0.008471,7.034253,13.054176,-45.275562,,,,,,,
1508436983.693836,-0.006803,-0.107388,-0.859276,-0.034575,-0.025450,0.027622,-0.006764,0.107182,-0.994216,0.008702,-0.017842,0.007354,7.066426,13.041640,-45.274162,,,,,,,
1508436983.713846,-0.007849,-0.107888,-0.858704,-0.025970,-0.041430,0.026781,-0.007803,0.107679,-0.994155,-0.010675,0.002169,-0.008592,7.064620,13.031763,-45.277290,,,,,,,
1508436983.733837,-0.008842,-0.107988,-0.858487,0.026346,-0.021170,0.009387,-0.008791,0.107778,-0.994136,-0.005751,0.006663,-0.017903,7.017571,13.047017,-45.280212,,,,,,,
1508436983.753826,-0.008918,-0.107002,-0.858241,0.024206,-0.014788,0.014628,-0.008867,0.106798,-0.994241,0.003999,-0.010515,-0.013861,6.998656,13.013170,-45.292877,,,,,,,
1508436983.773858,-0.008837,-0.106584,-0.858029,-0.007993,0.009736,0.006832,-0.008787,0.106382,-0.994287,-0.000704,-0.006055,0.002145,7.003837,12.978649,-45.301983,,,,,,,
1508436983.793865,-0.008445,-0.106656,-0.857888,-0.041147,0.003356,0.005883,-0.008397,0.106453,-0.994282,0.005513,-0.011925,-0.001461,7.015806,12.971143,-45.302280,,,,,,,
1508436983.813860,-0.008354,-0.107253,-0.857653,-0.025030,-0.009448,0.014587,-0.008306,0.107048,-0.994219,0.002554,0.002999,-0.002378,7.025422,12.985394,-45.296707,,,,,,,
1508436983.833873,-0.008270,-0.107599,-0.857160,0.017854,-0.025457,0.025450,-0.008222,0.107391,-0.994183,0.011304,0.011276,-0.003757,7.031485,13.008526,-45.289131,,,,,,,
1508436983.853863,-0.008872,-0.107161,-0.856721,0.017875,-0.037166,0.021355,-0.008821,0.106956,-0.994225,0.001345,-0.005958,-0.000328,7.028785,13.005980,-45.290279,,,,,,,
1508436983.873857,-0.009551,-0.106777,-0.856239,0.011347,0.000116,0.021885,-0.009496,0.106574,-0.994259,-0.011714,-0.000800,-0.001544,7.009251,12.985882,-45.299072,,,,,,,
1508436983.893885,-0.009792,-0.106638,-0.856079,-0.000416,-0.023279,0.003040,-0.009736,0.106436,-0.994272,0.000535,0.001444,-0.028738,6.982678,12.963938,-45.309460,,,,,,,
1508436983.913891,-0.010746,-0.107479,-0.856121,-0.093435,-0.056264,-0.003876,-0.010683,0.107272,-0.994172,0.004885,0.001386,-0.073699,6.969055,12.964481,-45.311401,,,,,,,
1508436983.933886,-0.011026,-0.110413,-0.856539,-0.139808,0.025844,-0.040220,-0.010959,0.110188,-0.993850,0.016345,0.048869,-0.330277,6.915945,13.103447,-45.279556,,,,,,,
1508436983.953900,-0.010847,-0.110207,-0.857566,0.130035,-0.036011,-0.038459,-0.010781,0.109984,-0.993875,0.006920,0.034974,-0.585913,6.929649,13.162878,-45.260216,,,,,,,
1508436983.973888,-0.012757,-0.102874,-0.857498,0.497420,-0.097992,0.014413,-0.012689,0.102692,-0.994632,-0.002646,0.026519,-0.670193,6.899539,13.082973,-45.287975,,,,,,,
1508436983.993903,-0.012431,-0.088835,-0.856745,0.819047,0.082972,0.037138,-0.012381,0.088719,-0.995980,-0.103646,-0.048725,-0.843315,6.829348,12.347742,-45.504528,,,,,,,
1508436984.013915,-0.009971,-0.067819,-0.856523,1.211355,0.129908,-0.044875,-0.009948,0.067767,-0.997652,-0.102799,-0.020846,-0.864836,6.934696,11.475852,-45.716339,,,,,,,
1508436984.033916,-0.007238,-0.039091,-0.859232,1.559644,0.158868,-0.188441,-0.007232,0.039081,-0.999210,-0.098999,0.005856,-0.832150,6.934696,11.475852,-45.716339,,,,,,,
1508436984.053923,-0.002727,-0.004714,-0.861218,1.776005,0.262889,-0.029101,-0.002727,0.004714,-0.999985,-0.099034,-0.086441,-0.735046,7.194010,8.740499,-46.277626,,,,,,,
1508436984.073929,0.002363,0.031463,-0.860215,1.806369,0.240304,0.074635,0.002362,-0.031458,-0.999502,-0.065762,-0.054327,-0.643686,7.439730,7.065179,-46.524216,,,,,,,
1508436984.093914,0.006092,0.069106,-0.858396,1.982184,0.170946,0.111764,0.006077,-0.069051,-0.997595,-0.076664,0.066579,-0.579416,7.602451,5.786382,-46.674290,,,,,,,
1508436984.113937,0.009123,0.114098,-0.857344,2.431437,0.123091,0.015087,0.009064,-0.113850,-0.993457,-0.069885,0.202382,-0.502591,7.733940,4.380961,-46.805580,,,,,,,
1508436984.133926,0.010106,0.167578,-0.858880,2.750587,-0.047284,-0.056256,0.009964,-0.166795,-0.985941,-0.013138,0.178849,-0.323400,7.885481,0.892097,-46.976505,,,,,,,
1508436984.153942,0.008931,0.222400,-0.859369,2.729426,-0.000641,0.060376,0.008711,-0.220571,-0.975332,-0.000868,0.181692,-0.218226,7.885481,0.892097,-46.976505,,,,,,,
1508436984.173932,0.010520,0.277722,-0.856730,2.804244,0.151445,0.172209,0.010117,-0.274166,-0.961629,-0.002075,0.298229,0.049535,7.826375,-2.973957,-46.900661,,,,,,,
1508436984.193957,0.010924,0.334343,-0.855677,2.849276,-0.058091,0.008871,0.010319,-0.328148,-0.944570,0.080638,0.341973,0.108724,7.945574,-6.928310,-46.461113,,,,,,,
1508436984.213940,0.010183,0.393574,-0.857160,3.054559,-0.037836,-0.024632,0.009405,-0.383492,-0.923496,0.049220,0.395302,0.165485,7.945574,-6.928310,-46.461113,,,,,,,
1508436984.233965,0.009723,0.456662,-0.856528,3.169454,-0.021097,0.113658,0.008727,-0.440954,-0.897487,0.076799,0.376226,0.338024,7.868914,-12.473465,-45.301895,,,,,,,
1508436984.253971,0.005441,0.517036,-0.853639,2.932576,-0.216036,0.144386,0.004730,-0.494305,-0.869275,0.134491,0.362714,0.366971,7.741317,-15.258628,-44.463634,,,,,,,
1508436984.273968,0.000450,0.574440,-0.851009,2.828530,-0.149932,0.127511,0.000378,-0.543365,-0.839497,0.084324,0.421920,0.402363,7.624692,-16.560709,-44.015629,,,,,,,
1508436984.293982,-0.003513,0.628816,-0.847957,2.606799,-0.098697,0.103476,-0.002841,-0.588188,-0.808720,0.074221,0.337654,0.397129,7.370159,-20.233389,-42.497757,,,,,,,
1508436984.313985,-0.005987,0.677942,-0.845701,2.403047,0.009017,0.065812,-0.004663,-0.627191,-0.778851,0.022928,0.340143,0.388211,7.264215,-22.351475,-41.441666,,,,,,,
1508436984.333965,-0.003770,0.724352,-0.844224,2.249216,0.236038,0.022116,-0.002824,-0.662650,-0.748924,-0.005401,0.390937,0.382972,7.266384,-23.340458,-40.892437,,,,,,,
1508436984.353991,0.002206,0.767160,-0.844215,2.070228,0.313881,0.004061,0.001588,-0.694093,-0.719883,0.064574,0.289446,0.377644,7.541941,-26.027336,-39.185017,,,,,,,
1508436984.374000,0.006108,0.805682,-0.842926,1.843961,0.206183,0.086831,0.004230,-0.721303,-0.692607,0.065426,0.233022,0.383738,7.731181,-27.564341,-38.081558,,,,,,,
1508436984.393993,0.004344,0.839460,-0.838307,1.594610,-0.028321,0.194916,0.002901,-0.744282,-0.667859,0.053587,0.217244,0.351453,7.774650,-28.258615,-37.560272,,,,,,,
1508436984.413988,0.000860,0.868701,-0.835660,1.376874,-0.042745,0.004359,0.000555,-0.763491,-0.645818,-0.022620,0.229983,0.359274,7.624219,-30.033699,-36.188629,,,,,,,
1508436984.434013,0.005096,0.893249,-0.838615,1.154258,0.196174,-0.121563,0.003195,-0.779113,-0.626876,-0.029196,0.172347,0.319243,7.687489,-30.943443,-35.400204,,,,,,,
1508436984.454021,0.013459,0.914115,-0.841528,0.945507,0.320687,-0.035776,0.008216,-0.792022,-0.610437,0.001321,0.110870,0.271417,7.874117,-31.520195,-34.846008,,,,,,,
1508436984.474021,0.017683,0.929164,-0.840436,0.647736,0.196942,0.090999,0.010583,-0.801120,-0.598411,0.032294,0.048800,0.234565,2.303388,-34.450706,-37.974739,,,,,,,
1508436984.494028,0.015998,0.939133,-0.837144,0.426808,-0.012826,0.077146,0.009446,-0.807047,-0.590412,0.001021,0.102320,0.188282,2.303305,-34.872902,-37.587410,,,,,,,
1508436984.514033,0.016678,0.946339,-0.837722,0.325725,0.017278,-0.049038,0.009750,-0.811281,-0.584576,-0.047684,0.099183,0.144604,2.282589,-35.098480,-37.378120,,,,,,,
1508436984.534037,0.021406,0.952290,-0.841437,0.284397,0.154862,-0.128842,0.012411,-0.814745,-0.579686,-0.044713,0.055239,0.136205,2.387449,-35.389545,-37.096062,,,,,,,
1508436984.554030,0.029046,0.956661,-0.845579,0.178359,0.227256,-0.094625,0.016735,-0.817272,-0.576009,-0.023449,0.024197,0.101079,2.618754,-35.566971,-36.910305,,,,,,,
1508436984.574047,0.034648,0.958324,-0.847926,0.028962,0.140914,-0.046343,0.019915,-0.818229,-0.574547,0.017225,-0.003624,0.062508,2.782175,-35.642227,-36.825661,,,,,,,
1508436984.594051,0.036891,0.960098,-0.848786,-0.033750,0.039662,-0.010706,0.021150,-0.819248,-0.573050,-0.021470,0.034366,0.018927,2.885008,-35.658813,-36.801674,,,,,,,
1508436984.614056,0.040128,0.959846,-0.851422,0.026716,0.089946,-0.127708,0.023013,-0.819103,-0.573184,-0.030536,0.075741,0.019077,2.985919,-35.707817,-36.746075,,,,,,,
1508436984.634037,0.045986,0.960817,-0.855855,0.119567,0.148551,-0.148886,0.026334,-0.819660,-0.572245,-0.004758,0.023715,0.022456,3.088113,-35.706535,-36.738876,,,,,,,
1508436984.654064,0.051499,0.963638,-0.859591,0.145703,0.084466,-0.066938,0.029369,-0.821272,-0.569780,0.010899,-0.001924,0.027711,3.247035,-35.765423,-36.667816,,,,,,,
1508436984.674070,0.054537,0.965708,-0.862576,-0.003720,-0.026311,-0.050291,0.031007,-0.822452,-0.567989,0.013960,-0.020780,0.010357,3.431459,-35.918137,-36.501373,,,,,,,
1508436984.694075,0.056134,0.964308,-0.864568,-0.093790,0.022737,-0.062665,0.031979,-0.821655,-0.569087,-0.022503,0.009292,0.000224,3.450761,-35.898136,-36.519226,,,,,,,
1508436984.714081,0.059729,0.962368,-0.866533,-0.027017,0.185795,-0.110930,0.034119,-0.820547,-0.570559,-0.008012,0.041052,0.020953,3.540349,-35.797756,-36.609077,,,,,,,
1508436984.734084,0.067083,0.963027,-0.870374,0.076863,0.178274,-0.091705,0.038278,-0.820924,-0.569754,0.024634,0.016343,-0.005137,3.775827,-35.799679,-36.583656,,,,,,,
1508436984.754070,0.073912,0.964707,-0.875555,0.098881,0.015211,-0.049906,0.042066,-0.821882,-0.568103,0.039065,0.002927,-0.003553,3.864673,-35.827858,-36.546776,,,,,,,
1508436984.774082,0.073510,0.965903,-0.876298,0.038296,-0.065836,0.002497,0.041765,-0.822563,-0.567138,-0.001833,-0.027321,0.016128,4.007764,-35.906006,-36.454556,,,,,,,
1508436984.794098,0.073088,0.966014,-0.876441,-0.002670,0.007728,-0.024130,0.041520,-0.822626,-0.567065,-0.012681,0.017663,0.010638,3.972541,-35.917938,-36.446651,,,,,,,
1508436984.814095,0.077803,0.965817,-0.879797,0.004397,0.102623,-0.068165,0.044205,-0.822514,-0.567025,0.016067,0.005863,0.004738,4.018797,-35.909920,-36.449482,,,,,,,
1508436984.834087,0.082771,0.965865,-0.882930,0.013308,0.052434,-0.005600,0.047019,-0.822541,-0.566759,0.032174,-0.021652,-0.016371,4.191098,-35.911034,-36.428974,,,,,,,
1508436984.854112,0.082445,0.965767,-0.882089,-0.018538,0.006563,0.031343,0.046841,-0.822486,-0.566854,0.023136,-0.001184,-0.005061,4.270069,-35.906551,-36.424225,,,,,,,
1508436984.874118,0.081982,0.964789,-0.881222,-0.026104,0.019370,0.020500,0.046644,-0.821929,-0.567678,0.003664,0.001173,-0.013911,4.256376,-35.897057,-36.435181,,,,,,,
1508436984.894121,0.082502,0.964514,-0.881013,0.005881,0.036447,-0.000031,0.046958,-0.821772,-0.567878,-0.000373,-0.004995,-0.035210,4.275082,-35.857571,-36.471851,,,,,,,
1508436984.914127,0.083411,0.964918,-0.881095,0.069071,0.036395,0.018049,0.047446,-0.822002,-0.567504,0.006753,-0.006596,-0.020051,2.992542,-39.897213,-37.632736,,,,,,,
1508436984.934124,0.083985,0.966568,-0.880641,0.080791,0.054500,0.018844,0.047658,-0.822941,-0.566125,-0.002461,-0.014508,0.009378,3.016707,-39.920490,-37.606110,,,,,,,
1508436984.954136,0.084356,0.968757,-0.880000,0.024083,0.043880,0.009444,0.047716,-0.824182,-0.564311,-0.006044,-0.012121,0.020732,3.035953,-39.966892,-37.555241,,,,,,,
1508436984.974135,0.085790,0.968060,-0.880480,-0.052083,0.067409,-0.028161,0.048574,-0.823788,-0.564814,-0.004583,-0.003788,0.013559,3.075033,-40.018242,-37.497334,,,,,,,
1508436984.994146,0.088501,0.967026,-0.880995,-0.063980,0.138732,-0.002529,0.050181,-0.823201,-0.565528,-0.000331,0.012974,0.015464,3.138750,-39.985470,-37.527008,,,,,,,
1508436985.014150,0.091789,0.965878,-0.880972,-0.048920,0.137618,0.020934,0.052127,-0.822549,-0.566301,0.019941,0.014672,0.005754,3.222485,-39.957195,-37.550018,,,,,,,
1508436985.034156,0.092664,0.965741,-0.880088,0.013448,0.039591,0.025508,0.052633,-0.822470,-0.566367,0.020793,0.019828,0.012138,3.360551,-39.917652,-37.579960,,,,,,,
1508436985.054161,0.092964,0.966388,-0.880212,0.008229,-0.008334,0.021941,0.052753,-0.822839,-0.565821,0.000286,0.001916,0.031138,3.384273,-39.939590,-37.554516,,,,,,,
1508436985.074142,0.092646,0.965514,-0.879206,-0.081796,0.040686,0.023430,0.052640,-0.822341,-0.566554,-0.018048,-0.002610,0.034908,3.367623,-39.943359,-37.552002,,,,,,,
1508436985.094169,0.092634,0.963850,-0.877894,-0.162185,0.068437,0.006028,0.052760,-0.821393,-0.567917,-0.004221,0.017957,0.019165,3.375285,-39.879471,-37.619156,,,,,,,
1508436985.114175,0.093095,0.959371,-0.877357,-0.136528,0.049302,-0.017173,0.053363,-0.818831,-0.571549,-0.004123,0.032728,0.002259,3.405939,-39.761349,-37.741230,,,,,,,
1508436985.134164,0.094335,0.956205,-0.877511,-0.116208,0.058871,-0.010929,0.054315,-0.817009,-0.574061,0.001898,0.001595,-0.004567,3.465489,-39.588593,-37.917011,,,,,,,
1508436985.154183,0.095098,0.954064,-0.876946,-0.111929,0.067376,-0.003591,0.054919,-0.815773,-0.575759,-0.005404,-0.005684,-0.005143,3.521339,-39.499901,-38.004261,,,,,,,
1508436985.174168,0.095734,0.951581,-0.876317,-0.116264,0.071663,-0.016445,0.055479,-0.814334,-0.577739,-0.006819,-0.000317,-0.003804,3.542089,-39.431866,-38.072922,,,,,,,
1508436985.194172,0.097127,0.948704,-0.876516,-0.135598,0.075964,-0.034619,0.056510,-0.812661,-0.579990,-0.002967,-0.008247,-0.007397,3.604279,-39.298420,-38.204834,,,,,,,
1508436985.214198,0.099185,0.945837,-0.876720,-0.148419,0.100411,-0.006174,0.057934,-0.810987,-0.582189,0.000431,-0.014407,-0.009990,3.693256,-39.190186,-38.307373,,,,,,,
1508436985.234203,0.100627,0.943038,-0.876156,-0.124751,0.081188,0.015412,0.059001,-0.809346,-0.584361,0.012227,-0.004023,-0.008199,3.758437,-39.102882,-38.390160,,,,,,,
1508436985.254198,0.101162,0.940950,-0.875350,-0.095756,0.039649,0.009595,0.059485,-0.808118,-0.586009,0.005960,-0.002261,-0.010197,3.814385,-38.991119,-38.498169,,,,,,,
1508436985.274211,0.102044,0.939572,-0.875370,-0.081764,0.026838,0.022565,0.060115,-0.807305,-0.587064,0.006474,-0.005576,0.007291,3.847252,-38.924458,-38.562298,,,,,,,
1508436985.294217,0.101259,0.938465,-0.873866,-0.109455,0.008691,0.045241,0.059745,-0.806652,-0.587999,-0.000007,-0.007191,0.014391,3.859186,-38.898270,-38.587524,,,,,,,
1508436985.314196,0.099837,0.936350,-0.871738,-0.146993,0.032147,0.039598,0.059078,-0.805400,-0.589780,-0.008160,0.005489,0.021756,3.831518,-38.805695,-38.683369,,,,,,,
1508436985.334227,0.099509,0.933968,-0.870234,-0.151381,0.049228,0.021227,0.059075,-0.803986,-0.591707,-0.003930,0.004562,0.027147,3.820355,-38.730415,-38.759842,,,,,,,
1508436985.354229,0.099663,0.931567,-0.869625,-0.150258,0.013046,0.003623,0.059358,-0.802556,-0.593617,0.002577,0.015919,0.047795,3.830808,-38.672203,-38.816898,,,,,,,
1508436985.374224,0.099972,0.929766,-0.869043,-0.160012,0.065229,0.011405,0.059686,-0.801480,-0.595036,-0.019189,0.073514,0.124531,3.859335,-38.568256,-38.917358,,,,,,,
1508436985.394241,0.101657,0.926362,-0.868412,-0.179579,0.141980,-0.013152,0.060965,-0.799440,-0.597645,0.005594,0.145570,0.208423,3.923698,-38.439205,-39.038410,,,,,,,
1508436985.414226,0.105823,0.922045,-0.869023,-0.245141,0.195338,-0.053330,0.063818,-0.796839,-0.600812,0.017954,0.177881,0.257535,3.991354,-38.366543,-39.102982,,,,,,,
1508436985.434221,0.110475,0.915185,-0.869674,-0.404581,0.214604,-0.054618,0.067213,-0.792675,-0.605928,0.030092,0.293072,0.411744,4.282219,-38.043526,-39.386784,,,,,,,
1508436985.454254,0.115468,0.904219,-0.870046,-0.629549,0.246716,-0.103965,0.071235,-0.785942,-0.614183,0.006554,0.371117,0.526399,4.507855,-37.652664,-39.735653,,,,,,,
1508436985.474255,0.124492,0.888250,-0.872738,-0.878637,0.411040,-0.211725,0.078323,-0.775969,-0.625889,-0.011505,0.392989,0.572956,4.657907,-37.383930,-39.971386,,,,,,,
1508436985.494249,0.135737,0.866851,-0.875136,-1.155999,0.484610,-0.211518,0.087583,-0.762295,-0.641277,0.008105,0.473034,0.673152,5.389439,-36.243500,-40.918564,,,,,,,
1508436985.514268,0.146669,0.840065,-0.876243,-1.399116,0.531587,-0.234409,0.097538,-0.744686,-0.660249,-0.031865,0.578900,0.708299,5.953415,-35.176773,-41.762634,,,,,,,
1508436985.534270,0.158346,0.810063,-0.877458,-1.524582,0.546670,-0.303843,0.108716,-0.724331,-0.680827,-0.058011,0.613369,0.743449,6.261627,-34.567684,-42.223606,,,,,,,
1508436985.554277,0.171870,0.776194,-0.879300,-1.764668,0.637352,-0.342299,0.122041,-0.700569,-0.703072,-0.075532,0.607978,0.760704,7.307879,-32.496704,-43.675224,,,,,,,
1508436985.574282,0.182795,0.736281,-0.878433,-2.098212,0.539418,-0.334230,0.134693,-0.671537,-0.728626,-0.083606,0.624387,0.758426,7.871588,-31.238895,-44.487473,,,,,,,
1508436985.594280,0.190430,0.688172,-0.877978,-2.555884,0.254375,-0.497163,0.146202,-0.635126,-0.758446,-0.088951,0.637094,0.745064,8.389039,-29.781954,-45.383091,,,,,,,
1508436985.614291,0.189008,0.628457,-0.877729,-3.176163,-0.280122,-0.544393,0.151987,-0.587897,-0.794529,-0.013605,0.518180,0.692005,9.061290,-25.969841,-47.543938,,,,,,,
1508436985.634297,0.170244,0.556464,-0.868613,-3.881880,-0.975512,-0.026220,0.143862,-0.528187,-0.836853,-0.061525,0.266361,0.575668,8.761675,-22.572626,-49.301880,,,,,,,
1508436985.654301,0.126411,0.467946,-0.842516,-5.004713,-1.883179,0.692611,0.112521,-0.451054,-0.885375,-0.057956,0.119481,0.456222,8.199407,-20.589157,-50.257557,,,,,,,
1508436985.674305,0.072153,0.351986,-0.816711,-6.363462,-2.228551,0.448058,0.067670,-0.344763,-0.936248,-0.202695,0.079153,-0.089937,4.900570,-12.605644,-53.235775,,,,,,,
1508436985.694311,0.033748,0.221895,-0.805349,-6.559724,-1.366048,0.107276,0.032914,-0.220079,-0.974927,-0.519364,0.358583,-0.725192,2.717657,-5.636335,-54.569332,,,,,,,
1508436985.714306,0.025624,0.099067,-0.806320,-5.640702,0.240159,-0.459454,0.025495,-0.098905,-0.994770,-0.490064,0.436399,-1.136608,2.055786,-2.060229,-54.849747,,,,,,,
1508436985.734320,0.041852,0.010317,-0.820429,-3.668097,0.872537,-1.054438,0.041838,-0.010317,-0.999071,0.135058,0.710665,-1.891249,2.443475,6.742826,-54.456673,,,,,,,
1508436985.754317,0.053590,-0.044561,-0.839189,-2.182140,0.430863,-0.906263,0.053511,0.044546,-0.997573,0.470506,0.279825,-1.728242,2.964359,3.880414,-54.124512,,,,,,,
1508436985.774330,0.056320,-0.074059,-0.844316,-1.076763,-0.050534,-0.022545,0.056136,0.073991,-0.995678,0.474793,0.129683,-1.560063,3.302295,6.126914,-53.896790,,,,,,,
1508436985.794333,0.050754,-0.086764,-0.838515,-0.444177,-0.403008,0.372358,0.050542,0.086655,-0.994955,0.277171,0.005371,-0.959238,3.111560,7.343465,-53.755924,,,,,,,
1508436985.814339,0.042004,-0.091787,-0.827368,-0.209669,-0.544181,0.624810,0.041815,0.091658,-0.994912,-0.015661,-0.162703,-0.545814,2.697965,7.676005,-53.731815,,,,,,,
1508436985.834345,0.032986,-0.094717,-0.815767,-0.153777,-0.424600,0.480150,0.032833,0.094575,-0.994976,-0.095531,-0.105272,-0.410145,2.325884,7.807163,-53.730309,,,,,,,
1508436985.854338,0.029627,-0.097804,-0.812557,-0.185591,-0.008109,-0.041956,0.029481,0.097648,-0.994784,-0.164399,-0.085045,-0.200421,1.953861,7.992403,-53.717892,,,,,,,
1508436985.874343,0.034088,-0.103203,-0.815811,-0.301462,0.321325,-0.166073,0.033900,0.103020,-0.994101,-0.117274,-0.180031,-0.138299,2.029198,8.174507,-53.687687,,,,,,,
1508436985.894360,0.037780,-0.109339,-0.816922,-0.283197,0.079248,-0.033553,0.037546,0.109121,-0.993319,-0.041376,-0.117849,-0.140943,2.313031,8.505253,-53.624794,,,,,,,
1508436985.914363,0.036560,-0.112934,-0.817913,-0.093386,-0.105002,-0.074742,0.036319,0.112694,-0.992966,-0.077136,-0.011971,-0.097183,2.334330,8.830853,-53.571213,,,,,,,
1508436985.934340,0.035328,-0.112498,-0.820092,0.064479,0.000534,-0.133971,0.035097,0.112261,-0.993059,-0.077211,0.013060,-0.041258,2.250815,8.862764,-53.569519,,,,,,,
1508436985.954357,0.035797,-0.112526,-0.823769,-0.052510,0.043313,-0.203814,0.035563,0.112289,-0.993039,-0.014994,-0.026748,-0.022021,2.238385,8.815972,-53.577759,,,,,,,
1508436985.974376,0.036067,-0.115652,-0.827183,-0.184972,0.042144,-0.135454,0.035819,0.115394,-0.992674,-0.028327,-0.025398,-0.018023,2.244871,8.954395,-53.554527,,,,,,,
1508436985.994369,0.037178,-0.118410,-0.828799,-0.074681,0.065463,-0.091090,0.036909,0.118134,-0.992311,-0.014692,0.068451,-0.041532,2.275439,9.099030,-53.528851,,,,,,,
1508436986.014387,0.037844,-0.117585,-0.831831,0.114546,0.037877,-0.169738,0.037573,0.117314,-0.992384,0.026437,0.081569,-0.036654,2.323687,9.156206,-53.517029,,,,,,,
1508436986.034390,0.037845,-0.114433,-0.835374,0.167036,0.016563,-0.171601,0.037588,0.114183,-0.992748,0.030191,0.025893,0.002682,2.326290,8.985365,-53.545860,,,,,,,
1508436986.054397,0.037739,-0.112568,-0.838579,0.049562,-0.006944,-0.121056,0.037491,0.112330,-0.992963,0.037506,-0.053386,0.022428,2.319519,8.875816,-53.564426,,,,,,,
1508436986.074400,0.036778,-0.112473,-0.839560,-0.003508,-0.047603,-0.024460,0.036538,0.112236,-0.993010,0.034263,-0.009361,0.043821,2.283512,8.836826,-53.572418,,,,,,,
1508436986.094404,0.036560,-0.112581,-0.840480,-0.001688,0.029151,-0.053298,0.036320,0.112343,-0.993006,0.042232,0.013649,0.046976,2.235258,8.843739,-53.573311,,,,,,,
1508436986.114388,0.036825,-0.112341,-0.841119,0.027405,-0.009259,-0.026105,0.036585,0.112105,-0.993023,0.085089,0.024141,0.010357,2.254963,8.843369,-53.572544,,,,,,,
1508436986.134415,0.036419,-0.111669,-0.842254,0.029411,-0.009176,-0.067694,0.036184,0.111437,-0.993113,0.092555,0.016432,0.027231,2.238938,8.812712,-53.578270,,,,,,,
1508436986.154418,0.036197,-0.111590,-0.843208,-0.010095,0.006730,-0.026309,0.035964,0.111359,-0.993129,0.131775,-0.017914,0.037487,2.213415,8.789436,-53.583157,,,,,,,
1508436986.174413,0.036718,-0.112141,-0.842691,-0.034504,0.025751,0.053406,0.036479,0.111906,-0.993049,0.166859,-0.028272,0.035484,2.225213,8.805157,-53.580086,,,,,,,
1508436986.194430,0.037638,-0.112201,-0.840628,0.021354,0.041554,0.134174,0.037393,0.111966,-0.993008,0.208716,-0.028180,0.017300,2.265817,8.833575,-53.573708,,,,,,,
1508436986.214433,0.038897,-0.111350,-0.837556,0.036400,0.051080,0.162815,0.038646,0.111120,-0.993055,0.281865,-0.054846,0.017729,2.353562,8.789660,-53.577145,,,,,,,
1508436986.234420,0.040219,-0.110931,-0.832897,-0.000557,0.023139,0.290137,0.039961,0.110703,-0.993050,0.359346,-0.097230,0.026390,2.418557,8.761769,-53.578819,,,,,,,
1508436986.254444,0.040840,-0.110110,-0.824964,0.048216,-0.002774,0.457886,0.040581,0.109887,-0.993115,0.404579,-0.100457,0.052777,2.482189,8.739750,-53.579506,,,,,,,
1508436986.274446,0.042079,-0.108075,-0.813512,0.073370,-0.004177,0.624230,0.041821,0.107865,-0.993286,0.479480,-0.125916,0.025573,2.513703,8.707607,-53.583271,,,,,,,
1508436986.294440,0.042379,-0.107135,-0.799582,-0.006146,-0.113068,0.752759,0.042124,0.106930,-0.993374,0.577948,-0.113400,-0.014622,2.656024,8.558748,-53.600384,,,,,,,
1508436986.314458,0.040280,-0.106175,-0.781042,0.044525,-0.289415,1.038915,0.040042,0.105976,-0.993562,0.589642,-0.025836,-0.014906,2.659326,8.521744,-53.606113,,,,,,,
1508436986.334459,0.034023,-0.103001,-0.755579,0.157821,-0.543745,1.427453,0.033837,0.102819,-0.994124,0.483330,-0.023611,-0.063264,2.427529,8.356519,-53.643112,,,,,,,
1508436986.354445,0.024877,-0.097956,-0.723537,0.174648,-0.569746,1.643210,0.024755,0.097800,-0.994898,0.302241,0.020471,-0.077551,2.025455,8.071526,-53.703407,,,,,,,
1508436986.374473,0.021966,-0.096006,-0.691949,-0.000392,-0.116761,1.534407,0.021863,0.095859,-0.995155,0.220111,0.055188,-0.091027,1.873622,7.958949,-53.725716,,,,,,,
1508436986.394475,0.023871,-0.095915,-0.660324,0.001104,-0.173378,1.614133,0.023759,0.095768,-0.995120,0.045867,0.085324,-0.222379,2.038188,7.872149,-53.732513,,,,,,,
1508436986.414473,0.019205,-0.092720,-0.628207,0.184690,-0.416147,1.562008,0.019121,0.092587,-0.995521,-0.187090,0.143284,-0.116784,1.942020,7.722076,-53.757843,,,,,,,
1508436986.434486,0.017976,-0.087791,-0.599681,0.221274,-0.022608,1.322753,0.017906,0.087678,-0.995988,-0.324730,0.140334,-0.050933,1.854711,7.587896,-53.780033,,,,,,,
1508436986.454490,0.024755,-0.085082,-0.576860,0.031982,0.364667,1.048571,0.024662,0.084979,-0.996077,-0.368062,0.095288,0.048064,2.188607,7.219487,-53.818184,,,,,,,
1508436986.474471,0.031788,-0.085051,-0.555819,-0.018587,0.105810,1.057694,0.031667,0.084949,-0.995882,-0.393575,0.113141,-0.013304,2.591512,7.188843,-53.804390,,,,,,,
1508436986.494501,0.033690,-0.083447,-0.537265,0.088836,0.057273,0.812002,0.033566,0.083350,-0.995955,-0.442257,0.174463,0.022887,2.798437,7.158919,-53.798016,,,,,,,
1508436986.514503,0.039532,-0.081028,-0.525148,0.074060,0.362570,0.493027,0.039392,0.080939,-0.995940,-0.495889,0.152322,0.058852,3.138925,6.953906,-53.806118,,,,,,,
1508436986.534508,0.049039,-0.081019,-0.517228,-0.056045,0.439546,0.369383,0.048859,0.080930,-0.995522,-0.381790,0.118365,0.004036,3.518003,6.904388,-53.789040,,,,,,,
1508436986.554515,0.055891,-0.081477,-0.509924,-0.006315,0.226562,0.331915,0.055677,0.081386,-0.995126,-0.377561,0.141834,-0.037741,3.906800,6.925905,-53.759434,,,,,,,
1508436986.574518,0.061755,-0.079348,-0.505966,0.157497,0.337705,0.131849,0.061522,0.079264,-0.994953,-0.364332,0.201589,0.055378,4.402414,6.858811,-53.729729,,,,,,,
1508436986.594497,0.067672,-0.075391,-0.504015,0.173930,0.201364,0.125283,0.067429,0.075319,-0.994877,-0.243256,0.039183,0.105824,4.763957,6.647673,-53.725422,,,,,,,
1508436986.614529,0.068951,-0.073912,-0.500484,-0.003884,-0.007543,0.208419,0.068708,0.073845,-0.994900,-0.252531,-0.038719,0.118389,4.883414,6.531784,-53.728912,,,,,,,
1508436986.634532,0.069580,-0.074630,-0.497102,-0.063329,0.065140,0.092249,0.069331,0.074561,-0.994803,-0.286692,0.086984,0.116111,4.900475,6.514016,-53.729515,,,,,,,
1508436986.654519,0.071804,-0.076286,-0.499923,-0.081940,0.154315,-0.286501,0.071534,0.076212,-0.994522,-0.204438,0.070532,0.091065,4.994183,6.588618,-53.711792,,,,,,,
1508436986.674543,0.074358,-0.079346,-0.506127,-0.149247,0.124494,-0.280687,0.074056,0.079262,-0.994099,-0.136526,-0.025612,0.036580,5.120862,6.720596,-53.683502,,,,,,,
1508436986.694536,0.074702,-0.082803,-0.510643,-0.154068,-0.016185,-0.245588,0.074377,0.082709,-0.993794,-0.099584,0.051721,0.012837,5.192228,6.957510,-53.646450,,,,,,,
1508436986.714553,0.073388,-0.086387,-0.516270,-0.157465,-0.026703,-0.312610,0.073048,0.086279,-0.993589,-0.121495,0.075525,0.015409,5.111092,7.154496,-53.628330,,,,,,,
1508436986.734557,0.072775,-0.089522,-0.522681,-0.112700,-0.004276,-0.347090,0.072420,0.089402,-0.993359,-0.120134,0.085463,0.008938,5.078685,7.253566,-53.618099,,,,,,,
1508436986.754561,0.070783,-0.091990,-0.529367,-0.094060,-0.120456,-0.314497,0.070425,0.091861,-0.993278,-0.070516,0.047101,-0.032219,4.960931,7.488134,-53.596874,,,,,,,
1508436986.774550,0.066502,-0.093934,-0.534220,-0.069892,-0.229304,-0.220168,0.066160,0.093795,-0.993391,-0.133696,0.057465,-0.033846,4.743876,7.607094,-53.599770,,,,,,,
1508436986.794571,0.060751,-0.095108,-0.538869,-0.021735,-0.279294,-0.264264,0.060439,0.094965,-0.993644,-0.163741,0.074728,-0.032372,4.599707,7.652448,-53.605881,,,,,,,
1508436986.814575,0.054983,-0.095716,-0.545771,-0.013675,-0.247089,-0.389494,0.054703,0.095570,-0.993918,-0.257096,0.096950,-0.034829,4.107265,7.727820,-53.635056,,,,,,,
1508436986.834578,0.049440,-0.096436,-0.554188,-0.003145,-0.237416,-0.433361,0.049190,0.096286,-0.994137,-0.284359,0.088787,-0.055469,3.787225,7.778024,-53.651348,,,,,,,
1508436986.854585,0.043676,-0.096315,-0.564695,0.050912,-0.234986,-0.590183,0.043460,0.096166,-0.994416,-0.315494,0.108057,-0.052657,3.624475,7.792823,-53.660442,,,,,,,
1508436986.874589,0.037537,-0.095608,-0.578628,0.062247,-0.248544,-0.737144,0.037357,0.095462,-0.994732,-0.356647,0.063687,-0.007526,3.100135,7.772715,-53.696201,,,,,,,
1508436986.894590,0.030480,-0.095595,-0.595956,0.003680,-0.252300,-0.982295,0.030336,0.095450,-0.994972,-0.367693,0.107370,0.012153,2.686501,7.771255,-53.718697,,,,,,,
1508436986.914600,0.025273,-0.097084,-0.620271,-0.054583,-0.093964,-1.316168,0.025151,0.096931,-0.994973,-0.361806,0.116066,0.013711,2.395649,7.826502,-53.724430,,,,,,,
1508436986.934604,0.022006,-0.098992,-0.648521,-0.064898,-0.007413,-1.448570,0.021897,0.098831,-0.994863,-0.233109,0.096085,0.018240,2.045738,7.979475,-53.716393,,,,,,,
1508436986.954604,0.018741,-0.099960,-0.677927,0.019780,-0.058561,-1.451091,0.018647,0.099794,-0.994833,-0.132218,0.079894,0.001822,1.869191,8.062967,-53.710358,,,,,,,
1508436986.974608,0.011676,-0.099292,-0.706662,0.066564,-0.294036,-1.427451,0.011619,0.099129,-0.995007,-0.074042,0.073783,-0.007267,1.534335,8.084127,-53.717785,,,,,,,
1508436986.994617,0.003071,-0.098003,-0.736136,0.092934,-0.239580,-1.495438,0.003056,0.097847,-0.995197,0.061687,0.071160,0.043247,1.132337,8.060678,-53.731285,,,,,,,
1508436987.014600,-0.001709,-0.095120,-0.767502,0.153027,-0.034888,-1.586954,-0.001701,0.094976,-0.995478,0.289040,-0.009893,0.081461,0.536000,7.955965,-53.756149,,,,,,,
1508436987.034629,-0.009091,-0.093941,-0.798205,-0.036021,-0.356831,-1.441392,-0.009051,0.093803,-0.995550,0.450686,-0.125175,0.057470,0.303610,7.848264,-53.773788,,,,,,,
1508436987.054631,-0.018466,-0.096789,-0.821088,-0.214215,-0.340744,-0.940330,-0.018379,0.096638,-0.995150,0.577675,-0.101017,0.039919,-0.528945,7.936249,-53.759132,,,,,,,
1508436987.074637,-0.027197,-0.100445,-0.836483,-0.163973,-0.404118,-0.683536,-0.027056,0.100276,-0.994592,0.635485,0.026189,-0.045585,-1.032405,8.152025,-53.719517,,,,,,,
1508436987.094620,-0.040673,-0.102130,-0.846938,-0.090487,-0.714658,-0.413579,-0.040450,0.101952,-0.993967,0.633910,-0.007729,-0.090323,-1.326877,8.222867,-53.702248,,,,,,,
1508436987.114641,-0.054445,-0.105448,-0.852998,-0.247600,-0.580758,-0.234132,-0.054116,0.105252,-0.992972,0.456292,0.015963,-0.039468,-2.509521,8.402018,-53.632233,,,,,,,
1508436987.134627,-0.062929,-0.110457,-0.855759,-0.225269,-0.323359,-0.042748,-0.062504,0.110233,-0.991938,0.342137,0.035611,-0.075231,-3.046349,8.675182,-53.560890,,,,,,,
1508436987.154657,-0.069324,-0.112359,-0.855253,-0.022714,-0.343805,0.035237,-0.068832,0.112122,-0.991308,0.295471,0.038894,-0.100672,-3.215491,8.780934,-53.533760,,,,,,,
1508436987.174659,-0.074516,-0.112209,-0.855180,-0.004094,-0.177541,-0.010907,-0.073978,0.111974,-0.990954,0.125782,-0.037755,-0.030104,-3.704295,8.827787,-53.494450,,,,,,,
1508436987.194643,-0.074731,-0.113446,-0.856804,-0.100541,0.099686,-0.132148,-0.074182,0.113203,-0.990799,0.073541,-0.054517,-0.015183,-3.788270,8.870979,-53.481422,,,,,,,
1508436987.214670,-0.071026,-0.115319,-0.860218,-0.092434,0.236065,-0.147994,-0.070495,0.115064,-0.990854,0.069961,-0.057721,-0.010077,-3.732852,8.921904,-53.476849,,,,,,,
1508436987.234674,-0.067294,-0.116453,-0.861761,-0.046863,0.147413,-0.034781,-0.066788,0.116190,-0.990979,0.083893,-0.059916,-0.004932,-3.419372,9.045737,-53.477009,,,,,,,
1508436987.254677,-0.065984,-0.117045,-0.862152,-0.017565,0.029130,-0.017093,-0.065485,0.116778,-0.990997,0.043054,-0.028078,0.005920,-3.319196,9.085048,-53.476658,,,,,,,
1508436987.274685,-0.065513,-0.117181,-0.862144,-0.000345,0.036508,0.020108,-0.065017,0.116913,-0.991012,0.010131,-0.029602,0.005523,-3.308766,9.092759,-53.475990,,,,,,,
1508436987.294688,-0.064454,-0.117326,-0.861331,-0.016375,0.052448,0.041214,-0.063966,0.117057,-0.991063,-0.006560,-0.013572,0.009404,-3.243818,9.099302,-53.478859,,,,,,,
1508436987.314669,-0.063216,-0.118425,-0.860775,-0.075317,0.071657,0.031383,-0.062731,0.118149,-0.991012,-0.030988,-0.016006,0.007294,-3.197524,9.125593,-53.477165,,,,,,,
1508436987.334699,-0.060957,-0.120257,-0.860111,-0.079732,0.128096,0.041231,-0.060480,0.119967,-0.990934,-0.037055,-0.005145,0.000135,-3.134763,9.187267,-53.470322,,,,,,,
1508436987.354702,-0.058776,-0.121211,-0.859475,-0.029350,0.080180,0.024827,-0.058311,0.120914,-0.990949,-0.018044,0.017422,-0.027682,-2.939588,9.303793,-53.461254,,,,,,,
1508436987.374704,-0.057012,-0.121581,-0.859175,-0.010171,0.098302,0.016020,-0.056561,0.121282,-0.991005,-0.031940,0.001276,-0.027137,-2.875090,9.324478,-53.461163,,,,,,,
1508436987.394713,-0.055478,-0.121488,-0.859228,0.016522,0.076002,-0.022064,-0.055040,0.121189,-0.991102,-0.034574,0.000042,-0.050844,-2.777347,9.333742,-53.464710,,,,,,,
1508436987.414716,-0.053171,-0.120575,-0.860015,0.052685,0.137874,-0.050770,-0.052760,0.120283,-0.991337,-0.033787,0.025316,-0.055615,-2.716175,9.318752,-53.470470,,,,,,,
1508436987.434707,-0.050528,-0.120171,-0.861109,-0.006144,0.137874,-0.043262,-0.050142,0.119882,-0.991521,0.008653,-0.012338,-0.069819,-2.550553,9.258411,-53.489105,,,,,,,
1508436987.454728,-0.047920,-0.119106,-0.860996,-0.004702,0.084484,0.021489,-0.047562,0.118824,-0.991775,-0.008316,0.016185,-0.124649,-2.391580,9.195527,-53.507294,,,,,,,
1508436987.474731,-0.046398,-0.118208,-0.860297,0.088487,0.072707,0.039717,-0.046057,0.117933,-0.991953,-0.018670,0.019610,-0.172522,-2.341589,9.199623,-53.508801,,,,,,,
1508436987.494736,-0.044919,-0.115199,-0.859454,0.180512,0.059924,0.028104,-0.044607,0.114944,-0.992370,-0.023676,-0.009811,-0.213212,-2.214902,9.082239,-53.534241,,,,,,,
1508436987.514741,-0.043747,-0.112158,-0.858944,0.105584,0.045072,0.007050,-0.043458,0.111923,-0.992766,-0.010222,-0.055191,-0.279207,-2.143501,8.894900,-53.568592,,,,,,,
1508436987.534746,-0.042156,-0.112007,-0.859616,-0.010453,0.143214,-0.048668,-0.041880,0.111773,-0.992851,-0.005789,-0.040011,-0.377358,-2.068278,8.816595,-53.584492,,,,,,,
1508436987.554751,-0.036991,-0.109757,-0.859900,0.196861,0.279435,-0.010280,-0.036760,0.109537,-0.993303,-0.020735,0.049170,-0.461745,-1.831201,8.751136,-53.603844,,,,,,,
1508436987.574755,-0.031941,-0.103216,-0.859915,0.405853,0.191989,0.012158,-0.031765,0.103033,-0.994171,0.028668,0.029352,-0.501236,-1.682631,8.632088,-53.628014,,,,,,,
1508436987.594759,-0.031454,-0.093301,-0.858521,0.551233,-0.081882,0.046943,-0.031312,0.093166,-0.995158,0.021654,-0.018840,-0.660771,-1.440161,7.961934,-53.738640,,,,,,,
1508436987.614757,-0.034253,-0.083948,-0.858876,0.360517,-0.150798,-0.091600,-0.034126,0.083850,-0.995894,-0.026833,-0.082186,-0.809267,0.478282,13.495711,-49.145123,,,,,,,
1508436987.634769,-0.034266,-0.083166,-0.862955,-0.092815,0.260835,-0.261440,-0.034141,0.083070,-0.995959,-0.030922,-0.077745,-0.911741,0.390231,13.354445,-49.184475,,,,,,,
1508436987.654774,-0.017913,-0.080258,-0.866326,0.388133,1.017734,-0.080843,-0.017854,0.080172,-0.996621,-0.036253,0.339963,-1.163032,0.923584,13.336479,-49.182228,,,,,,,
1508436987.674758,-0.000065,-0.057841,-0.865199,1.638529,0.701679,0.136063,-0.000065,0.057808,-0.998328,0.097324,0.418052,-1.170709,1.655807,12.853420,-49.291519,,,,,,,
1508436987.694784,0.004641,-0.006596,-0.857956,3.076703,0.033712,0.522141,0.004641,0.006596,-0.999967,0.141660,0.415477,-1.047945,2.186404,11.631751,-49.573463,,,,,,,
