timestamp(unix),attitude_roll(radians),attitude_pitch(radians),attitude_yaw(radians),rotation_rate_x(radians/s),rotation_rate_y(radians/s),rotation_rate_z(radians/s),gravity_x(G),gravity_y(G),gravity_z(G),user_acc_x(G),user_acc_y(G),user_acc_z(G),magnetic_field_x(microteslas),magnetic_field_y(microteslas),magnetic_field_z(microteslas),latitude(degree),longitude(degree),altitude(meter),speed(m/s),course(degree),timestamp(unix),User Mark
1508184029.687607,-0.076799,0.056123,3.044320,-0.009892,0.014906,-0.009641,-0.076603,-0.056094,-0.995483,0.001301,0.010897,-0.018342,20.368580,28.111698,-46.194698,,,,,,,
1508184029.707615,-0.075976,0.056511,3.044073,0.029578,0.053250,-0.012360,-0.075781,-0.056481,-0.995524,0.003760,-0.003090,-0.012991,20.368580,28.111698,-46.194698,,,,,,,
1508184029.727622,-0.074841,0.056962,3.043890,0.009251,0.055379,-0.009176,-0.074650,-0.056932,-0.995583,0.014210,-0.018538,0.011315,20.415146,28.112625,-46.173576,,,,,,,
1508184029.747611,-0.073329,0.057119,3.043732,-0.053829,0.050048,0.001612,-0.073143,-0.057088,-0.995686,0.025414,-0.010875,0.003636,20.502785,28.086969,-46.150352,,,,,,,
1508184029.767636,-0.071758,0.055441,3.043611,-0.075223,0.041545,-0.003581,-0.071587,-0.055412,-0.995894,0.022530,0.005806,-0.006441,20.537983,28.131432,-46.107601,,,,,,,
1508184029.787642,-0.070166,0.053889,3.043282,-0.016292,0.004270,-0.012682,-0.070007,-0.053862,-0.996091,0.019332,0.011977,-0.017001,20.622839,28.211811,-46.020527,,,,,,,
1508184029.807649,-0.069011,0.053956,3.043166,0.012608,0.022338,0.006228,-0.068856,-0.053930,-0.996168,0.009530,0.002355,0.001676,20.685455,28.254133,-45.966434,,,,,,,
1508184029.827656,-0.067981,0.054358,3.043325,0.023229,0.040461,-0.001507,-0.067829,-0.054331,-0.996217,0.010456,0.003108,-0.001083,20.722347,28.240444,-45.958229,,,,,,,
1508184029.847662,-0.065789,0.054828,3.043328,-0.049572,0.072407,0.015146,-0.065642,-0.054800,-0.996337,0.019057,-0.018869,-0.000138,20.783997,28.213383,-45.947006,,,,,,,
1508184029.867667,-0.062978,0.052530,3.043728,-0.064531,0.076654,0.026824,-0.062850,-0.052506,-0.996641,0.015502,0.029313,-0.006716,20.959505,28.257511,-45.840042,,,,,,,
1508184029.887676,-0.060560,0.051210,3.043730,0.020821,0.121446,-0.009078,-0.060443,-0.051188,-0.996858,0.014331,0.038493,0.001985,21.044018,28.320383,-45.762451,,,,,,,
1508184029.907682,-0.056792,0.052076,3.044059,0.069254,0.082988,0.042625,-0.056684,-0.052053,-0.997034,0.042036,-0.006404,0.016901,21.167410,28.375507,-45.671307,,,,,,,
1508184029.927689,-0.056455,0.052911,3.045595,0.020451,-0.010828,0.086675,-0.056346,-0.052887,-0.997010,0.021006,-0.021149,0.023102,21.344040,28.255795,-45.663322,,,,,,,
1508184029.947676,-0.056667,0.052216,3.047319,-0.057776,0.022223,0.081989,-0.056560,-0.052192,-0.997034,-0.001546,-0.002800,0.016657,21.361866,28.232944,-45.669117,,,,,,,
1508184029.967676,-0.054943,0.050716,3.048358,-0.074239,0.119241,0.043274,-0.054845,-0.050694,-0.997207,0.001348,0.018147,-0.002472,21.477306,28.260935,-45.597607,,,,,,,
1508184029.987693,-0.052794,0.049261,3.049049,-0.066712,0.095824,0.032945,-0.052706,-0.049241,-0.997395,0.042070,0.022355,-0.008479,21.605270,28.309486,-45.506947,,,,,,,
1508184030.007716,-0.049250,0.047591,3.049906,-0.035671,0.131966,0.069717,-0.049174,-0.047573,-0.997657,0.045634,0.023129,-0.000680,21.660131,28.331760,-45.466984,,,,,,,
1508184030.027723,-0.046888,0.047325,3.052149,0.010631,0.099878,0.129861,-0.046819,-0.047307,-0.997783,0.053990,0.013677,-0.002126,21.955917,28.349014,-45.314106,,,,,,,
1508184030.047721,-0.045967,0.047873,3.055053,0.039788,0.036973,0.154210,-0.045898,-0.047855,-0.997799,0.040969,0.003665,0.018750,22.096069,28.264111,-45.299011,,,,,,,
1508184030.067737,-0.044451,0.048078,3.058445,-0.022276,0.059322,0.174192,-0.044385,-0.048060,-0.997858,0.025922,-0.004751,0.031061,22.157742,28.212330,-45.301167,,,,,,,
1508184030.087742,-0.043510,0.046864,3.061502,-0.065148,0.046615,0.141353,-0.043448,-0.046847,-0.997957,0.011664,-0.003140,0.014482,22.403425,28.127348,-45.233128,,,,,,,
1508184030.107741,-0.041956,0.045517,3.064325,-0.047101,0.105181,0.150087,-0.041900,-0.045502,-0.998085,-0.011749,-0.000153,-0.001457,22.503811,28.126076,-45.184059,,,,,,,
1508184030.127757,-0.040361,0.044766,3.067299,0.010706,0.084947,0.139674,-0.040309,-0.044751,-0.998185,0.002971,0.014981,-0.017044,22.671234,28.112806,-45.108559,,,,,,,
1508184030.147763,-0.039177,0.045151,3.069895,0.027830,0.068991,0.126030,-0.039127,-0.045136,-0.998214,-0.007626,0.014099,-0.002076,22.787647,28.057915,-45.084068,,,,,,,
1508184030.167746,-0.037757,0.045122,3.072129,0.005078,0.130838,0.096360,-0.037709,-0.045107,-0.998270,0.006612,-0.007674,0.015803,22.971964,27.954920,-45.054501,,,,,,,
1508184030.187777,-0.035203,0.044317,3.073925,-0.054807,0.114880,0.093438,-0.035161,-0.044302,-0.998399,0.017323,-0.007745,0.007005,23.103428,27.932592,-45.001099,,,,,,,
1508184030.207783,-0.033206,0.042863,3.076048,-0.080260,0.072216,0.124998,-0.033170,-0.042850,-0.998531,0.012174,0.002170,-0.004307,23.241629,27.933754,-44.929153,,,,,,,
1508184030.227772,-0.031640,0.041373,3.079083,-0.053419,0.085977,0.165298,-0.031607,-0.041362,-0.998644,0.022788,0.037623,-0.022413,23.458410,27.943069,-44.810539,,,,,,,
1508184030.247798,-0.030589,0.041355,3.082379,0.038731,0.045472,0.166883,-0.030558,-0.041343,-0.998678,0.021738,0.037604,-0.022380,23.577267,27.905579,-44.771511,,,,,,,
1508184030.267804,-0.029485,0.041971,3.086305,0.080751,0.000629,0.215485,-0.029455,-0.041958,-0.998685,0.033407,0.013974,-0.025759,23.780922,27.772556,-44.746506,,,,,,,
1508184030.287802,-0.029589,0.042832,3.091277,0.027384,0.004811,0.261315,-0.029558,-0.042818,-0.998646,0.026369,-0.004057,-0.019741,23.878899,27.643375,-44.774311,,,,,,,
1508184030.307801,-0.029116,0.042342,3.096447,-0.038086,0.063430,0.254116,-0.029086,-0.042329,-0.998680,0.020007,0.004823,-0.015663,24.031588,27.503162,-44.778969,,,,,,,
1508184030.327814,-0.027610,0.041159,3.101368,-0.041351,0.068781,0.242312,-0.027583,-0.041147,-0.998772,0.007716,-0.009497,-0.014793,24.289454,27.403389,-44.700935,,,,,,,
1508184030.347830,-0.026978,0.041141,3.105647,0.036684,0.043291,0.194639,-0.026952,-0.041129,-0.998790,-0.013178,-0.002236,-0.009617,24.419636,27.334877,-44.671947,,,,,,,
1508184030.367817,-0.026206,0.042786,3.109292,0.105867,0.139194,0.167605,-0.026179,-0.042773,-0.998742,-0.038091,0.000079,-0.010017,24.532101,27.237972,-44.669518,,,,,,,
1508184030.387845,-0.023117,0.044932,3.112001,0.107860,0.130788,0.112260,-0.023091,-0.044916,-0.998724,0.009984,-0.000341,-0.008661,24.784500,26.982363,-44.685318,,,,,,,
1508184030.407828,-0.020686,0.046637,3.114103,0.068243,0.140383,0.113217,-0.020662,-0.046620,-0.998699,-0.003172,-0.016734,0.001293,24.926199,26.873335,-44.672195,,,,,,,
1508184030.427858,-0.017811,0.048065,3.116732,0.068279,0.145677,0.129135,-0.017789,-0.048047,-0.998687,-0.007800,-0.002445,0.004836,25.063828,26.781662,-44.650238,,,,,,,
1508184030.447865,-0.016089,0.049741,3.119017,0.077981,0.093528,0.103226,-0.016069,-0.049720,-0.998634,-0.011077,-0.000390,-0.002739,25.339895,26.581306,-44.614128,,,,,,,
1508184030.467856,-0.014927,0.050739,3.120857,0.096128,0.079725,0.077821,-0.014907,-0.050717,-0.998602,-0.012345,0.020779,0.002539,25.422260,26.489090,-44.622124,,,,,,,
1508184030.487879,-0.013396,0.051999,3.122453,0.064068,0.072263,0.084351,-0.013377,-0.051976,-0.998559,0.004832,-0.004863,0.022149,25.514006,26.422333,-44.609337,,,,,,,
1508184030.507885,-0.011638,0.053345,3.124519,0.017240,0.029592,0.123392,-0.011621,-0.053319,-0.998510,0.016427,-0.007075,0.029134,25.668011,26.278261,-44.606087,,,,,,,
1508184030.527881,-0.011719,0.053324,3.127720,-0.003840,-0.013133,0.183741,-0.011702,-0.053299,-0.998510,0.015593,-0.001999,0.025137,25.758291,26.207235,-44.595825,,,,,,,
1508184030.547900,-0.012594,0.053136,3.131980,-0.005647,-0.080324,0.225236,-0.012576,-0.053111,-0.998509,0.011401,-0.000265,0.010854,25.840996,26.113998,-44.602676,,,,,,,
1508184030.567905,-0.015040,0.052533,3.136132,0.021080,-0.109026,0.192576,-0.015019,-0.052509,-0.998507,-0.004543,0.013950,0.013965,25.898598,25.987505,-44.643131,,,,,,,
1508184030.587912,-0.017477,0.052946,3.139948,0.004866,-0.061075,0.185495,-0.017452,-0.052922,-0.998446,-0.006138,-0.003841,0.018573,25.880507,25.881502,-44.715141,,,,,,,
1508184030.607919,-0.018318,0.052835,-3.139686,-0.001724,-0.017375,0.173137,-0.018292,-0.052810,-0.998437,-0.006641,0.003540,0.022988,25.905813,25.832134,-44.729034,,,,,,,
1508184030.627926,-0.019538,0.053542,-3.136187,-0.013398,-0.047203,0.174645,-0.019509,-0.053516,-0.998376,-0.004096,-0.014431,0.007776,25.990316,25.680597,-44.767258,,,,,,,
1508184030.647910,-0.021334,0.053236,-3.132613,-0.045478,-0.051462,0.176864,-0.021303,-0.053210,-0.998356,-0.017958,-0.015317,0.009785,26.004852,25.571898,-44.821007,,,,,,,
1508184030.667940,-0.022760,0.052062,-3.129493,-0.070269,-0.025828,0.144522,-0.022727,-0.052039,-0.998386,-0.016351,-0.007486,0.006321,26.026625,25.549301,-44.821255,,,,,,,
1508184030.687929,-0.024075,0.050576,-3.126787,-0.029785,0.016798,0.128945,-0.024042,-0.050554,-0.998432,-0.021002,0.010332,-0.011761,26.061239,25.516525,-44.819813,,,,,,,
1508184030.707938,-0.024013,0.050500,-3.124101,0.040852,0.018897,0.135259,-0.023980,-0.050479,-0.998437,-0.010917,0.010180,-0.013037,26.112524,25.476620,-44.812664,,,,,,,
1508184030.727955,-0.024604,0.051116,-3.121349,0.030275,-0.024773,0.133768,-0.024569,-0.051093,-0.998392,-0.008909,0.006828,-0.003912,26.153095,25.420710,-44.820755,,,,,,,
1508184030.747949,-0.025840,0.051752,-3.118705,-0.018907,-0.042860,0.128736,-0.025802,-0.051729,-0.998328,-0.008423,-0.012175,0.011679,26.204624,25.276070,-44.872429,,,,,,,
1508184030.767966,-0.027457,0.051185,-3.116100,-0.023206,-0.034344,0.130748,-0.027418,-0.051163,-0.998314,-0.013308,0.004288,-0.001442,26.200184,25.247486,-44.891113,,,,,,,
1508184030.787981,-0.029064,0.050404,-3.113502,0.020649,-0.037539,0.123297,-0.029023,-0.050383,-0.998308,-0.016372,0.015395,-0.008116,26.202408,25.185865,-44.924412,,,,,,,
1508184030.807987,-0.030977,0.051191,-3.111080,0.055988,-0.052454,0.118156,-0.030931,-0.051169,-0.998211,-0.016218,-0.007684,0.004482,26.194489,25.101063,-44.976463,,,,,,,
1508184030.827992,-0.033187,0.053029,-3.108745,0.037853,-0.081193,0.107923,-0.033135,-0.053005,-0.998044,-0.012596,-0.019643,0.007795,26.164845,24.988174,-45.056511,,,,,,,
1508184030.848001,-0.035712,0.054121,-3.106563,-0.009283,-0.065199,0.104527,-0.035652,-0.054095,-0.997899,-0.017616,-0.020169,0.006429,26.110678,24.856159,-45.160831,,,,,,,
1508184030.868007,-0.037887,0.053946,-3.104819,-0.010598,-0.021458,0.068706,-0.037823,-0.053920,-0.997829,-0.031132,-0.000477,0.003719,26.064400,24.776817,-45.231110,,,,,,,
1508184030.887992,-0.039250,0.054182,-3.103728,0.018325,-0.051259,0.050990,-0.039183,-0.054155,-0.997763,-0.006060,-0.002684,-0.004419,26.018217,24.751591,-45.271488,,,,,,,
1508184030.908021,-0.040824,0.054629,-3.102676,0.036546,-0.068296,0.044826,-0.040752,-0.054602,-0.997676,-0.004841,0.007223,-0.017872,25.982719,24.699907,-45.320084,,,,,,,
1508184030.928028,-0.041526,0.054477,-3.101899,0.035372,-0.038461,0.041195,-0.041452,-0.054450,-0.997656,0.012186,0.020514,-0.008997,25.939863,24.656319,-45.368340,,,,,,,
1508184030.948018,-0.042175,0.054931,-3.100602,-0.023454,-0.007627,0.077046,-0.042099,-0.054903,-0.997604,-0.002304,-0.022901,0.031890,25.945187,24.644163,-45.371899,,,,,,,
1508184030.968042,-0.042796,0.053795,-3.099419,-0.053280,-0.085324,0.048339,-0.042721,-0.053769,-0.997639,0.034252,0.012647,0.028492,25.975376,24.611893,-45.372147,,,,,,,
1508184030.988047,-0.045440,0.053392,-3.097996,-0.004850,-0.129100,0.093722,-0.045360,-0.053367,-0.997544,0.005809,-0.000954,0.003755,25.890598,24.615522,-45.418610,,,,,,,
1508184031.008048,-0.047513,0.053352,-3.096271,0.001308,-0.067270,0.069362,-0.047427,-0.053327,-0.997450,-0.003339,0.009244,-0.024706,25.836945,24.566425,-45.475708,,,,,,,
1508184031.028062,-0.047516,0.053376,-3.095455,0.008380,0.029746,0.028497,-0.047430,-0.053351,-0.997449,-0.006510,-0.003366,-0.023761,25.829134,24.550278,-45.488861,,,,,,,
1508184031.048067,-0.046456,0.054351,-3.095150,0.038217,0.051083,0.008971,-0.046370,-0.054324,-0.997446,0.005370,-0.019070,-0.014105,25.888174,24.511612,-45.476147,,,,,,,
1508184031.068074,-0.045596,0.055058,-3.094909,0.027581,0.032970,0.012441,-0.045511,-0.055030,-0.997447,0.004618,-0.033547,0.004558,25.943007,24.451553,-45.477230,,,,,,,
1508184031.088082,-0.045422,0.055264,-3.095070,-0.006720,0.005369,-0.030851,-0.045337,-0.055236,-0.997443,0.004688,-0.029588,0.014457,25.957663,24.437237,-45.476566,,,,,,,
1508184031.108004,-0.044985,0.054788,-3.096205,-0.091495,0.053388,-0.062407,-0.044902,-0.054760,-0.997489,-0.011250,-0.026996,0.005729,25.954960,24.495655,-45.446671,,,,,,,
1508184031.127991,-0.043752,0.053005,-3.097591,-0.077593,0.049136,-0.068754,-0.043676,-0.052981,-0.997640,0.007742,0.007311,-0.007792,25.963171,24.582756,-45.394920,,,,,,,
1508184031.147995,-0.042420,0.052651,-3.098947,0.016527,0.074660,-0.059598,-0.042349,-0.052626,-0.997716,0.011419,0.021483,-0.005687,25.968397,24.631649,-45.365417,,,,,,,
1508184031.168026,-0.040230,0.053471,-3.099922,0.033751,0.057583,-0.043369,-0.040162,-0.053446,-0.997763,0.029176,-0.000143,0.009527,26.017155,24.655563,-45.324474,,,,,,,
1508184031.188019,-0.039477,0.053611,-3.100533,-0.013180,0.026666,-0.024758,-0.039410,-0.053586,-0.997785,0.031384,-0.008899,0.024824,26.062126,24.653641,-45.299675,,,,,,,
1508184031.208041,-0.037948,0.052843,-3.101015,-0.044233,0.041576,-0.017487,-0.037886,-0.052818,-0.997885,0.029112,0.006920,0.038474,26.086540,24.680946,-45.270744,,,,,,,
1508184031.228037,-0.037121,0.051745,-3.101027,-0.059075,0.029798,0.014684,-0.037063,-0.051722,-0.997974,0.031799,-0.002035,0.044726,26.165997,24.749249,-45.187527,,,,,,,
1508184031.248054,-0.036939,0.050455,-3.100539,-0.065342,-0.005384,0.030127,-0.036884,-0.050434,-0.998046,0.018390,-0.001828,0.037368,26.194607,24.793274,-45.146793,,,,,,,
1508184031.268060,-0.036900,0.048991,-3.100024,-0.079230,-0.014962,0.028144,-0.036847,-0.048972,-0.998120,0.014829,-0.000467,0.035245,26.197025,24.815340,-45.133266,,,,,,,
1508184031.288066,-0.036802,0.047175,-3.099634,-0.095414,0.023402,0.022268,-0.036753,-0.047157,-0.998211,0.015559,0.014549,0.032940,26.222713,24.904978,-45.068928,,,,,,,
1508184031.308072,-0.036069,0.045327,-3.099153,-0.085807,0.038301,0.028442,-0.036024,-0.045311,-0.998323,0.019972,0.019035,0.033449,26.253267,24.959543,-45.020927,,,,,,,
1508184031.328080,-0.034295,0.043621,-3.098508,-0.073847,-0.005408,0.047194,-0.034256,-0.043607,-0.998461,0.024597,-0.004534,0.046008,26.289001,25.006075,-44.974232,,,,,,,
1508184031.348087,-0.034515,0.042844,-3.097675,-0.088678,-0.066100,0.037422,-0.034477,-0.042831,-0.998487,0.012275,-0.010910,0.056577,26.399649,25.040421,-44.890232,,,,,,,
1508184031.368094,-0.035011,0.041721,-3.097341,-0.145722,0.026628,0.017993,-0.034973,-0.041709,-0.998518,0.000824,-0.012719,0.062192,26.371849,25.088385,-44.879787,,,,,,,
1508184031.388102,-0.033921,0.038380,-3.096874,-0.170373,0.059621,0.035660,-0.033890,-0.038371,-0.998689,-0.000259,-0.016058,0.062364,26.371849,25.088385,-44.879787,,,,,,,
1508184031.408107,-0.031332,0.035747,-3.096165,-0.150866,-0.005377,0.050435,-0.031306,-0.035739,-0.998871,0.042598,-0.007413,0.050796,26.520098,25.311613,-44.666584,,,,,,,
1508184031.428101,-0.030191,0.032751,-3.094879,-0.176412,-0.010764,0.086786,-0.030170,-0.032745,-0.999008,0.050937,-0.013306,0.045258,26.587389,25.383764,-44.585556,,,,,,,
1508184031.448122,-0.029037,0.029195,-3.093336,-0.154048,0.008440,0.071562,-0.029020,-0.029191,-0.999152,0.041288,0.003663,0.028388,26.740746,25.485888,-44.435333,,,,,,,
1508184031.468128,-0.028452,0.026118,-3.092356,-0.160645,0.050019,0.054969,-0.028439,-0.026116,-0.999254,0.040020,-0.004173,0.013170,26.798794,25.613928,-44.326607,,,,,,,
1508184031.488129,-0.027541,0.022537,-3.091082,-0.184061,0.024428,0.070286,-0.027531,-0.022535,-0.999367,0.050785,-0.000979,0.009483,26.860510,25.700315,-44.239166,,,,,,,
1508184031.508141,-0.026066,0.018187,-3.090037,-0.246095,0.002102,0.058927,-0.026059,-0.018186,-0.999495,0.047726,-0.002092,0.012145,26.975294,25.834032,-44.091194,,,,,,,
1508184031.528121,-0.024943,0.012163,-3.088595,-0.320112,0.103246,0.094836,-0.024939,-0.012163,-0.999615,0.009695,-0.007231,-0.007450,27.046663,26.083836,-43.899982,,,,,,,
1508184031.548127,-0.021922,0.006867,-3.086512,-0.204633,0.155373,0.115320,-0.021920,-0.006867,-0.999736,-0.014030,0.017304,-0.026448,27.172419,26.243143,-43.727043,,,,,,,
1508184031.568144,-0.020660,0.003700,-3.084376,-0.113335,0.025415,0.103274,-0.020659,-0.003700,-0.999780,0.001829,0.007545,-0.032248,27.315639,26.330847,-43.584850,,,,,,,
1508184031.588169,-0.020464,0.000990,-3.082675,-0.149786,0.013770,0.071481,-0.020463,-0.000990,-0.999790,-0.024703,0.000089,-0.010738,27.428717,26.431833,-43.452511,,,,,,,
1508184031.608155,-0.020448,-0.002564,-3.081951,-0.198284,0.082042,0.026809,-0.020447,0.002564,-0.999788,-0.035492,-0.003693,0.003633,27.471596,26.513287,-43.375732,,,,,,,
1508184031.628183,-0.019290,-0.006736,-3.081623,-0.212070,0.028803,0.016929,-0.019288,0.006736,-0.999791,-0.027007,-0.005744,0.000844,27.483891,26.627541,-43.297886,,,,,,,
1508184031.648189,-0.020503,-0.011309,-3.081278,-0.267556,-0.010625,0.029272,-0.020500,0.011309,-0.999726,-0.032356,-0.010272,-0.011795,27.527357,26.898924,-43.102081,,,,,,,
1508184031.668183,-0.020748,-0.016810,-3.080954,-0.261232,-0.009504,0.000460,-0.020744,0.016809,-0.999644,-0.039498,0.005728,-0.037741,27.487450,27.051449,-43.032036,,,,,,,
1508184031.688203,-0.020247,-0.020963,-3.081895,-0.175927,0.036381,-0.050385,-0.020241,0.020962,-0.999575,-0.032021,0.026661,-0.057828,27.482054,27.273085,-42.895363,,,,,,,
1508184031.708176,-0.020513,-0.024056,-3.082284,-0.133837,-0.022333,0.006949,-0.020506,0.024054,-0.999500,0.005094,-0.003302,-0.054027,27.788975,23.757898,-24.482605,,,,,,,
1508184031.728192,-0.021295,-0.026405,-3.081831,-0.104827,-0.036235,0.030587,-0.021286,0.026402,-0.999425,-0.027710,0.007046,-0.052242,27.780367,23.808010,-24.443665,,,,,,,
1508184031.748223,-0.021747,-0.028331,-3.081382,-0.101732,-0.011709,0.017434,-0.021736,0.028328,-0.999362,-0.027260,0.005120,-0.052304,27.780367,23.808010,-24.443665,,,,,,,
1508184031.768229,-0.021801,-0.030795,-3.081140,-0.144632,0.026639,0.022241,-0.021789,0.030790,-0.999288,-0.006562,-0.006193,-0.045313,27.779598,23.886917,-24.367432,,,,,,,
1508184031.788208,-0.021247,-0.033010,-3.080290,-0.072795,0.015900,0.056465,-0.021234,0.033004,-0.999230,-0.009345,0.016175,-0.058952,27.811098,23.928898,-24.290194,,,,,,,
1508184031.808244,-0.021546,-0.033783,-3.079179,0.034259,-0.003298,0.054530,-0.021532,0.033777,-0.999197,-0.011640,0.023108,-0.058832,27.827452,23.927061,-24.273268,,,,,,,
1508184031.828250,-0.021676,-0.032768,-3.078059,0.050331,-0.012885,0.052525,-0.021663,0.032762,-0.999228,-0.014211,0.002928,-0.025323,27.856005,23.874378,-24.292379,,,,,,,
1508184031.848237,-0.022082,-0.031928,-3.077150,-0.002096,-0.027760,0.039984,-0.022069,0.031923,-0.999247,0.000982,-0.013490,-0.011358,27.869947,23.820564,-24.329193,,,,,,,
1508184031.868264,-0.022692,-0.031628,-3.076388,-0.019247,-0.020293,0.036690,-0.022679,0.031622,-0.999243,-0.005764,-0.018805,-0.002207,27.872971,23.811232,-24.334862,,,,,,,
1508184031.888267,-0.023221,-0.032014,-3.075911,-0.014998,-0.034098,0.014495,-0.023207,0.032008,-0.999218,-0.017626,-0.013423,0.004925,27.874596,23.782267,-24.361313,,,,,,,
1508184031.908265,-0.023996,-0.032403,-3.076002,-0.027917,-0.042553,-0.017362,-0.023981,0.032398,-0.999187,-0.017447,-0.009616,0.002941,27.872166,23.782072,-24.364283,,,,,,,
1508184031.928275,-0.024766,-0.032932,-3.076643,-0.050532,-0.010561,-0.032737,-0.024750,0.032926,-0.999151,-0.008377,-0.008878,-0.008326,27.837301,23.810917,-24.375967,,,,,,,
1508184031.948276,-0.025039,-0.033557,-3.077052,-0.012972,-0.022333,-0.010203,-0.025023,0.033551,-0.999124,0.000044,-0.006756,-0.015403,27.806425,23.848059,-24.374899,,,,,,,
1508184031.968290,-0.026042,-0.033157,-3.077244,0.028839,-0.055354,-0.016153,-0.026024,0.033151,-0.999111,0.003121,-0.006296,-0.012653,27.802485,23.851059,-24.376455,,,,,,,
1508184031.988305,-0.026654,-0.032400,-3.077646,-0.017326,-0.010589,-0.023165,-0.026637,0.032395,-0.999120,-0.002492,-0.016831,-0.004450,27.760109,23.847752,-24.427931,,,,,,,
1508184032.008311,-0.026201,-0.032706,-3.078284,-0.022803,0.021391,-0.033222,-0.026184,0.032700,-0.999122,0.014130,0.004104,-0.017846,27.746584,23.858471,-24.432831,,,,,,,
1508184032.028289,-0.024808,-0.032653,-3.078465,0.026697,-0.028762,0.006921,-0.024792,0.032647,-0.999159,0.021252,-0.001031,-0.038606,27.759487,23.878628,-24.398460,,,,,,,
1508184032.048307,-0.025748,-0.032380,-3.078010,0.004340,-0.044776,0.027430,-0.025731,0.032374,-0.999145,0.026204,-0.013117,-0.043885,27.771326,23.864674,-24.398638,,,,,,,
1508184032.068331,-0.026166,-0.032745,-3.077585,-0.041771,-0.024500,0.015441,-0.026149,0.032739,-0.999122,0.012645,-0.004434,-0.057641,27.763369,23.843990,-24.427900,,,,,,,
1508184032.088319,-0.025560,-0.032851,-3.077621,0.023216,0.049028,-0.005933,-0.025543,0.032845,-0.999134,0.002579,0.021782,-0.075771,29.239674,23.691069,-20.676575,,,,,,,
1508184032.108344,-0.025153,-0.031697,-3.077217,0.073784,-0.001129,0.033143,-0.025138,0.031692,-0.999182,0.028434,-0.018417,-0.102762,29.256716,23.678074,-20.667358,,,,,,,
1508184032.128351,-0.026029,-0.030863,-3.076204,0.006627,-0.067195,0.052278,-0.026014,0.030859,-0.999185,0.020460,-0.026556,-0.139731,29.270140,23.616833,-20.718357,,,,,,,
1508184032.148336,-0.026363,-0.031682,-3.075625,-0.055810,0.015988,0.012732,-0.026347,0.031677,-0.999151,-0.009511,-0.025787,-0.190318,29.270124,23.602419,-20.734797,,,,,,,
1508184032.168365,-0.025522,-0.033763,-3.076173,-0.142832,0.069388,-0.045557,-0.025504,0.033757,-0.999105,-0.001153,-0.042256,-0.303065,29.279394,23.627327,-20.693298,,,,,,,
1508184032.188371,-0.023199,-0.038362,-3.077958,-0.272748,0.154754,-0.103212,-0.023180,0.038352,-0.998995,0.004290,-0.059821,-0.452512,29.288122,23.766611,-20.520729,,,,,,,
1508184032.208375,-0.019602,-0.043052,-3.080183,-0.221412,0.156885,-0.109679,-0.019583,0.043038,-0.998881,-0.022073,-0.081231,-0.570958,29.313297,23.929766,-20.293915,,,,,,,
1508184032.228386,-0.016406,-0.047311,-3.083042,-0.181913,0.132476,-0.160537,-0.016387,0.047293,-0.998747,-0.008592,-0.125952,-0.595812,29.315928,24.012939,-20.191616,,,,,,,
1508184032.248391,-0.017408,-0.050629,-3.086808,-0.147974,-0.164664,-0.194640,-0.017385,0.050607,-0.998567,0.040517,-0.106851,-0.750319,29.301527,24.181225,-20.010874,,,,,,,
1508184032.268372,-0.024435,-0.054017,-3.090839,-0.171851,-0.397972,-0.180576,-0.024397,0.053990,-0.998243,0.017515,-0.192144,-0.741930,29.039093,24.453798,-20.062128,,,,,,,
1508184032.288404,-0.026387,-0.055243,-3.093304,0.023865,0.095009,-0.094038,-0.026343,0.055215,-0.998127,-0.079095,-0.156747,-0.675091,28.930775,24.533609,-20.121092,,,,,,,
1508184032.308409,-0.022527,-0.048708,-3.093650,0.567625,0.153250,0.011340,-0.022499,0.048689,-0.998561,-0.107216,-0.015607,-0.810201,28.929703,24.535469,-20.120367,,,,,,,
1508184032.328400,-0.021523,-0.028551,-3.092899,1.286036,0.031608,0.024294,-0.021513,0.028547,-0.999361,-0.081988,0.075197,-0.715147,28.946535,24.476633,-20.167765,,,,,,,
1508184032.348417,-0.022450,0.003614,-3.090151,1.746958,-0.091276,0.157952,-0.022448,-0.003614,-0.999741,-0.080183,0.133847,-0.595565,28.985352,23.723963,-20.994505,,,,,,,
1508184032.368432,-0.024575,0.040617,-3.085032,1.923718,-0.090381,0.220718,-0.024552,-0.040606,-0.998874,-0.022338,0.124926,-0.371488,29.040226,22.630413,-22.096964,,,,,,,
1508184032.388428,-0.026191,0.083036,-3.080222,2.283916,0.006553,0.180643,-0.026098,-0.082940,-0.996213,-0.046046,0.241189,-0.187564,29.055033,22.384609,-22.326675,,,,,,,
1508184032.408446,-0.024110,0.134401,-3.073504,2.747085,0.210693,0.314888,-0.023890,-0.133997,-0.990694,-0.056249,0.292841,0.008348,29.178530,20.658491,-23.782059,,,,,,,
1508184032.428452,-0.018786,0.195259,-3.065617,3.186547,0.326687,0.318208,-0.018428,-0.194020,-0.980824,-0.004720,0.386983,0.215337,29.501173,18.669102,-24.997831,,,,,,,
1508184032.448449,-0.016582,0.258744,-3.058764,3.102527,0.086086,0.257782,-0.016029,-0.255866,-0.966579,0.099678,0.348029,0.451412,29.688894,17.314127,-25.739788,,,,,,,
1508184032.468466,-0.019012,0.315034,-3.052580,2.609480,-0.035161,0.224722,-0.018075,-0.309849,-0.950614,0.129251,0.321125,0.665305,29.799818,15.561604,-26.712423,,,,,,,
1508184032.488473,-0.019728,0.360681,-3.049073,2.109993,0.080316,0.070941,-0.018458,-0.352911,-0.935475,0.072047,0.406042,0.798893,29.853527,13.743358,-27.633915,,,,,,,
1508184032.508463,-0.015792,0.397763,-3.046153,1.738265,0.292262,0.135323,-0.014559,-0.387357,-0.921815,0.093233,0.405621,0.911103,29.937817,12.875534,-27.958790,,,,,,,
1508184032.528471,-0.013951,0.430821,-3.042707,1.614777,0.049468,0.111213,-0.012676,-0.417617,-0.908535,0.115993,0.427001,0.965206,30.119232,11.825217,-28.226624,,,,,,,
1508184032.548493,-0.016697,0.459013,-3.041242,1.239431,-0.134539,0.019262,-0.014968,-0.443063,-0.896365,0.121139,0.362222,0.970569,30.126347,10.674874,-28.673969,,,,,,,
1508184032.568475,-0.018812,0.475914,-3.039341,0.587699,-0.015246,0.107591,-0.016720,-0.458151,-0.888717,-0.028507,0.212088,0.807693,30.082844,10.064531,-28.939142,,,,,,,
1508184032.588508,-0.017938,0.480124,-3.037382,0.020887,0.179940,0.054003,-0.015909,-0.461889,-0.886795,-0.029318,0.215826,0.805771,30.105444,9.832189,-28.995457,,,,,,,
1508184032.608513,-0.012528,0.476905,-3.036635,-0.225665,0.295108,0.023727,-0.011130,-0.459032,-0.888350,-0.040918,0.206193,0.554717,30.192358,9.794426,-28.917759,,,,,,,
1508184032.628520,-0.007424,0.472298,-3.037315,-0.220321,0.201540,-0.063423,-0.006612,-0.454934,-0.890500,-0.001918,0.166116,0.411024,30.433027,9.969398,-28.603987,,,,,,,
1508184032.648528,-0.002953,0.467536,-3.039658,-0.282441,0.167565,-0.111933,-0.002636,-0.450688,-0.892678,-0.000981,0.138036,0.368141,30.479515,10.054272,-28.524670,,,,,,,
1508184032.668533,0.000693,0.458893,-3.041539,-0.529381,0.132387,-0.068586,0.000621,-0.442956,-0.896543,0.020329,0.061944,0.280653,30.581942,10.420152,-28.282705,,,,,,,
1508184032.688540,0.004893,0.445331,-3.042782,-0.751034,0.208030,-0.046058,0.004416,-0.430756,-0.902457,0.038385,0.026429,0.229377,30.660828,10.809684,-28.050144,,,,,,,
1508184032.708524,0.008007,0.428727,-3.043214,-0.858672,0.090824,-0.017620,0.007283,-0.415714,-0.909466,0.029354,0.007144,0.186719,30.712826,11.037879,-27.904009,,,,,,,
1508184032.728554,0.008114,0.411769,-3.043528,-0.820816,-0.052979,-0.024093,0.007436,-0.400231,-0.916384,0.033809,0.055474,0.066775,30.766731,11.763836,-27.545717,,,,,,,
1508184032.748535,0.007664,0.397468,-3.043140,-0.635698,0.033104,0.053426,0.007066,-0.387085,-0.922017,-0.004686,0.093368,0.063878,30.744997,12.186507,-27.385771,,,,,,,
1508184032.768568,0.007921,0.387724,-3.041192,-0.411933,0.026593,0.085341,0.007333,-0.378082,-0.925743,-0.013726,0.113815,0.074654,30.765720,12.331614,-27.297401,,,,,,,
1508184032.788574,0.006227,0.380749,-3.039576,-0.341993,-0.118271,0.072462,0.005781,-0.371616,-0.928369,0.096148,0.132831,0.140863,30.801575,12.588161,-27.139404,,,,,,,
1508184032.808564,0.002116,0.372685,-3.036805,-0.436877,-0.123780,0.176044,0.001971,-0.364118,-0.931351,0.065320,0.092420,0.172958,30.744057,12.732039,-27.137505,,,,,,,
1508184032.828588,0.000307,0.363993,-3.031648,-0.412618,0.086964,0.259340,0.000287,-0.356009,-0.934483,0.029300,0.105673,0.202457,30.741644,12.792610,-27.111744,,,,,,,
1508184032.848575,0.002669,0.357768,-3.026692,-0.234660,0.263883,0.191596,0.002500,-0.350184,-0.936677,0.008440,0.231837,0.277101,30.923691,12.874992,-26.864586,,,,,,,
1508184032.868580,0.009131,0.355740,-3.024179,-0.029916,0.397180,0.094609,0.008559,-0.348284,-0.937350,0.011094,0.224261,0.337832,31.078850,12.875261,-26.684807,,,,,,,
1508184032.888608,0.012305,0.355612,-3.021496,-0.076880,0.057268,0.151822,0.011535,-0.348164,-0.937363,0.022218,0.152607,0.311539,31.250084,12.840990,-26.500706,,,,,,,
1508184032.908615,0.011105,0.348538,-3.017572,-0.511217,0.055184,0.183101,0.010437,-0.341524,-0.939815,0.048401,0.114565,0.251506,31.349316,12.782332,-26.411713,,,,,,,
1508184032.928620,0.014953,0.334896,-3.014681,-0.773564,0.360123,0.074378,0.014122,-0.328671,-0.944339,-0.066628,0.210904,0.125247,31.496002,13.047406,-26.105806,,,,,,,
1508184032.948629,0.027127,0.318860,-3.013686,-0.764220,0.778831,0.037376,0.025756,-0.313484,-0.949244,-0.029464,0.175590,0.120478,31.685200,13.339088,-25.726696,,,,,,,
1508184032.968635,0.040777,0.307044,-3.011562,-0.522488,0.529363,0.109056,0.038859,-0.302243,-0.952439,0.064687,0.158322,0.062119,31.984264,13.608915,-25.210125,,,,,,,
1508184032.988622,0.036947,0.295482,-3.008108,-0.654288,-0.447510,0.153178,0.035337,-0.291201,-0.956009,0.086565,-0.138914,-0.104660,32.272362,13.916780,-24.669090,,,,,,,
1508184033.008649,0.027868,0.280948,-3.003048,-0.762607,-0.260193,0.248642,0.026772,-0.277267,-0.960420,-0.064339,-0.119202,-0.053344,32.142879,14.090239,-24.739576,,,,,,,
1508184033.028656,0.027434,0.267478,-3.000603,-0.593844,0.258032,-0.034105,0.026455,-0.264300,-0.964078,-0.233776,0.012759,0.016324,32.093060,14.251607,-24.711809,,,,,,,
1508184033.048646,0.040099,0.259188,-3.004259,-0.313106,0.637578,-0.230688,0.038749,-0.256296,-0.965821,-0.129935,0.040995,0.063035,32.239792,14.630245,-24.296051,,,,,,,
1508184033.068670,0.045278,0.253750,-3.005678,-0.277924,-0.073545,0.071765,0.043813,-0.251036,-0.966986,0.045832,-0.188280,0.020529,32.444496,14.905770,-23.852020,,,,,,,
1508184033.088675,0.032416,0.245100,-2.998574,-0.592343,-0.838999,0.420053,0.031442,-0.242653,-0.969604,-0.009652,-0.096642,0.057647,16.303083,14.069633,-47.201782,,,,,,,
1508184033.108674,0.012894,0.225641,-2.990605,-1.221123,-0.736362,0.311340,0.012566,-0.223731,-0.974570,-0.092690,-0.088601,0.050726,15.737559,14.497621,-47.264172,,,,,,,
1508184033.128690,0.002212,0.196383,-2.986706,-1.587845,-0.364053,0.085491,0.002169,-0.195123,-0.980776,-0.209353,-0.066092,-0.114606,15.170570,15.601814,-47.097668,,,,,,,
1508184033.148694,-0.003717,0.162013,-2.987238,-1.775719,-0.324287,-0.067426,-0.003668,-0.161305,-0.986898,-0.043604,-0.037440,-0.439234,14.790662,17.504671,-46.546497,,,,,,,
1508184033.168702,-0.010907,0.127429,-2.989796,-1.629199,-0.387010,-0.148731,-0.010818,-0.127085,-0.991833,-0.019807,0.068476,-0.548237,14.523429,18.762850,-46.138691,,,,,,,
1508184033.188688,-0.017402,0.100247,-2.993144,-1.181979,-0.325411,-0.112640,-0.017314,-0.100080,-0.994829,0.017359,0.021909,-0.562102,14.121157,20.252844,-45.630787,,,,,,,
1508184033.208716,-0.025536,0.081430,-2.993823,-0.822607,-0.468537,0.035250,-0.025449,-0.081340,-0.996361,0.068051,-0.021382,-0.603278,13.669689,21.509665,-45.191010,,,,,,,
1508184033.228699,-0.034015,0.069127,-2.992861,-0.493185,-0.373889,0.073083,-0.033927,-0.069072,-0.997035,0.009147,-0.005010,-0.535741,13.376726,21.998924,-45.042912,,,,,,,
1508184033.248730,-0.039059,0.061207,-2.992062,-0.377313,-0.148029,0.043063,-0.038976,-0.061169,-0.997366,0.008748,-0.033741,-0.470148,13.148477,22.320784,-44.951683,,,,,,,
1508184033.268736,-0.038440,0.053419,-2.992336,-0.377270,0.118427,-0.031177,-0.038376,-0.053394,-0.997836,0.035888,-0.035138,-0.365552,13.022810,22.830280,-44.731846,,,,,,,
1508184033.288727,-0.035988,0.048322,-2.993138,-0.155591,0.079984,-0.011592,-0.035938,-0.048303,-0.998186,0.037754,-0.062812,-0.289702,13.100077,23.065008,-44.588642,,,,,,,
1508184033.308750,-0.036246,0.048352,-2.992335,0.081534,-0.050192,0.067958,-0.036195,-0.048333,-0.998175,0.025590,-0.074256,-0.247278,13.149322,23.171263,-44.519001,,,,,,,
1508184033.328733,-0.037225,0.050967,-2.991114,0.140156,-0.020292,0.023762,-0.037168,-0.050945,-0.998010,-0.045077,-0.079442,-0.098838,13.134766,23.039669,-44.591534,,,,,,,
1508184033.348756,-0.034942,0.052945,-2.992136,0.070662,0.191943,-0.094425,-0.034885,-0.052920,-0.997989,-0.040585,-0.071332,-0.042691,13.151307,22.958496,-44.628513,,,,,,,
1508184033.368770,-0.030085,0.054171,-2.994563,0.058678,0.225039,-0.130084,-0.030037,-0.054145,-0.998081,-0.021095,-0.062997,-0.030453,13.245829,22.927929,-44.616268,,,,,,,
1508184033.388777,-0.026765,0.055950,-2.997011,0.100777,0.126990,-0.107376,-0.026720,-0.055920,-0.998078,0.001985,-0.028583,0.014054,13.430685,22.888731,-44.581120,,,,,,,
1508184033.408774,-0.024245,0.061262,-2.998364,0.119210,0.097070,-0.062172,-0.024197,-0.061223,-0.997831,-0.022526,-0.009013,0.010984,13.478532,22.831230,-44.596161,,,,,,,
1508184033.428790,-0.021421,0.062827,-2.999590,0.049434,0.162085,-0.071593,-0.021377,-0.062786,-0.997798,-0.026535,0.000240,0.016368,13.539681,22.637959,-44.676098,,,,,,,
1508184033.448797,-0.017930,0.064061,-3.002200,0.064120,0.162263,-0.162242,-0.017893,-0.064017,-0.997788,-0.024862,0.039084,0.006959,13.687243,22.592783,-44.653992,,,,,,,
1508184033.468781,-0.017402,0.062605,-3.004885,0.055710,0.151527,-0.123692,-0.017367,-0.062564,-0.997890,-0.034238,0.025699,0.004375,13.641303,22.696953,-44.615208,,,,,,,
1508184033.488811,-0.015126,0.063483,-3.006857,0.035638,0.107778,-0.083589,-0.015095,-0.063440,-0.997871,-0.044978,0.036326,0.002541,13.687246,22.686895,-44.606251,,,,,,,
1508184033.508816,-0.021582,0.057506,-3.007480,0.097739,0.111955,-0.062367,-0.021545,-0.057475,-0.998114,-0.092850,0.073451,-0.018106,13.780123,22.658916,-44.591873,,,,,,,
1508184033.528823,-0.019227,0.060654,-3.008983,0.184375,0.110894,-0.075212,-0.019190,-0.060616,-0.997977,-0.125066,0.056039,-0.012552,13.442397,22.906338,-44.568546,,,,,,,
1508184033.548822,-0.018216,0.064485,-3.009969,0.176219,0.012824,-0.039662,-0.018177,-0.064440,-0.997756,-0.139065,0.025972,-0.012300,13.488087,22.798794,-44.609863,,,,,,,
1508184033.568810,-0.018157,0.067427,-3.011139,0.126839,0.007616,-0.092864,-0.018115,-0.067376,-0.997563,-0.208783,0.040184,0.002034,13.474820,22.590481,-44.719715,,,,,,,
1508184033.588829,-0.018245,0.069288,-3.014816,0.069837,-0.054926,-0.239064,-0.018200,-0.069232,-0.997434,-0.218387,0.039585,-0.016863,13.436986,22.541927,-44.755585,,,,,,,
1508184033.608851,-0.018856,0.070372,-3.020624,0.047146,-0.049469,-0.302038,-0.018808,-0.070314,-0.997348,-0.245306,0.022478,-0.019605,13.324917,22.540939,-44.789577,,,,,,,
1508184033.628857,-0.020588,0.072328,-3.026816,0.124318,-0.133567,-0.339263,-0.020533,-0.072265,-0.997174,-0.282537,0.051483,-0.016910,13.021328,22.576006,-44.861145,,,,,,,
1508184033.648865,-0.022057,0.075867,-3.035189,0.178276,-0.056645,-0.458779,-0.021991,-0.075794,-0.996881,-0.301419,0.017277,0.002237,12.805540,22.549498,-44.936527,,,,,,,
1508184033.668852,-0.021544,0.079056,-3.044528,0.126760,-0.018259,-0.471026,-0.021475,-0.078974,-0.996645,-0.245966,0.001215,-0.008680,12.611965,22.518726,-45.006653,,,,,,,
1508184033.688878,-0.022468,0.080682,-3.055036,0.045455,-0.134150,-0.570583,-0.022393,-0.080595,-0.996495,-0.239402,0.022444,-0.013270,12.226912,22.552187,-45.096062,,,,,,,
1508184033.708861,-0.025851,0.082381,-3.068530,0.085924,-0.255257,-0.740532,-0.025760,-0.082288,-0.996276,-0.241573,0.057568,-0.000856,11.899975,22.626345,-45.146347,,,,,,,
1508184033.728893,-0.029907,0.084999,-3.085014,0.104873,-0.273146,-0.853314,-0.029795,-0.084897,-0.995944,-0.231481,0.038495,0.002185,11.476376,22.697296,-45.220337,,,,,,,
1508184033.748898,-0.033094,0.086943,-3.101739,0.053455,-0.213555,-0.815753,-0.032963,-0.086834,-0.995677,-0.198330,-0.001164,0.000560,10.554783,22.847855,-45.368774,,,,,,,
1508184033.768891,-0.035518,0.087965,-3.117183,0.021511,-0.193441,-0.748844,-0.035373,-0.087851,-0.995505,-0.125210,0.056281,-0.003900,10.143431,22.946129,-45.412987,,,,,,,
1508184033.788912,-0.040005,0.090301,-3.132489,0.124634,-0.346826,-0.765890,-0.039832,-0.090179,-0.995129,-0.087152,0.074905,0.003353,9.746871,23.039627,-45.452477,,,,,,,
1508184033.808919,-0.050150,0.094265,3.136408,0.180516,-0.734686,-0.715523,-0.049906,-0.094126,-0.994309,-0.036154,0.027109,0.005936,8.664430,23.065815,-45.657963,,,,,,,
1508184033.828919,-0.064451,0.098824,3.119446,0.127294,-0.734187,-0.958607,-0.064093,-0.098663,-0.993055,-0.038157,0.046997,0.065198,7.852952,23.025349,-45.824863,,,,,,,
1508184033.848933,-0.073118,0.100084,3.097088,-0.108608,-0.448205,-1.179036,-0.072687,-0.099917,-0.992337,0.028635,0.030871,0.061749,6.762895,23.079285,-45.971333,,,,,,,
1508184033.868940,-0.078383,0.096031,3.073469,-0.379254,-0.367376,-1.080839,-0.077942,-0.095883,-0.992336,0.270157,-0.044208,-0.045566,5.596752,23.474400,-45.928013,,,,,,,
1508184033.888935,-0.085802,0.090708,3.053972,-0.256182,-0.526505,-0.890955,-0.085344,-0.090584,-0.992225,0.400316,0.105110,-0.041939,4.739142,23.921577,-45.793583,,,,,,,
1508184033.908950,-0.097467,0.089931,3.035673,-0.072647,-0.729982,-0.905203,-0.096919,-0.089810,-0.991232,0.518642,0.093380,-0.019037,4.271187,24.065525,-45.764191,,,,,,,
1508184033.928950,-0.111727,0.087526,3.022196,-0.281755,-0.796897,-0.443433,-0.111068,-0.087414,-0.989961,0.630904,-0.141910,0.013475,2.677876,24.326859,-45.746983,,,,,,,
1508184033.948945,-0.128341,0.081165,3.018609,-0.341179,-0.865898,-0.022265,-0.127568,-0.081076,-0.988511,0.518986,0.052908,-0.041641,1.801002,24.632500,-45.626198,,,,,,,
1508184033.968974,-0.142233,0.074842,3.016601,-0.292071,-0.561078,-0.109894,-0.141357,-0.074772,-0.987131,0.485199,0.089100,-0.059866,1.410183,24.789146,-45.555054,,,,,,,
1508184033.988979,-0.148273,0.071453,3.011646,-0.157751,-0.196494,-0.264564,-0.147353,-0.071392,-0.986504,0.405379,0.067105,-0.094276,0.609981,25.160799,-45.368664,,,,,,,
1508184034.008973,-0.149512,0.070123,3.007660,-0.063625,-0.033808,-0.128375,-0.148590,-0.070065,-0.986414,0.362228,0.042722,-0.072348,0.392753,25.270729,-45.309929,,,,,,,
1508184034.028994,-0.148781,0.069656,3.005497,-0.034979,0.079045,-0.101243,-0.147873,-0.069600,-0.986554,0.332398,0.055943,-0.042956,0.351445,25.296850,-45.295685,,,,,,,
1508184034.048999,-0.144373,0.069944,3.003166,0.026348,0.302775,-0.124793,-0.143520,-0.069887,-0.987177,0.262203,0.068132,0.005457,0.423051,25.330692,-45.276157,,,,,,,
1508184034.069001,-0.136952,0.071909,3.001432,0.096942,0.378270,-0.065162,-0.136171,-0.071847,-0.988077,0.305300,0.000970,0.006051,0.605992,25.292675,-45.295330,,,,,,,
1508184034.089014,-0.130007,0.073569,3.002605,0.093416,0.318263,0.112717,-0.129290,-0.073503,-0.988879,0.295428,-0.008803,0.010440,0.838289,25.228590,-45.327354,,,,,,,
1508184034.109020,-0.124654,0.074743,3.006277,0.055297,0.286125,0.208112,-0.123985,-0.074674,-0.989470,0.262763,0.009153,0.050963,1.350146,25.102179,-45.385143,,,,,,,
1508184034.129020,-0.118096,0.073803,3.011376,-0.054949,0.372298,0.277321,-0.117501,-0.073736,-0.990332,0.248451,0.016989,0.048437,1.650203,25.079216,-45.387920,,,,,,,
1508184034.149034,-0.110423,0.071154,3.017029,-0.120318,0.445741,0.314692,-0.109920,-0.071094,-0.991395,0.259975,0.014438,0.045075,2.006007,25.108578,-45.357346,,,,,,,
1508184034.169041,-0.101719,0.068272,3.024671,-0.074981,0.448676,0.439373,-0.101307,-0.068219,-0.992513,0.259907,0.042981,0.016287,2.860209,25.232840,-45.242420,,,,,,,
1508184034.189027,-0.093397,0.066227,3.034231,-0.059824,0.458134,0.502136,-0.093057,-0.066179,-0.993459,0.260095,0.038347,0.028066,3.500163,25.256428,-45.184238,,,,,,,
1508184034.209054,-0.084097,0.063463,3.044168,-0.120993,0.530562,0.513927,-0.083829,-0.063421,-0.994460,0.257825,0.039052,0.028579,3.837447,25.267181,-45.150822,,,,,,,
1508184034.229061,-0.073499,0.059484,3.055604,-0.155985,0.549513,0.629905,-0.073303,-0.059449,-0.995536,0.244385,0.045685,0.010215,4.973257,25.368073,-44.983124,,,,,,,
1508184034.249055,-0.046872,0.052803,3.068239,-0.094626,0.533372,0.729256,-0.046790,-0.052779,-0.997509,0.149146,0.035170,0.002194,6.520072,25.577547,-44.665771,,,,,,,
1508184034.269074,-0.037233,0.052406,3.083551,0.055309,0.514117,0.750749,-0.037173,-0.052382,-0.997935,0.099795,0.052077,0.007533,6.949349,25.559532,-44.611324,,,,,,,
1508184034.289078,-0.026133,0.051474,3.097900,-0.097116,0.642044,0.720218,-0.026095,-0.051451,-0.998335,0.073504,-0.024690,0.034727,8.246288,25.368479,-44.499355,,,,,,,
1508184034.309083,-0.015331,0.047294,3.112802,-0.243207,0.510983,0.757416,-0.015313,-0.047276,-0.998764,0.066400,0.026982,0.028428,8.943801,25.366507,-44.365551,,,,,,,
1508184034.329087,-0.007267,0.040884,3.128394,-0.336962,0.421437,0.802503,-0.007261,-0.040873,-0.999138,0.037199,0.025171,0.026146,9.573893,25.423182,-44.201313,,,,,,,
1508184034.349074,0.000712,0.034823,-3.138268,-0.252333,0.424548,0.834384,0.000712,-0.034816,-0.999394,-0.099360,0.046580,0.002216,10.757289,25.599560,-43.825752,,,,,,,
1508184034.369080,0.008309,0.031172,-3.121790,-0.154869,0.375557,0.816894,0.008305,-0.031167,-0.999480,-0.111271,0.032769,0.022231,11.354660,25.608557,-43.669518,,,,,,,
1508184034.389115,0.014458,0.026774,-3.106230,-0.301485,0.306500,0.747623,0.014453,-0.026770,-0.999537,-0.114367,0.017661,0.018214,11.914190,25.574049,-43.540482,,,,,,,
1508184034.409121,0.019469,0.018645,-3.091635,-0.469408,0.248014,0.717674,0.019464,-0.018644,-0.999637,-0.171091,0.018354,-0.021100,12.873845,25.720854,-43.179340,,,,,,,
1508184034.429108,0.021963,0.009900,-3.076526,-0.414087,0.030627,0.750642,0.021960,-0.009900,-0.999710,-0.224917,0.035077,-0.063324,13.297009,25.883152,-42.953526,,,,,,,
1508184034.449136,0.020168,0.004396,-3.061857,-0.222368,-0.073733,0.710425,0.020166,-0.004396,-0.999787,-0.246286,0.038163,-0.037902,13.607311,25.994934,-42.788528,,,,,,,
1508184034.469120,0.019676,0.001602,-3.048267,-0.154291,-0.009702,0.643335,0.019675,-0.001602,-0.999805,-0.306784,-0.028641,-0.036801,14.079139,25.970215,-42.650665,,,,,,,
1508184034.489136,0.020003,-0.003358,-3.036757,-0.330362,0.044928,0.513652,0.020001,0.003358,-0.999794,-0.254666,-0.018296,-0.066368,14.316007,25.960760,-42.577511,,,,,,,
1508184034.509155,0.021216,-0.010139,-3.028470,-0.329900,0.064441,0.343827,0.021214,0.010138,-0.999724,-0.280338,0.003656,-0.084444,14.543044,26.056187,-42.442062,,,,,,,
1508184034.529162,0.022965,-0.015045,-3.023558,-0.194564,0.078575,0.183575,0.022961,0.015045,-0.999623,-0.235744,0.047318,-0.081798,14.888873,26.303953,-42.168434,,,,,,,
1508184034.549159,0.023031,-0.017162,-3.021676,-0.078096,-0.013857,0.047276,0.023025,0.017162,-0.999588,-0.210876,-0.008708,-0.058777,14.971133,26.368683,-42.098827,,,,,,,
1508184034.569176,0.023622,-0.019221,-3.020170,-0.118811,0.053173,0.092185,0.023616,0.019220,-0.999536,-0.217753,-0.041742,-0.062399,14.986355,26.409389,-42.067886,,,,,,,
1508184034.589182,0.025401,-0.021290,-3.019160,-0.083906,0.099137,0.008321,0.025392,0.021289,-0.999451,-0.161974,0.013547,-0.056488,15.067778,26.479830,-41.994453,,,,,,,
1508184034.609162,0.026222,-0.022119,-3.019997,-0.023917,0.002321,-0.059630,0.026213,0.022117,-0.999412,-0.101728,-0.013542,-0.044335,15.160681,26.571640,-41.902924,,,,,,,
1508184034.629196,0.025392,-0.022885,-3.020517,-0.045994,-0.065967,0.000024,0.025383,0.022883,-0.999416,-0.082115,-0.028666,-0.047734,15.160681,26.571640,-41.902924,,,,,,,
1508184034.649202,0.023635,-0.023482,-3.020299,-0.008476,-0.081966,0.005559,0.023626,0.023480,-0.999445,-0.077413,0.000186,-0.034719,15.088520,26.629744,-41.892086,,,,,,,
1508184034.669202,0.022158,-0.023034,-3.020403,0.027856,-0.085134,-0.012549,0.022150,0.023032,-0.999489,-0.049525,-0.019492,-0.020591,14.991399,26.630480,-41.926472,,,,,,,
1508184034.689216,0.020826,-0.022956,-3.020704,0.005303,-0.053179,-0.008731,0.020819,0.022954,-0.999520,-0.031973,-0.022923,-0.010719,14.951633,26.623993,-41.944786,,,,,,,
1508184034.709219,0.018669,-0.022397,-3.020986,0.032252,-0.134118,-0.021439,0.018663,0.022395,-0.999575,-0.017626,-0.019832,-0.043882,14.841847,26.612015,-41.991356,,,,,,,
1508184034.729218,0.016454,-0.022009,-3.021765,0.012759,-0.092502,-0.055083,0.016449,0.022007,-0.999622,-0.016373,-0.016239,-0.045605,14.751416,26.600515,-42.030483,,,,,,,
1508184034.749235,0.014660,-0.022304,-3.023339,-0.036586,-0.082845,-0.083976,0.014656,0.022302,-0.999644,-0.000053,-0.017801,-0.058172,14.669878,26.605207,-42.056046,,,,,,,
1508184034.769243,0.012851,-0.023854,-3.024559,-0.098478,-0.106327,-0.052667,0.012847,0.023852,-0.999633,0.035996,-0.017138,-0.158250,14.503353,26.693792,-42.057671,,,,,,,
1508184034.789246,0.010871,-0.025044,-3.026210,-0.004654,-0.058292,-0.114213,0.010867,0.025041,-0.999627,-0.002597,0.044493,-0.234305,14.375378,26.782314,-42.045330,,,,,,,
1508184034.809257,0.010935,-0.023307,-3.029581,0.117855,0.036648,-0.196721,0.010932,0.023305,-0.999669,-0.007132,0.034129,-0.272106,14.323987,26.792070,-42.056652,,,,,,,
1508184034.829263,0.011268,-0.021842,-3.034197,0.016175,-0.005844,-0.242945,0.011265,0.021840,-0.999698,0.078563,-0.063863,-0.319379,14.193333,26.752510,-42.126072,,,,,,,
1508184034.849244,0.008585,-0.023481,-3.039369,-0.131051,-0.200663,-0.283728,0.008583,0.023479,-0.999687,0.061531,-0.070797,-0.343544,13.992738,26.858606,-42.125668,,,,,,,
1508184034.869277,0.008777,-0.026493,-3.045444,-0.082901,0.160443,-0.285802,0.008774,0.026490,-0.999611,-0.004547,-0.052842,-0.356392,13.841637,26.965057,-42.107582,,,,,,,
1508184034.889283,0.013417,-0.025903,-3.050551,0.093459,0.262598,-0.254360,0.013412,0.025900,-0.999575,0.042649,-0.022925,-0.400496,13.803610,27.160149,-41.994526,,,,,,,
1508184034.909266,0.015237,-0.022610,-3.055885,0.184289,-0.071881,-0.267705,0.015233,0.022608,-0.999628,0.104946,-0.072825,-0.416525,13.836381,27.131271,-42.002407,,,,,,,
1508184034.929298,0.008197,-0.020034,-3.060998,0.062433,-0.435174,-0.228223,0.008195,0.020033,-0.999766,0.109282,-0.108823,-0.392522,13.681540,27.071779,-42.091423,,,,,,,
1508184034.949304,0.001948,-0.023207,-3.064723,-0.291217,-0.200834,-0.178041,0.001947,0.023205,-0.999729,-0.072000,-0.127438,-0.316723,13.037905,27.156452,-42.240898,,,,,,,
1508184034.969300,0.005955,-0.030360,-3.068456,-0.342215,0.367009,-0.208631,0.005952,0.030356,-0.999521,-0.093492,0.032709,-0.404058,12.955455,27.405325,-42.105320,,,,,,,
1508184034.989318,0.011846,-0.033817,-3.073810,-0.049862,0.195606,-0.294867,0.011839,0.033810,-0.999358,-0.017515,0.047900,-0.449998,13.128931,27.716293,-41.847244,,,,,,,
1508184035.009324,0.012445,-0.029813,-3.078237,0.384709,-0.027468,-0.128814,0.012439,0.029808,-0.999478,0.049084,0.017845,-0.357776,13.130405,27.803404,-41.788952,,,,,,,
1508184035.029328,0.007956,-0.017989,-3.077343,0.672112,-0.314611,0.133179,0.007955,0.017988,-0.999807,0.049067,-0.010435,-0.316096,12.989828,27.457169,-42.060928,,,,,,,
1508184035.049339,0.003280,-0.004111,-3.072967,0.659312,-0.165771,0.281379,0.003279,0.004111,-0.999986,-0.024413,-0.022940,-0.240279,12.810316,26.682108,-42.611202,,,,,,,
1508184035.069345,0.003383,0.010148,-3.066926,0.784670,0.147366,0.286341,0.003382,-0.010148,-0.999943,-0.108775,0.066346,-0.202084,12.908128,26.021517,-42.988537,,,,,,,
1508184035.089351,0.009758,0.029522,-3.061502,1.087853,0.393351,0.290010,0.009754,-0.029518,-0.999517,-0.032260,0.075752,-0.145243,13.163778,25.415499,-43.272636,,,,,,,
1508184035.109358,0.015743,0.056453,-3.054461,1.530895,0.172457,0.430434,0.015718,-0.056423,-0.998283,0.018325,0.075694,-0.121193,13.649915,24.347120,-43.733864,,,,,,,
1508184035.129361,0.010376,0.092267,-3.044930,1.874271,-0.400930,0.533392,0.010331,-0.092136,-0.995693,0.062361,0.126682,0.017101,13.903585,22.379513,-44.694534,,,,,,,
1508184035.149371,0.001507,0.131353,-3.033742,1.950138,-0.327516,0.567459,0.001494,-0.130976,-0.991384,-0.058150,0.212244,0.129599,13.782328,20.479378,-45.633278,,,,,,,
1508184035.169377,-0.004308,0.171368,-3.023685,2.052086,-0.198404,0.445018,-0.004244,-0.170530,-0.985343,-0.056623,0.231016,0.180473,13.756567,19.505302,-46.065754,,,,,,,
1508184035.189358,-0.011800,0.213039,-3.015880,2.062899,-0.370730,0.322751,-0.011533,-0.211431,-0.977325,0.080960,0.172354,0.356399,13.657498,16.451946,-47.271130,,,,,,,
1508184035.209371,-0.020920,0.252250,-3.008386,1.878824,-0.319630,0.361602,-0.020257,-0.249583,-0.968141,0.050179,0.163447,0.479296,13.393002,14.447303,-47.996418,,,,,,,
1508184035.229399,-0.028310,0.285081,-2.999932,1.499643,-0.207655,0.346400,-0.027164,-0.281235,-0.959254,0.010089,0.197922,0.510692,13.296767,13.512431,-48.294552,,,,,,,
1508184035.249405,-0.032498,0.312217,-2.993652,1.314734,-0.055030,0.220635,-0.030922,-0.307169,-0.951152,0.053581,0.229273,0.599453,13.136072,11.210512,-48.923630,,,,,,,
1508184035.269412,-0.035994,0.337692,-2.986738,1.288510,-0.132968,0.312420,-0.033954,-0.331311,-0.942911,0.086826,0.198285,0.624078,13.146986,9.875194,-49.207630,,,,,,,
1508184035.289419,-0.042636,0.360687,-2.980457,1.036980,-0.246638,0.188434,-0.039881,-0.352917,-0.934804,0.078089,0.193631,0.662313,13.095980,9.204973,-49.350960,,,,,,,
1508184035.309425,-0.048754,0.376406,-2.977088,0.622579,-0.236787,0.108629,-0.045323,-0.367581,-0.928887,0.014378,0.139523,0.688057,12.782482,7.669338,-49.694496,,,,,,,
1508184035.329407,-0.052555,0.383289,-2.973914,0.209079,-0.047136,0.140311,-0.048719,-0.373973,-0.926159,-0.007128,0.093928,0.634655,12.643698,7.268680,-49.790123,,,,,,,
1508184035.349439,-0.052412,0.383829,-2.971232,-0.044049,0.113850,0.104044,-0.048576,-0.374474,-0.925964,-0.037407,0.093712,0.590820,12.620604,7.084230,-49.822563,,,,,,,
1508184035.369447,-0.049993,0.381683,-2.970490,-0.153525,0.106638,-0.004532,-0.046377,-0.372483,-0.926879,-0.021128,0.128968,0.484802,12.804122,7.116942,-49.771049,,,,,,,
1508184035.389452,-0.047710,0.376950,-2.971911,-0.270369,0.111058,-0.065292,-0.044343,-0.368086,-0.928734,0.012758,0.125716,0.446937,12.865146,7.268012,-49.733467,,,,,,,
1508184035.409460,-0.044301,0.371118,-2.973076,-0.312119,0.151485,-0.033857,-0.041271,-0.362658,-0.931008,-0.016453,0.115008,0.430611,12.942169,7.480639,-49.681923,,,,,,,
1508184035.429466,-0.040326,0.363745,-2.975004,-0.418332,0.164441,-0.107541,-0.037677,-0.355777,-0.933811,-0.013165,0.107333,0.399067,13.088469,7.795390,-49.595131,,,,,,,
1508184035.449464,-0.037198,0.353307,-2.978043,-0.591447,0.076087,-0.115726,-0.034892,-0.346003,-0.937585,0.039378,0.095667,0.384667,13.254110,8.354109,-49.459995,,,,,,,
1508184035.469480,-0.034841,0.339593,-2.980576,-0.740033,0.074967,-0.069747,-0.032845,-0.333103,-0.942318,0.047737,0.137898,0.375988,13.312027,8.989203,-49.332924,,,,,,,
1508184035.489486,-0.033442,0.324373,-2.981133,-0.760951,0.016193,0.026022,-0.031692,-0.318714,-0.947321,0.018097,0.155125,0.338571,13.395818,9.921380,-49.131168,,,,,,,
1508184035.509492,-0.034281,0.309249,-2.982174,-0.755710,-0.048602,-0.066877,-0.032649,-0.304343,-0.952003,-0.026830,0.159171,0.330177,13.354585,10.665987,-48.986172,,,,,,,
1508184035.529500,-0.032542,0.294381,-2.985236,-0.734003,0.134750,-0.135663,-0.031136,-0.290148,-0.956475,-0.049110,0.138597,0.321267,13.327475,11.046877,-48.909084,,,,,,,
1508184035.549481,-0.024107,0.281181,-2.987716,-0.606553,0.517031,-0.082656,-0.023158,-0.277491,-0.960449,-0.025426,0.132807,0.305008,13.583897,12.137964,-48.578812,,,,,,,
1508184035.569489,-0.014151,0.270262,-2.990694,-0.558120,0.323326,-0.172652,-0.013637,-0.266984,-0.963604,0.053325,0.169236,0.208340,14.046383,12.711663,-48.299751,,,,,,,
1508184035.589492,-0.008995,0.257555,-2.994680,-0.680872,0.214713,-0.177382,-0.008698,-0.254717,-0.966976,0.081727,0.148837,0.208096,14.158527,13.013528,-48.186489,,,,,,,
1508184035.609523,-0.000276,0.245556,-2.997258,-0.500683,0.545754,-0.076754,-0.000267,-0.243095,-0.970002,-0.026588,0.145058,0.161622,14.490626,14.009805,-47.806908,,,,,,,
1508184035.629517,0.010652,0.238887,-2.998123,-0.272136,0.370932,-0.043468,0.010349,-0.236621,-0.971547,0.029629,0.043155,0.028828,10.658263,12.107126,-54.550686,,,,,,,
1508184035.649541,0.020271,0.236178,-3.001205,-0.507612,-0.289491,-0.008125,0.019707,-0.233988,-0.972040,0.077827,-0.043310,-0.006232,10.798597,12.263908,-54.488029,,,,,,,
1508184035.669547,0.015238,0.221325,-3.001659,-0.856080,-0.122036,-0.071071,0.014866,-0.219523,-0.975494,-0.068424,0.041483,-0.013779,10.953595,12.939726,-54.300468,,,,,,,
1508184035.689545,0.022657,0.203879,-3.003516,-0.818801,0.613052,-0.114815,0.022186,-0.202470,-0.979037,-0.049041,0.115464,-0.046781,10.992318,13.671983,-54.112885,,,,,,,
1508184035.709562,0.034377,0.191867,-3.004947,-0.439195,0.414689,-0.047178,0.033739,-0.190692,-0.981070,0.030195,0.069583,-0.151331,11.444386,14.348093,-53.843449,,,,,,,
1508184035.729568,0.031263,0.188032,-3.001997,-0.105785,-0.533022,0.271278,0.030707,-0.186926,-0.981894,0.106454,-0.159311,-0.184854,11.883308,14.970950,-53.578133,,,,,,,
1508184035.749573,0.012136,0.185502,-2.992234,-0.255783,-0.879756,0.556856,0.011928,-0.184440,-0.982771,-0.032344,-0.135140,-0.077516,11.381585,14.990540,-53.681488,,,,,,,
1508184035.769581,-0.001309,0.172122,-2.984681,-0.983982,-0.362215,0.195885,-0.001290,-0.171274,-0.985223,-0.097129,-0.098242,-0.110557,10.796836,15.097219,-53.772305,,,,,,,
1508184035.789588,-0.000931,0.143488,-2.984069,-1.606894,0.165674,-0.025630,-0.000922,-0.142996,-0.989723,-0.074548,-0.127359,-0.434334,10.431016,16.758066,-53.350914,,,,,,,
1508184035.809571,0.003283,0.111841,-2.985138,-1.457084,0.144369,-0.044627,0.003262,-0.111608,-0.993747,0.006549,0.011891,-0.525433,10.581906,18.066517,-52.892181,,,,,,,
1508184035.829603,-0.000421,0.091251,-2.985306,-0.793007,-0.366168,0.017726,-0.000419,-0.091124,-0.995839,0.032996,0.052153,-0.538462,10.633588,19.504269,-52.368591,,,,,,,
1508184035.849609,-0.010814,0.078729,-2.981760,-0.572212,-0.546802,0.295286,-0.010780,-0.078648,-0.996844,-0.032235,-0.144680,-0.442136,10.359910,20.133688,-52.184917,,,,,,,
1508184035.869599,-0.022301,0.066120,-2.975159,-0.684650,-0.527584,0.287628,-0.022250,-0.066071,-0.997567,-0.082563,-0.076308,-0.395927,9.801913,20.840025,-52.015137,,,,,,,
1508184035.889622,-0.027301,0.051434,-2.974939,-0.736718,-0.027134,-0.134382,-0.027262,-0.051411,-0.998305,-0.158224,0.051808,-0.409348,9.412709,21.517319,-51.810856,,,,,,,
1508184035.909611,-0.021201,0.038971,-2.980906,-0.534216,0.420556,-0.306303,-0.021183,-0.038961,-0.999016,-0.089748,0.063726,-0.428871,9.340137,21.907938,-51.660069,,,,,,,
1508184035.929627,-0.013987,0.032672,-2.985309,-0.189678,0.243317,-0.144046,-0.013979,-0.032666,-0.999369,0.084093,0.033399,-0.404776,9.732387,22.922634,-51.144814,,,,,,,
1508184035.949630,-0.013430,0.032639,-2.985636,0.111591,-0.099093,0.053694,-0.013423,-0.032633,-0.999377,0.079478,0.004190,-0.305341,9.822337,23.024837,-51.081669,,,,,,,
1508184035.969625,-0.016941,0.037073,-2.983449,0.262846,-0.157843,0.116278,-0.016928,-0.037064,-0.999169,-0.034982,-0.018264,-0.167930,9.698362,22.807085,-51.202904,,,,,,,
1508184035.989642,-0.018054,0.042158,-2.982000,0.222476,-0.001050,0.019133,-0.018037,-0.042146,-0.998949,-0.057601,-0.045546,-0.091444,9.645803,22.516876,-51.341091,,,,,,,
1508184036.009663,-0.015540,0.044660,-2.982868,0.078231,0.198350,-0.063623,-0.015524,-0.044645,-0.998882,-0.048288,-0.061114,-0.058308,9.657335,22.413504,-51.384136,,,,,,,
1508184036.029670,-0.010836,0.046374,-2.984168,0.111309,0.228171,-0.065146,-0.010824,-0.046357,-0.998866,-0.036737,-0.013625,-0.039235,9.912438,22.291067,-51.388817,,,,,,,
1508184036.049670,-0.012764,0.048229,-2.984534,0.244308,0.176887,-0.014385,-0.012749,-0.048210,-0.998756,-0.039269,0.013496,-0.010537,9.811289,22.236525,-51.431839,,,,,,,
1508184036.069684,-0.010783,0.054861,-2.984404,0.366751,0.047917,0.008720,-0.010767,-0.054834,-0.998437,-0.057898,0.031076,-0.000876,9.894203,22.101486,-51.474148,,,,,,,
1508184036.089675,-0.010421,0.061424,-2.984300,0.285518,-0.001030,-0.007570,-0.010401,-0.061385,-0.998060,-0.103170,-0.019700,0.050932,9.968208,21.737869,-51.614521,,,,,,,
1508184036.109611,-0.027548,0.067324,-2.984165,0.119335,0.031065,-0.081481,-0.027482,-0.067273,-0.997356,-0.144057,0.008191,0.072155,9.097395,21.253439,-51.975834,,,,,,,
1508184036.129634,-0.025420,0.068206,-2.986329,0.012925,0.145156,-0.123575,-0.025358,-0.068153,-0.997353,-0.158831,0.020561,0.064659,9.095726,21.170092,-52.010128,,,,,,,
1508184036.149639,-0.042476,0.061089,-2.988004,0.111316,0.107875,-0.167885,-0.042384,-0.061051,-0.997234,-0.154012,0.066010,0.023541,9.220228,21.150898,-51.996014,,,,,,,
1508184036.169639,-0.042778,0.065314,-2.992134,0.241139,-0.098650,-0.249225,-0.042674,-0.065268,-0.996955,-0.158635,0.059042,0.020728,8.195921,21.474304,-52.034988,,,,,,,
1508184036.189654,-0.044697,0.069868,-2.998012,0.171278,-0.084620,-0.331481,-0.044573,-0.069811,-0.996564,-0.168409,0.041308,0.036603,7.974877,21.271259,-52.152596,,,,,,,
1508184036.209661,-0.043986,0.071203,-3.005677,-0.019884,0.059398,-0.413399,-0.043860,-0.071143,-0.996501,-0.178049,0.029639,0.053279,7.727723,21.184587,-52.225033,,,,,,,
1508184036.229667,-0.041191,0.070558,-3.013762,-0.029573,0.115791,-0.380088,-0.041077,-0.070499,-0.996666,-0.170196,0.054539,0.026451,7.654922,21.296667,-52.190159,,,,,,,
1508184036.249674,-0.040327,0.071665,-3.020224,0.089006,-0.091055,-0.299337,-0.040213,-0.071604,-0.996622,-0.143183,0.055888,-0.003698,7.616783,21.339624,-52.178192,,,,,,,
1508184036.269680,-0.043924,0.075266,-3.028003,0.186173,-0.217483,-0.478848,-0.043786,-0.075195,-0.996207,-0.155403,0.090881,0.057883,7.527514,21.324076,-52.197502,,,,,,,
1508184036.289665,-0.058256,0.079265,-3.037255,0.093910,-0.156739,-0.497784,-0.058040,-0.079182,-0.995169,-0.158391,-0.004681,0.047919,6.928008,21.162634,-52.346004,,,,,,,
1508184036.309692,-0.059826,0.080219,-3.046538,-0.024851,-0.108870,-0.449340,-0.059598,-0.080133,-0.995001,-0.150485,-0.010397,0.032995,5.989902,21.091850,-52.490124,,,,,,,
1508184036.329676,-0.075985,0.080409,-3.053536,-0.134993,-0.038753,-0.363901,-0.075667,-0.080322,-0.993893,-0.131777,-0.011963,0.019253,5.624499,21.226927,-52.476105,,,,,,,
1508184036.349702,-0.078020,0.078806,-3.060315,-0.056349,-0.217733,-0.363497,-0.077699,-0.078725,-0.993864,-0.100265,0.059178,-0.019869,4.631172,21.294737,-52.545647,,,,,,,
1508184036.369715,-0.083784,0.080739,-3.071659,0.099287,-0.386471,-0.700251,-0.083414,-0.080651,-0.993246,-0.080801,0.085916,-0.028010,4.420533,21.331247,-52.548981,,,,,,,
1508184036.389721,-0.090124,0.082659,-3.088019,-0.065149,-0.327488,-0.868396,-0.089695,-0.082565,-0.992541,-0.084957,-0.024552,-0.021756,3.381766,21.319115,-52.630959,,,,,,,
1508184036.409721,-0.091807,0.080117,-3.105587,-0.261632,-0.066524,-0.834713,-0.091384,-0.080032,-0.992595,-0.069765,-0.016160,-0.055196,2.883105,21.457382,-52.604439,,,,,,,
1508184036.429707,-0.091152,0.077570,-3.121399,-0.130772,-0.077382,-0.748283,-0.090752,-0.077492,-0.992854,-0.048362,0.018944,-0.070333,2.559830,21.688923,-52.526154,,,,,,,
1508184036.449741,-0.096465,0.079727,-3.137770,0.122395,-0.464875,-0.905998,-0.096009,-0.079642,-0.992189,0.114930,0.101569,-0.069426,1.802111,21.883308,-52.476967,,,,,,,
1508184036.469749,-0.105621,0.084648,3.126481,0.132184,-0.550039,-0.934626,-0.105047,-0.084547,-0.990867,0.085958,-0.007433,-0.024178,1.094428,21.789604,-52.535458,,,,,,,
1508184036.489756,-0.115011,0.087691,3.110291,0.027736,-0.499232,-0.759345,-0.114317,-0.087579,-0.989576,0.062361,-0.040915,-0.014253,0.354710,21.698341,-52.583408,,,,,,,
1508184036.509762,-0.122336,0.089179,3.095342,-0.037886,-0.396925,-0.773575,-0.121546,-0.089061,-0.988582,0.120844,0.002162,0.015819,-0.914313,21.657480,-52.593498,,,,,,,
1508184036.529754,-0.127536,0.089884,3.079124,-0.075632,-0.328683,-0.802260,-0.126677,-0.089763,-0.987874,0.190840,0.004481,0.043874,-1.457405,21.683151,-52.570671,,,,,,,
1508184036.549776,-0.134852,0.089828,3.063971,-0.131498,-0.524837,-0.719401,-0.133901,-0.089707,-0.986926,0.227743,-0.020400,0.033709,-1.980466,21.723072,-52.537079,,,,,,,
1508184036.569783,-0.144967,0.087402,3.048410,-0.287903,-0.526816,-0.775769,-0.143908,-0.087290,-0.985734,0.385180,0.026652,0.005478,-2.815637,21.815844,-52.460457,,,,,,,
1508184036.589774,-0.152188,0.083565,3.032625,-0.315855,-0.410829,-0.710253,-0.151072,-0.083468,-0.984993,0.473109,0.063891,-0.051522,-3.917190,22.105579,-52.268131,,,,,,,
1508184036.609795,-0.158925,0.078622,3.019885,-0.336623,-0.384631,-0.490959,-0.157768,-0.078541,-0.984348,0.562202,0.049152,-0.081280,-4.643509,22.386784,-52.088661,,,,,,,
1508184036.629802,-0.167443,0.074414,3.012225,-0.235023,-0.493737,-0.277259,-0.166200,-0.074345,-0.983285,0.606340,0.075261,-0.084021,-4.960922,22.540390,-51.993065,,,,,,,
