timestamp(unix),attitude_roll(radians),attitude_pitch(radians),attitude_yaw(radians),rotation_rate_x(radians/s),rotation_rate_y(radians/s),rotation_rate_z(radians/s),gravity_x(G),gravity_y(G),gravity_z(G),user_acc_x(G),user_acc_y(G),user_acc_z(G),magnetic_field_x(microteslas),magnetic_field_y(microteslas),magnetic_field_z(microteslas),latitude(degree),longitude(degree),altitude(meter),speed(m/s),course(degree),timestamp(unix),User Mark
,,,,,,,,,,,,,,,,42.293626,-71.264009,61.205101,-1.000000,-1.000000,1505916293.611276,
1505916293.667616,-0.020851,0.297185,1.495556,0.732704,-0.055848,0.389293,-0.019935,-0.292830,-0.955957,0.006187,-0.050905,0.129342,3.210979,-2.069125,-41.813698,,,,,,,
1505916293.687557,-0.023162,0.315118,1.505434,1.002542,-0.003567,0.466190,-0.022020,-0.309929,-0.950505,0.021119,0.031379,-0.021236,3.201903,-2.594139,-41.785107,,,,,,,
,,,,,,,,,,,,,,,,42.293626,-71.264009,61.205101,-1.000000,-1.000000,1505916288.893705,
1505916293.707550,-0.030043,0.334876,1.514658,0.964043,-0.297721,0.376366,-0.028370,-0.328652,-0.944025,0.040119,0.048454,-0.025656,3.174936,-3.237556,-41.742241,,,,,,,
1505916293.727516,-0.037971,0.351772,1.524054,0.812826,-0.164586,0.486575,-0.035637,-0.344562,-0.938087,0.026619,-0.084103,0.154228,2.818375,-4.438634,-41.657318,,,,,,,
1505916293.747459,-0.045082,0.368286,1.539146,0.920917,-0.060407,0.762018,-0.042044,-0.360017,-0.931998,0.076667,-0.050780,0.073981,2.698933,-4.970905,-41.605083,,,,,,,
1505916293.767449,-0.051931,0.388487,1.556425,1.087029,-0.012980,0.695826,-0.048039,-0.378788,-0.924236,0.063039,0.113652,0.038097,2.574877,-5.802050,-41.505219,,,,,,,
1505916293.787414,-0.056239,0.397587,1.564591,-0.058887,-0.229377,0.097564,-0.051825,-0.387195,-0.920540,0.017172,0.246249,-0.090965,2.480839,-6.691616,-41.376858,,,,,,,
1505916293.807380,-0.064349,0.380630,1.555830,-1.210625,-0.830466,-0.540537,-0.059702,-0.371505,-0.926509,0.004923,0.002334,-0.047810,2.156543,-6.199500,-41.471584,,,,,,,
1505916293.827348,-0.078343,0.347734,1.539756,-1.951566,-1.010176,-0.626374,-0.073579,-0.340768,-0.937264,0.091096,-0.082556,0.112450,1.819430,-5.641862,-41.567245,,,,,,,
1505916293.847293,-0.093183,0.302835,1.525453,-2.471480,-0.886896,-0.387770,-0.088814,-0.298227,-0.950354,0.063699,-0.123816,0.119086,0.648600,-3.102193,-41.868034,,,,,,,
1505916293.867280,-0.104820,0.252892,1.515637,-2.498162,-0.680940,-0.109306,-0.101300,-0.250205,-0.962879,0.096387,-0.144997,-0.026410,0.160336,-1.520401,-41.959976,,,,,,,
1505916293.887248,-0.122235,0.211065,1.511688,-1.790084,-1.172781,0.109369,-0.119225,-0.209501,-0.970512,0.097466,-0.150102,-0.073875,-0.275273,0.040489,-41.986897,,,,,,,
1505916293.907211,-0.154034,0.187838,1.511017,-0.770551,-1.789533,0.120314,-0.150727,-0.186735,-0.970779,0.054062,-0.002474,0.068191,-1.855398,2.113857,-41.893505,,,,,,,
1505916293.927178,-0.187214,0.183723,1.513823,0.148997,-1.321270,0.190751,-0.182990,-0.182691,-0.965991,-0.035806,0.076383,0.286487,-3.312864,2.463903,-41.784340,,,,,,,
1505916293.947118,-0.191583,0.197313,1.517062,1.054255,0.482866,-0.084261,-0.186719,-0.196035,-0.962656,-0.100467,0.051947,0.358957,-3.768620,2.364317,-41.751457,,,,,,,
1505916293.967107,-0.165619,0.231938,1.520550,2.156073,1.792900,-0.106187,-0.160449,-0.229864,-0.959906,-0.144101,-0.003611,0.088140,-3.001937,0.847752,-41.871788,,,,,,,
1505916293.987077,-0.139080,0.275744,1.530826,2.174183,1.463607,0.292479,-0.133394,-0.272263,-0.952932,-0.082670,0.024262,-0.163234,-1.712810,-1.024176,-41.940365,,,,,,,
1505916294.007018,-0.129146,0.309865,1.544366,1.401056,0.088583,0.485192,-0.122654,-0.304930,-0.944444,-0.063305,0.058135,-0.360442,-1.139283,-1.913279,-41.928730,,,,,,,
1505916294.026983,-0.140670,0.324307,1.552816,0.365884,-0.706332,0.193614,-0.132897,-0.318652,-0.938509,-0.021872,-0.050717,-0.137556,-1.087254,-3.520124,-41.825871,,,,,,,
1505916294.046959,-0.157258,0.319836,1.553309,-0.506660,-0.826080,-0.039371,-0.148668,-0.314411,-0.937573,-0.045912,-0.029522,0.007565,-1.757428,-3.517015,-41.803337,,,,,,,
1505916294.066941,-0.169504,0.307315,1.547370,-0.634783,-0.652133,-0.232934,-0.160790,-0.302500,-0.939489,-0.054802,-0.045812,-0.005060,-2.090468,-3.281051,-41.807194,,,,,,,
1505916294.086907,-0.180074,0.302136,1.542666,-0.046634,-0.485584,-0.127741,-0.170989,-0.297560,-0.939266,-0.041749,-0.007555,-0.015202,-2.879848,-2.635370,-41.805958,,,,,,,
1505916294.106865,-0.181661,0.308214,1.541259,0.424406,0.182097,-0.153027,-0.172150,-0.303357,-0.937198,-0.098419,-0.032275,0.132281,-3.115348,-2.784535,-41.779392,,,,,,,
1505916294.126840,-0.172867,0.319924,1.539687,0.692986,0.427321,-0.185285,-0.163279,-0.314495,-0.935111,-0.004781,0.023830,-0.098809,-2.908908,-3.084133,-41.773232,,,,,,,
1505916294.146805,-0.165867,0.339931,1.538389,1.119051,0.315877,-0.268016,-0.155660,-0.333422,-0.929839,-0.002910,0.049304,-0.057344,-2.496888,-3.949276,-41.727036,,,,,,,
1505916294.166771,-0.154089,0.360666,1.535010,0.819097,0.713259,-0.345594,-0.143605,-0.352897,-0.924576,-0.054012,-0.007347,0.168167,-2.238884,-4.648727,-41.669575,,,,,,,
1505916294.186739,-0.138196,0.372307,1.529142,0.469945,0.505305,-0.360716,-0.128319,-0.363766,-0.922610,0.047371,-0.077137,-0.173460,-1.599522,-5.282927,-41.623417,,,,,,,
1505916294.206704,-0.133530,0.384687,1.524909,0.687321,-0.031816,-0.220216,-0.123403,-0.375269,-0.918665,0.115148,0.013300,-0.251684,-1.341733,-5.486452,-41.606194,,,,,,,
1505916294.226646,-0.132141,0.399247,1.521031,0.639936,0.049577,-0.366732,-0.121395,-0.388724,-0.913322,0.016293,0.057227,0.036887,-1.172427,-6.432281,-41.475632,,,,,,,
1505916294.246637,-0.124943,0.408385,1.511415,0.412314,0.083814,-0.509258,-0.114370,-0.397127,-0.910609,0.027975,0.032854,-0.020497,-1.079149,-6.793502,-41.420536,,,,,,,
1505916294.266603,-0.116663,0.416950,1.501762,0.361767,0.356709,-0.458650,-0.106426,-0.404974,-0.908113,0.116497,0.027716,0.037828,-0.779984,-7.145174,-41.368042,,,,,,,
1505916294.286545,-0.099996,0.424212,1.496495,0.308923,0.943045,-0.141636,-0.090981,-0.411603,-0.906811,0.104470,-0.029407,0.149761,-0.424357,-7.368258,-41.334072,,,,,,,
1505916294.306536,-0.081766,0.428671,1.498349,0.192309,0.813842,0.153547,-0.074285,-0.415663,-0.906480,0.083501,-0.031756,0.088121,0.162934,-7.557969,-41.301666,,,,,,,
1505916294.326494,-0.072564,0.431763,1.502711,0.150144,0.470177,0.190848,-0.065847,-0.418472,-0.905839,0.066457,0.000198,-0.005965,1.062359,-7.801942,-41.242912,,,,,,,
1505916294.346458,-0.064023,0.432285,1.506236,-0.066863,0.564690,0.120508,-0.058093,-0.418946,-0.906151,0.109638,0.082337,0.052040,1.329794,-7.877356,-41.220818,,,,,,,
1505916294.366434,-0.046971,0.425981,1.506494,-0.462338,1.092965,-0.024323,-0.042758,-0.413215,-0.909629,0.138964,0.121818,0.075767,1.669607,-7.835840,-41.216370,,,,,,,
1505916294.386400,-0.016968,0.415953,1.504585,-0.411062,1.575896,-0.055377,-0.015520,-0.404062,-0.914600,0.061785,0.030572,-0.004483,3.114379,-7.285367,-41.233494,,,,,,,
1505916294.406364,0.015349,0.415187,1.506670,0.205805,1.710849,0.225436,0.014044,-0.403361,-0.914933,-0.159033,-0.109548,0.010667,4.128048,-7.108506,-41.175301,,,,,,,
1505916294.426333,0.051304,0.425732,1.513220,0.664735,2.108045,0.288408,0.046704,-0.412988,-0.909538,-0.152860,-0.084251,0.076683,5.162692,-7.246862,-41.034210,,,,,,,
1505916294.446298,0.097903,0.439776,1.515829,0.627173,2.555268,0.124879,0.088446,-0.425737,-0.900514,-0.033529,0.091996,0.101839,7.742200,-8.080946,-40.468918,,,,,,,
1505916294.466240,0.152753,0.445819,1.516994,0.076867,2.827759,0.046122,0.137287,-0.431197,-0.891752,-0.160038,0.089995,0.147062,9.333914,-8.398752,-40.066395,,,,,,,
1505916294.486231,0.205096,0.440124,1.515088,-0.476536,2.334836,-0.275025,0.184252,-0.426052,-0.885738,-0.259402,0.033046,-0.003178,11.540121,-8.409292,-39.485268,,,,,,,
1505916294.506170,0.242421,0.422667,1.507363,-0.860415,1.231393,-0.694156,0.218929,-0.410195,-0.885331,-0.217128,0.001229,-0.182403,13.664195,-7.692951,-38.949780,,,,,,,
1505916294.526145,0.255003,0.408620,1.493100,-0.190571,0.042587,-0.819410,0.231481,-0.397343,-0.887995,-0.033147,0.085301,-0.240713,14.273942,-6.941422,-38.872200,,,,,,,
1505916294.546130,0.258587,0.417213,1.477417,1.113115,-0.228109,-0.345233,0.233780,-0.405214,-0.883826,0.058457,0.171205,-0.156411,14.332582,-6.810230,-38.873833,,,,,,,
1505916294.566095,0.261932,0.456444,1.469689,2.486548,0.214391,0.426037,0.232437,-0.440758,-0.867009,-0.120682,0.173745,-0.121974,14.240248,-8.217525,-38.635014,,,,,,,
1505916294.586052,0.277302,0.516680,1.463350,3.124879,0.873437,0.500228,0.238026,-0.493996,-0.836248,-0.093510,0.341592,-0.193186,14.492676,-10.524943,-37.975845,,,,,,,
1505916294.606028,0.297561,0.575268,1.452945,2.756225,0.520292,0.378087,0.245999,-0.544060,-0.802174,-0.092923,0.369667,-0.306545,14.775402,-11.766080,-37.499649,,,,,,,
1505916294.625982,0.304097,0.622746,1.443778,2.171665,-0.128233,0.350333,0.243222,-0.583268,-0.775010,0.033191,0.328385,-0.303328,0.812206,-16.596197,-34.500832,,,,,,,
1505916294.645960,0.294283,0.665573,1.446396,2.003549,-0.505697,0.965003,0.228146,-0.617510,-0.752749,0.180332,0.285417,-0.352903,0.395274,-18.008495,-33.792587,,,,,,,
1505916294.665907,0.285197,0.708008,1.459525,1.811881,0.166219,1.110348,0.213727,-0.650322,-0.728973,0.208484,0.290016,-0.171982,0.070012,-18.678017,-33.429443,,,,,,,
1505916294.685891,0.281384,0.743593,1.466930,1.500860,-0.053615,0.472076,0.204388,-0.676937,-0.707094,0.127674,0.303814,-0.286543,-0.431759,-20.419083,-32.392525,,,,,,,
1505916294.705858,0.280315,0.769403,1.460265,1.198635,-0.383720,0.000264,0.198731,-0.695706,-0.690289,0.142043,-0.037967,-0.222233,-0.660967,-21.304226,-31.813423,,,,,,,
1505916294.725808,0.277036,0.787781,1.449137,0.844205,-0.725687,-0.232034,0.192937,-0.708789,-0.678523,0.188533,-0.070050,-0.183172,-0.784260,-21.671730,-31.561401,,,,,,,
1505916294.745791,0.266929,0.796130,1.433037,0.435144,-1.297346,-0.477825,0.184502,-0.714655,-0.674706,0.170540,-0.086905,-0.152961,-1.345710,-22.405729,-31.025368,,,,,,,
1505916294.765739,0.246037,0.803613,1.421628,0.525180,-1.436894,-0.154695,0.169059,-0.719869,-0.673207,0.194680,-0.113734,0.065740,-2.055554,-22.690464,-30.778542,,,,,,,
1505916294.785724,0.223382,0.815158,1.416077,0.622366,-1.254369,-0.040561,0.151915,-0.727834,-0.668715,0.119616,-0.054332,0.295577,-2.667343,-22.955189,-30.534332,,,,,,,
1505916294.805689,0.201566,0.827507,1.412193,0.652193,-1.269606,0.047345,0.135480,-0.736246,-0.663013,0.097735,-0.042562,0.361362,-3.048962,-23.145487,-30.354425,,,,,,,
1505916294.825637,0.175928,0.839654,1.414100,0.479170,-1.091297,0.263722,0.116865,-0.744412,-0.657414,-0.102919,-0.027423,0.683277,-4.405930,-23.794876,-29.678150,,,,,,,
1505916294.845622,0.151710,0.845107,1.425013,0.046554,-0.643303,0.444831,0.100297,-0.748042,-0.656029,-0.096742,0.081431,0.577049,-4.958439,-23.937605,-29.475513,,,,,,,
1505916294.865588,0.132620,0.844692,1.435920,-0.092413,-0.500305,0.271365,0.087797,-0.747766,-0.658131,-0.076582,0.058741,0.442586,-5.651268,-23.883741,-29.394405,,,,,,,
1505916294.885529,0.122576,0.844803,1.438088,0.072636,-0.371917,-0.055662,0.081172,-0.747840,-0.658898,-0.050501,-0.002022,0.326790,-5.926754,-23.838192,-29.377119,,,,,,,
1505916294.905521,0.120681,0.850162,1.432627,0.468128,-0.264431,-0.134043,0.079440,-0.751388,-0.655062,-0.032778,-0.087480,0.222765,-6.095907,-23.912485,-29.281975,,,,,,,
1505916294.925487,0.123560,0.868149,1.428773,1.220047,0.164756,0.034757,0.079646,-0.763134,-0.641314,0.017232,-0.095127,0.062304,-6.156772,-24.391403,-28.871347,,,,,,,
1505916294.945453,0.135415,0.903216,1.418321,2.075016,0.153916,-0.231152,0.083578,-0.785322,-0.613420,0.065226,-0.159716,-0.067656,-6.030870,-25.289289,-28.115501,,,,,,,
1505916294.965419,0.156210,0.947170,1.396675,2.329733,0.197282,-0.300052,0.090854,-0.811766,-0.576872,0.021054,-0.112520,-0.006899,-5.850082,-26.218943,-27.290009,,,,,,,
1505916294.985385,0.179044,0.992446,1.375358,2.313498,0.309600,-0.226645,0.097351,-0.837366,-0.537905,0.005585,0.022607,-0.019010,-5.529366,-27.800270,-25.748245,,,,,,,
1505916295.005333,0.211251,1.032351,1.344253,1.973052,0.188008,-0.516435,0.107526,-0.858507,-0.501402,0.092425,0.048708,-0.152864,-5.169847,-28.944960,-24.532896,,,,,,,
1505916295.025318,0.235509,1.068394,1.314030,1.952183,-0.153577,-0.233741,0.112360,-0.876428,-0.468240,-0.004557,0.140482,-0.009421,-4.960315,-29.677273,-23.686615,,,,,,,
1505916295.045283,0.266938,1.105499,1.278862,2.010220,0.153583,-0.414678,0.118354,-0.893688,-0.432797,-0.011070,0.058682,0.220959,-4.792278,-30.843452,-22.183701,,,,,,,
1505916295.065223,0.285208,1.131503,1.265050,0.611270,0.427091,0.508211,0.119661,-0.905052,-0.408119,-0.031099,-0.869880,0.453880,-4.711300,-31.074362,-21.876671,,,,,,,
1505916295.085196,0.264624,1.132734,1.291830,-0.682808,0.357086,0.594297,0.110944,-0.905575,-0.409420,-0.136136,-0.709903,0.097622,-4.695599,-31.673721,-21.003038,,,,,,,
1505916295.105169,0.225684,1.102243,1.339715,-2.156691,-0.011784,0.627171,0.101055,-0.892222,-0.440144,-0.095699,-0.164632,-0.285853,-4.136231,-33.558727,-19.731974,,,,,,,
1505916295.125148,0.188355,1.062530,1.373052,-1.905781,-0.582197,0.174352,0.091124,-0.873590,-0.478056,-0.074065,0.119897,-0.310320,-4.449509,-32.857491,-20.814285,,,,,,,
1505916295.145112,0.169253,1.041379,1.380647,-0.477208,-0.535616,-0.072788,0.085071,-0.863101,-0.497814,-0.072680,0.176181,-0.160679,-4.449509,-32.857491,-20.814285,,,,,,,
1505916295.165075,0.166111,1.049766,1.372809,0.607125,-0.473714,-0.108769,0.082306,-0.867307,-0.490922,0.000137,-0.078967,0.057679,-5.010850,-32.029804,-21.946075,,,,,,,
1505916295.185047,0.155623,1.061845,1.375247,0.472912,-0.325745,0.245812,0.075523,-0.873256,-0.481373,-0.010933,-0.173482,0.103459,-5.255537,-32.358685,-21.399580,,,,,,,
1505916295.205003,0.140525,1.069785,1.387851,0.312880,-0.186721,0.456675,0.067274,-0.877097,-0.475578,-0.011946,-0.093087,-0.045662,-5.473284,-32.467140,-21.179586,,,,,,,
1505916295.224981,0.124073,1.078812,1.400202,0.500386,-0.353075,0.191192,0.058459,-0.881397,-0.468745,0.019101,0.044376,-0.072042,-5.927861,-32.594139,-20.859756,,,,,,,
1505916295.244945,0.120902,1.091950,1.393304,0.935773,-0.534384,-0.178925,0.055571,-0.887527,-0.457392,0.016985,0.089859,-0.058157,-6.108913,-32.825169,-20.441050,,,,,,,
1505916295.264903,0.124424,1.112982,1.374055,1.105607,-0.730787,-0.392218,0.054852,-0.897021,-0.438571,-0.002484,0.138705,0.012103,-6.159919,-33.037079,-20.081186,,,,,,,
1505916295.284864,0.138346,1.129292,1.345392,0.744677,-0.494596,-0.583584,0.058927,-0.904110,-0.423218,-0.023176,0.206798,0.186203,-6.140452,-33.714142,-18.928776,,,,,,,
1505916295.304845,0.156184,1.138415,1.314168,0.447800,-0.605977,-0.538908,0.065181,-0.907971,-0.413933,0.039144,0.091686,0.040719,-5.920570,-34.018871,-18.447502,,,,,,,
1505916295.324792,0.174762,1.144698,1.280069,0.437284,-0.619018,-0.709334,0.071866,-0.910585,-0.407025,-0.053632,0.101137,0.007917,-5.844782,-34.131886,-18.261976,,,,,,,
1505916295.344762,0.195562,1.152687,1.243816,0.593584,-0.576704,-0.596763,0.078900,-0.913858,-0.398294,0.023899,0.013284,0.089410,-5.485485,-34.498375,-17.675371,,,,,,,
1505916295.364743,0.215607,1.163214,1.213496,0.632153,-0.308447,-0.425702,0.084804,-0.918082,-0.387213,0.074773,-0.012338,0.036124,-5.329822,-34.704750,-17.315325,,,,,,,
1505916295.384684,0.230991,1.172838,1.189422,0.558558,-0.411139,-0.323948,0.088724,-0.921854,-0.377244,0.069281,-0.014990,-0.036040,-5.185890,-34.902100,-16.958679,,,,,,,
1505916295.404668,0.240696,1.183739,1.167111,0.675403,-0.551572,-0.253412,0.089980,-0.926024,-0.366583,0.037111,-0.078035,0.023551,-5.071709,-35.244732,-16.270639,,,,,,,
1505916295.424642,0.251124,1.196510,1.146926,0.747523,-0.407218,-0.171788,0.090851,-0.930769,-0.354140,0.033829,-0.131975,-0.154527,-5.054631,-35.489563,-15.734951,,,,,,,
1505916295.444604,0.258031,1.214267,1.125805,1.104463,-0.763886,-0.136462,0.089063,-0.937114,-0.337469,0.044024,-0.110066,-0.261301,-5.067505,-35.619225,-15.434977,,,,,,,
1505916295.464565,0.266890,1.239669,1.098879,1.500811,-0.870774,-0.070479,0.085742,-0.945677,-0.313599,-0.004351,0.033888,-0.039963,-5.259315,-36.149452,-14.078492,,,,,,,
1505916295.484540,0.281769,1.267354,1.069216,1.362375,-0.516934,-0.088450,0.083085,-0.954314,-0.287023,0.017410,0.021239,0.190969,-5.415426,-36.557327,-12.918275,,,,,,,
1505916295.504506,0.295907,1.290750,1.043714,1.126913,-0.490382,0.042032,0.080600,-0.961043,-0.264387,0.102551,-0.044100,0.163252,-5.450963,-36.731037,-12.400201,,,,,,,
1505916295.524473,0.302926,1.306577,1.028931,0.585472,-0.250065,0.026321,0.077906,-0.965297,-0.249265,0.027440,0.055812,0.162488,-5.639669,-37.095951,-11.168335,,,,,,,
1505916295.544433,0.308205,1.312246,1.023489,0.194818,0.164842,0.026487,0.077560,-0.966762,-0.243631,0.049592,0.033534,0.002344,-5.675729,-37.179619,-10.867805,,,,,,,
1505916295.564405,0.318352,1.318084,1.022079,0.386441,0.555973,0.133875,0.078260,-0.968238,-0.237468,0.071276,-0.000894,-0.001500,-5.675729,-37.179619,-10.867805,,,,,,,
1505916295.584371,0.322520,1.332588,1.027014,0.848205,0.309154,0.367549,0.074790,-0.971762,-0.223796,0.054299,0.096091,-0.036534,-5.639111,-37.262596,-10.599347,,,,,,,
1505916295.604337,0.318806,1.355662,1.032697,1.041832,0.090106,0.458418,0.066911,-0.976948,-0.202722,0.025023,0.068882,0.011163,-5.968990,-37.474957,-9.625267,,,,,,,
1505916295.624303,0.287870,1.377103,1.067851,0.884805,0.193564,0.772969,0.054648,-0.981300,-0.184564,0.131799,0.011284,0.006158,-5.968990,-37.474957,-9.625267,,,,,,,
1505916295.644269,0.233925,1.400098,1.125516,1.038275,-0.000569,0.748084,0.039375,-0.985466,-0.165244,-0.172600,0.251198,-0.221353,-6.658723,-37.606953,-8.603808,,,,,,,
1505916295.664208,0.212125,1.422171,1.141970,1.079329,-0.359116,0.142139,0.031176,-0.988976,-0.144759,-0.153552,0.296837,-0.061936,-7.310444,-37.692715,-7.646144,,,,,,,
1505916295.684202,0.239124,1.447041,1.110847,1.362527,-0.092690,0.129374,0.029237,-0.992352,-0.119928,-0.014314,-0.063648,0.003961,-7.438136,-37.794369,-6.993364,,,,,,,
1505916295.704167,0.255636,1.473091,1.092943,1.188865,0.011650,0.248914,0.024666,-0.995231,-0.094379,-0.027352,-0.154244,0.123783,-7.535766,-37.949371,-5.975327,,,,,,,
1505916295.724135,0.247397,1.494531,1.103478,0.931157,0.126550,0.347666,0.018658,-0.997093,-0.073872,-0.049786,0.054527,0.139408,-7.837057,-38.072380,-4.660622,,,,,,,
1505916295.744101,0.220089,1.510920,1.136291,0.607917,0.361497,0.211137,0.013064,-0.998208,-0.058397,-0.144961,0.076501,0.090501,-7.837057,-38.072380,-4.660622,,,,,,,
1505916295.764066,0.262050,1.518549,1.099192,0.352255,0.176396,-0.102090,0.013529,-0.998635,-0.050440,-0.056009,-0.050910,-0.048223,-8.101034,-38.118370,-3.743039,,,,,,,
1505916295.784033,0.318559,1.525361,1.044629,0.376700,0.099023,0.083939,0.014225,-0.998968,-0.043135,0.175197,-0.170252,0.088408,-8.033905,-38.156639,-3.489185,,,,,,,
1505916295.803996,0.252490,1.534612,1.114296,0.426549,0.218140,0.322711,0.009037,-0.999345,-0.035029,0.114528,-0.153715,-0.008351,-8.127234,-38.155071,-3.284139,,,,,,,
1505916295.823949,0.191195,1.544284,1.177442,0.445886,-0.080379,0.055426,0.005038,-0.999649,-0.026026,-0.039416,0.008926,-0.177129,-8.377574,-38.131847,-2.902649,,,,,,,
1505916295.843932,0.569869,1.552102,0.789529,0.581989,-0.657259,-0.428105,0.010086,-0.999825,-0.015739,0.003891,-0.060783,-0.142479,-8.286539,-38.181465,-2.481112,,,,,,,
1505916295.863898,1.386106,1.556165,-0.037149,0.698027,-0.409293,0.021750,0.014382,-0.999893,-0.002687,0.369041,-0.351471,0.074205,-8.083840,-38.250248,-2.053540,,,,,,,
1505916295.883864,2.404391,1.556687,-1.062559,0.626965,-0.275644,0.283448,0.009484,-0.999900,0.010445,0.065406,-0.182381,0.111060,-8.209029,-38.255840,-1.322815,,,,,,,
1505916295.903830,2.876256,1.551413,-1.537560,0.246701,-0.087810,0.193417,0.005083,-0.999812,0.018704,0.011702,-0.162511,0.169101,-8.400749,-38.226482,-0.900198,,,,,,,
1505916295.923797,-3.087630,1.551929,-1.859193,-0.103593,-0.078073,0.459124,-0.001018,-0.999822,0.018839,0.165782,-0.210841,0.150503,-8.522173,-38.201691,-0.806536,,,,,,,
1505916295.943763,-2.261411,1.548219,-2.684946,-0.249401,0.100710,1.038726,-0.017403,-0.999745,0.014381,0.175056,-0.201137,0.073250,-9.101147,-38.064651,-0.947868,,,,,,,
1505916295.963727,-1.832234,1.526215,-3.111029,-0.066188,0.192045,1.364877,-0.043052,-0.999006,0.011519,-0.042306,-0.132952,-0.065627,-10.008736,-37.831596,-1.114664,,,,,,,
1505916295.983683,-1.770040,1.498032,3.124428,0.407512,1.222761,1.461744,-0.071262,-0.997354,0.014389,-0.076550,-0.149375,-0.126130,-10.521903,-37.690983,-1.151682,,,,,,,
1505916296.003637,-1.804648,1.464064,-3.113852,0.479541,-0.184561,1.651818,-0.103630,-0.994310,0.024686,0.046913,0.029039,-0.014523,-12.191393,-37.190079,-0.956450,,,,,,,
1505916296.023601,-1.781706,1.435906,3.135983,-0.072281,-0.510205,1.254579,-0.131502,-0.990916,0.028154,-0.062742,0.445781,0.308669,-13.320488,-36.807278,-0.660162,,,,,,,
1505916296.043590,-1.711246,1.412927,3.055213,-0.490339,-0.403874,1.297702,-0.155666,-0.987565,0.022008,-0.126011,0.320603,0.185771,-13.771643,-36.641132,-0.645352,,,,,,,
1505916296.063558,-1.637819,1.388523,2.975779,-0.551134,-0.226255,1.256642,-0.180858,-0.983434,0.012140,-0.096089,-0.012644,0.005591,-15.165810,-36.077713,-1.021790,,,,,,,
1505916296.083519,-1.589189,1.367132,2.921101,-0.434128,-0.241653,0.963802,-0.202225,-0.979332,0.003720,-0.055039,0.121727,0.021823,-16.006939,-35.703117,-1.308625,,,,,,,
1505916296.103476,-1.558807,1.352741,2.884713,-0.359508,-0.313060,0.580410,-0.216316,-0.976320,-0.002594,0.008293,0.215578,0.029571,-16.336161,-35.549351,-1.421449,,,,,,,
1505916296.123431,-1.533314,1.344756,2.854663,-0.315923,-0.075617,0.297223,-0.223963,-0.974561,-0.008399,0.009547,0.243559,0.100348,-16.928726,-35.259808,-1.676718,,,,,,,
1505916296.143406,-1.506873,1.341212,2.827534,-0.342083,-0.010870,0.082192,-0.227108,-0.973761,-0.014537,-0.049366,0.074362,0.054256,-17.057320,-35.190033,-1.832108,,,,,,,
1505916296.163391,-1.471784,1.341353,2.791322,-0.442056,0.012152,-0.108900,-0.226322,-0.973793,-0.022482,-0.059506,0.022377,0.056524,-17.101032,-35.159004,-2.011545,,,,,,,
1505916296.183355,-1.431965,1.343849,2.752894,-0.372149,0.215769,-0.196145,-0.222839,-0.974358,-0.031137,-0.010956,-0.025780,0.002069,-16.975117,-35.189846,-2.483371,,,,,,,
1505916296.203322,-1.397042,1.346303,2.720547,-0.383815,0.009300,-0.155691,-0.219261,-0.974907,-0.038486,0.038612,-0.071876,-0.059644,-16.864182,-35.225388,-2.723696,,,,,,,
1505916296.223277,-1.370098,1.345078,2.699001,-0.125434,0.406027,0.147047,-0.219314,-0.974634,-0.044617,0.128982,-0.083731,-0.012619,-16.783970,-35.246765,-2.934431,,,,,,,
1505916296.243231,-1.366245,1.339139,2.696224,-0.149551,-0.173220,0.324404,-0.224805,-0.973287,-0.046636,0.023175,-0.087031,-0.054163,-16.933529,-35.151207,-3.208638,,,,,,,
1505916296.263207,-1.387930,1.326474,2.710267,-0.301148,-0.293476,0.278888,-0.237866,-0.970301,-0.043989,-0.060001,-0.011098,0.055174,-17.422783,-34.927567,-3.026370,,,,,,,
1505916296.283188,-1.367877,1.320120,2.689365,-0.301301,0.206300,0.260482,-0.242970,-0.968745,-0.049991,-0.054241,0.044306,0.136600,-17.525452,-34.870689,-3.088743,,,,,,,
1505916296.303155,-1.344866,1.315183,2.679215,-0.071708,0.898237,0.172852,-0.246413,-0.967508,-0.056639,-0.016481,0.122873,0.073546,-17.749037,-34.715244,-3.531375,,,,,,,
1505916296.323113,-1.324204,1.313193,2.682043,0.092467,1.399797,0.071903,-0.247057,-0.967003,-0.062188,-0.035643,0.064919,0.059121,-17.761673,-34.666725,-3.922736,,,,,,,
1505916296.343087,-1.300935,1.313983,2.692112,0.172021,1.814177,-0.065420,-0.244807,-0.967204,-0.067716,-0.052480,0.074580,0.027127,-17.723135,-34.660694,-4.144127,,,,,,,
1505916296.363053,-1.264333,1.316329,2.682902,-0.265579,0.873935,-0.169022,-0.240001,-0.967798,-0.075944,-0.053914,-0.131049,-0.265670,-17.418798,-34.710930,-4.937991,,,,,,,
1505916296.383019,-1.279899,1.322268,2.707868,0.735223,-0.146732,-0.185258,-0.235643,-0.969275,-0.070549,0.010363,0.017264,-0.452507,-17.219349,-34.789589,-5.081878,,,,,,,
1505916296.402986,-1.367771,1.330658,2.784288,1.147328,-0.707363,-0.161542,-0.232952,-0.971305,-0.047956,0.063991,0.090812,-0.347216,-17.169994,-34.861351,-4.745985,,,,,,,
1505916296.422952,-1.502819,1.340086,2.912732,1.812396,-0.352167,-0.348199,-0.228141,-0.973504,-0.015532,-0.043450,0.084512,-0.098817,-17.031246,-35.113819,-3.098948,,,,,,,
1505916296.442899,-1.685303,1.347588,3.099193,2.122941,0.032689,-0.438267,-0.219910,-0.975192,0.025292,-0.070755,-0.101666,-0.271035,-16.834259,-35.287453,-2.012564,,,,,,,
1505916296.462884,-1.873642,1.351303,-2.996381,1.912678,-0.275947,-0.687709,-0.207827,-0.976008,0.064937,-0.088529,-0.277303,-0.302821,-16.592583,-35.447407,-0.902567,,,,,,,
1505916296.482850,-2.020881,1.353863,-2.845083,1.125005,0.038454,-0.737645,-0.193801,-0.976562,0.093637,0.084563,0.175705,0.545691,-15.867990,-35.773006,1.070509,,,,,,,
1505916296.502800,-2.072453,1.361323,-2.788950,-0.033752,0.380458,-0.486549,-0.182323,-0.978141,0.099996,0.171169,-0.122583,0.455698,-15.392012,-35.964645,1.509097,,,,,,,
1505916296.522783,-2.054112,1.367393,-2.792107,-0.208613,0.601743,-0.140336,-0.178866,-0.979385,0.093875,0.174060,-0.125001,0.268445,-15.197839,-36.055298,1.299348,,,,,,,
1505916296.542749,-2.028879,1.373021,-2.823288,-0.505205,-0.607796,-0.116202,-0.176231,-0.980506,0.086893,0.052452,-0.062631,-0.119791,-15.084492,-36.113708,0.951359,,,,,,,
1505916296.562702,-2.020704,1.385034,-2.841327,-0.277621,-0.343048,-0.927184,-0.166317,-0.982796,0.080321,-0.527424,0.872093,-0.042250,-14.984002,-36.158951,0.810586,,,,,,,
1505916296.582681,-2.077975,1.411194,-2.797864,-0.271354,-0.855533,-1.369335,-0.138920,-0.987291,0.077192,-0.427532,0.620332,-0.174498,-14.494051,-36.359707,0.735627,,,,,,,
1505916296.602636,-2.155561,1.433516,-2.730379,-0.064783,-0.299102,-1.137699,-0.114111,-0.990592,0.075541,-0.033899,-0.400232,-0.003932,-13.043728,-36.903976,0.777612,,,,,,,
1505916296.622572,-2.266155,1.448242,-2.625915,0.180480,-0.518655,-0.916936,-0.093865,-0.992500,0.078319,0.118538,-0.215279,-0.346630,-12.441375,-37.110344,0.825467,,,,,,,
1505916296.642540,-2.400297,1.458367,-2.502635,0.132750,-0.557346,-0.848912,-0.075758,-0.993686,0.082753,0.021589,-0.229214,-0.021489,-11.921196,-37.275959,1.017444,,,,,,,
1505916296.662506,-2.531045,1.467732,-2.373542,0.043821,0.128041,-0.811040,-0.058984,-0.994694,0.084295,0.027383,0.079487,0.185908,-10.954493,-37.562920,1.293460,,,,,,,
1505916296.682449,-2.647702,1.475571,-2.252651,-0.112183,0.170518,-0.641432,-0.045074,-0.995470,0.083718,0.062148,0.098772,-0.029962,-12.462951,-36.840958,4.177215,,,,,,,
1505916296.702440,-2.743075,1.482923,-2.159212,-0.206356,-0.302313,-0.515259,-0.034056,-0.996142,0.080883,0.061262,0.097719,-0.088513,-12.117158,-36.964203,4.105198,,,,,,,
1505916296.722404,-2.824349,1.491090,-2.082886,-0.316062,-0.141458,-0.403564,-0.024838,-0.996825,0.075649,0.034085,0.001006,0.064167,-11.541704,-37.163769,3.959025,,,,,,,
1505916296.742355,-2.881782,1.499771,-2.022328,-0.332628,0.252395,-0.286694,-0.018231,-0.997479,0.068584,0.009610,0.090084,0.081395,-11.326747,-37.249535,3.769271,,,,,,,
1505916296.762340,-2.915242,1.505829,-1.987001,-0.237729,-0.052198,-0.133743,-0.014570,-0.997890,0.063265,0.065336,-0.006794,-0.093417,-11.142075,-37.332645,3.486866,,,,,,,
1505916296.782305,-2.920194,1.511154,-1.985063,-0.263450,-0.170807,-0.017876,-0.013089,-0.998222,0.058152,0.059003,-0.185952,-0.017610,-11.032803,-37.384186,3.275752,,,,,,,
1505916296.802261,-2.869764,1.514972,-2.038129,-0.198741,-0.085363,0.153310,-0.014981,-0.998442,0.053747,0.100308,-0.258272,-0.032689,-11.026690,-37.389446,3.235987,,,,,,,
1505916296.822237,-2.809256,1.517632,-2.095996,-0.149685,0.236140,0.083787,-0.017337,-0.998587,0.050231,-0.053693,-0.031747,0.004960,-11.146098,-37.372025,3.021001,,,,,,,
1505916296.842204,-2.774848,1.520585,-2.125910,-0.187672,0.239787,-0.029941,-0.017997,-0.998740,0.046852,-0.080086,0.119772,-0.015007,-11.217534,-37.366982,2.811766,,,,,,,
1505916296.862166,-2.772296,1.525138,-2.120569,-0.203209,0.432556,-0.108123,-0.016475,-0.998958,0.042566,0.013301,0.076442,-0.006036,-11.215285,-37.371273,2.763330,,,,,,,
1505916296.882137,-2.789923,1.529845,-2.096127,-0.191283,0.291479,-0.172090,-0.014102,-0.999162,0.038434,0.022739,0.010209,-0.051038,-11.135549,-37.420055,2.401973,,,,,,,
1505916296.902096,-2.846791,1.533381,-2.036799,-0.111782,0.065144,-0.163341,-0.010868,-0.999300,0.035793,0.044682,-0.149626,-0.031017,-10.993747,-37.474758,2.193238,,,,,,,
1505916296.922069,-2.908242,1.536545,-1.974429,-0.130077,0.019286,-0.141236,-0.007919,-0.999413,0.033317,0.015533,-0.105781,-0.025291,-10.963896,-37.484928,2.168754,,,,,,,
1505916296.942018,-2.978849,1.539730,-1.903505,-0.144824,0.050189,-0.162557,-0.005033,-0.999517,0.030651,0.004972,-0.074335,0.000934,-10.828218,-37.531384,2.043353,,,,,,,
1505916296.961992,-3.038431,1.535508,-1.840853,-0.208739,0.222488,-0.205801,-0.003633,-0.999377,0.035093,0.004778,0.014255,0.057360,-10.731793,-37.553146,2.149437,,,,,,,
1505916296.981966,3.114496,1.539947,-1.704972,-0.196780,0.270484,-0.233286,0.000836,-0.999524,0.030833,0.015476,-0.009585,-0.064097,-10.572854,-37.610065,1.930750,,,,,,,
1505916297.001909,2.975087,1.542348,-1.562591,-0.101272,0.120430,-0.160793,0.004714,-0.999595,0.028051,0.045090,-0.044121,-0.124197,-10.490501,-37.637882,1.835601,,,,,,,
1505916297.021898,2.683713,1.542738,-1.270482,-0.172982,-0.019206,-0.112817,0.012402,-0.999606,0.025165,0.036976,-0.079037,0.003430,-10.360251,-37.679489,1.718017,,,,,,,
1505916297.041852,2.554832,1.546027,-1.141946,-0.254047,-0.003778,-0.037169,0.013712,-0.999693,0.020624,0.057210,-0.056368,0.035208,-10.065658,-37.766407,1.552899,,,,,,,
1505916297.061831,2.446979,1.550680,-1.032359,-0.274347,0.118867,0.099462,0.012875,-0.999798,0.015454,0.080615,-0.011341,0.015063,-10.050249,-37.777962,1.359589,,,,,,,
1505916297.081798,1.851183,1.548581,-0.434423,-0.227379,0.083500,0.185166,0.021346,-0.999753,0.006147,-0.011809,0.033124,-0.006879,-9.726478,-37.875809,0.921451,,,,,,,
1505916297.101759,1.703298,1.553212,-0.284225,-0.180925,0.156854,0.206235,0.017429,-0.999845,0.002323,-0.017033,0.066206,0.004254,-9.833648,-37.851093,0.790235,,,,,,,
1505916297.121731,1.633473,1.557310,-0.210266,0.004582,0.237000,0.199260,0.013459,-0.999909,0.000845,-0.016343,0.072785,-0.046438,-9.988451,-37.813404,0.638557,,,,,,,
1505916297.141696,2.032422,1.559985,-0.605434,0.308268,0.142070,0.169445,0.009680,-0.999942,0.004815,-0.024328,0.057040,-0.155862,-10.176615,-37.762745,0.664823,,,,,,,
1505916297.161663,2.590479,1.556351,-1.161497,0.365175,0.136307,0.062653,0.007564,-0.999896,0.012306,-0.036769,0.057406,0.042564,-10.259895,-37.736553,0.847059,,,,,,,
1505916297.181629,2.724841,1.551697,-1.291061,0.181627,0.281046,-0.047882,0.007731,-0.999818,0.017463,-0.052119,0.028779,0.091927,-10.297214,-37.720711,1.070368,,,,,,,
1505916297.201595,2.702101,1.548770,-1.264707,0.100746,0.113180,-0.107210,0.009371,-0.999757,0.019932,-0.017199,-0.017165,-0.013065,-10.245247,-37.732136,1.162323,,,,,,,
1505916297.221541,2.648412,1.546215,-1.211292,0.073544,-0.075060,-0.106366,0.011636,-0.999698,0.021650,0.006781,-0.062436,0.029482,-10.160564,-37.753021,1.225773,,,,,,,
1505916297.241529,2.608007,1.544679,-1.171962,0.029291,-0.041274,-0.075368,0.013282,-0.999659,0.022484,-0.015907,-0.029653,0.027473,-10.106160,-37.766178,1.269503,,,,,,,
1505916297.261493,2.538352,1.544049,-1.102248,-0.054728,0.031023,-0.111848,0.015172,-0.999642,0.022023,-0.021749,0.006951,0.011058,-10.061986,-37.777287,1.289818,,,,,,,
1505916297.281446,2.434601,1.543678,-0.997658,-0.070682,0.019301,-0.113085,0.017613,-0.999632,0.020616,0.032299,-0.039308,-0.051668,-9.935265,-37.813080,1.221296,,,,,,,
1505916297.301428,2.382155,1.543671,-0.945879,-0.032321,-0.075740,-0.007402,0.018674,-0.999632,0.019670,0.054263,-0.036424,-0.084947,-9.883297,-37.827816,1.186260,,,,,,,
1505916297.321393,2.387513,1.545748,-0.955193,-0.113546,-0.279611,0.129038,0.017147,-0.999686,0.018256,0.050114,-0.120507,-0.068641,-9.878092,-37.829437,1.177812,,,,,,,
1505916297.341352,2.398880,1.551586,-0.974383,-0.228079,-0.377205,0.259494,0.012991,-0.999816,0.014150,-0.041998,-0.006746,0.081553,-10.035788,-37.789719,1.118285,,,,,,,
1505916297.361326,2.531880,1.558057,-1.113318,-0.133902,-0.255965,0.291847,0.007295,-0.999919,0.010444,-0.069658,0.032100,0.074929,-10.035788,-37.789719,1.118285,,,,,,,
1505916297.381292,2.975227,1.561361,-1.560848,-0.030787,-0.268662,0.323445,0.001562,-0.999955,0.009305,0.027231,-0.123030,-0.206159,-10.345524,-37.709152,1.009977,,,,,,,
1505916297.401237,-2.695420,1.557897,-2.181584,0.184801,-0.511923,0.372532,-0.005566,-0.999917,0.011636,0.023419,-0.005821,-0.129877,-10.637317,-37.625950,1.079705,,,,,,,
1505916297.421225,-2.476715,1.551147,-2.410070,0.184346,-0.419113,0.305617,-0.012122,-0.999807,0.015463,-0.019769,0.070592,0.056528,-10.834949,-37.564003,1.257028,,,,,,,
1505916297.441190,-2.367556,1.544678,-2.524831,0.138541,-0.073669,0.304214,-0.018256,-0.999659,0.018675,-0.030298,0.059931,0.187898,-11.060167,-37.489616,1.493865,,,,,,,
1505916297.461158,-2.342290,1.540775,-2.550451,0.096041,-0.110865,0.056341,-0.021518,-0.999549,0.020928,0.037449,0.134407,-0.062493,-11.345503,-37.396294,1.681381,,,,,,,
1505916297.481123,-2.397360,1.540506,-2.501083,0.039560,-0.310280,-0.066219,-0.020516,-0.999541,0.022279,0.046242,0.039382,-0.017899,-11.345503,-37.396294,1.681381,,,,,,,
1505916297.501090,-2.453640,1.541110,-2.450158,0.037582,-0.206993,-0.100950,-0.018847,-0.999559,0.022931,-0.034559,0.084658,0.037799,-11.297952,-37.403252,1.839405,,,,,,,
1505916297.521055,-2.551009,1.541185,-2.353899,0.112807,0.032434,-0.114050,-0.016486,-0.999562,0.024592,-0.001794,-0.020000,-0.006998,-11.175625,-37.434250,1.952660,,,,,,,
1505916297.541023,-2.654817,1.539184,-2.248371,0.198385,0.104677,-0.065980,-0.014785,-0.999500,0.027936,0.013626,-0.034725,0.015048,-11.175625,-37.434250,1.952660,,,,,,,
1505916297.560987,-2.725521,1.535419,-2.175337,0.219882,0.138453,-0.004603,-0.014295,-0.999374,0.032352,0.000715,-0.024933,0.098782,-9.892273,-38.606197,-0.706024,,,,,,,
1505916297.580954,-2.766249,1.532366,-2.129957,0.143995,0.288315,-0.027714,-0.014085,-0.999262,0.035746,0.009995,-0.031042,0.035467,-9.868869,-38.615154,-0.518970,,,,,,,
1505916297.600893,-2.785090,1.529930,-2.101480,0.133007,0.608148,0.006278,-0.014258,-0.999165,0.038286,0.010169,-0.031139,0.032926,-9.868869,-38.615154,-0.518970,,,,,,,
1505916297.620877,-2.775866,1.528947,-2.098934,0.005114,0.494060,0.020890,-0.014962,-0.999124,0.039070,0.028832,-0.052252,-0.062599,-9.851592,-38.619102,-0.552405,,,,,,,
1505916297.640853,-2.740519,1.529833,-2.129202,-0.126390,0.213109,0.022693,-0.015988,-0.999161,0.037702,0.014065,-0.028488,0.225603,-9.879434,-38.610619,-0.641038,,,,,,,
1505916297.660799,-2.680118,1.532617,-2.179116,-0.210043,0.624281,0.045021,-0.016996,-0.999271,0.034178,0.004881,-0.073559,0.080065,-9.884337,-38.607990,-0.719105,,,,,,,
1505916297.680783,-2.550560,1.537780,-2.295410,-0.363292,0.749315,0.068420,-0.018394,-0.999455,0.027410,0.014961,-0.128353,0.079828,-9.913972,-38.588840,-1.186817,,,,,,,
1505916297.700752,-2.334486,1.541483,-2.491338,-0.314039,1.104185,0.138326,-0.021169,-0.999570,0.020270,0.025259,-0.033434,-0.064734,-9.962868,-38.559639,-1.639989,,,,,,,
1505916297.720702,-2.095917,1.542292,-2.709668,-0.251942,0.937295,0.159110,-0.024660,-0.999594,0.014288,0.008776,-0.047434,-0.071447,-9.999544,-38.539745,-1.868482,,,,,,,
1505916297.740680,-1.882928,1.540357,-2.907601,-0.193892,0.647703,0.271234,-0.028964,-0.999537,0.009346,0.079227,-0.148367,-0.021416,-10.140551,-38.471558,-2.429544,,,,,,,
1505916297.760651,-1.760540,1.532309,-3.018319,-0.107676,0.650920,0.528802,-0.037787,-0.999259,0.007257,0.083487,-0.152108,0.002890,-10.313771,-38.414875,-2.591847,,,,,,,
1505916297.780611,-1.582614,1.521394,3.096317,-0.409249,0.219409,0.596152,-0.049379,-0.998780,0.000584,0.042512,-0.013702,-0.173588,-10.586818,-38.328598,-2.762610,,,,,,,
1505916297.800564,-1.390850,1.509196,2.899838,-0.717719,-0.519793,0.526663,-0.060567,-0.998103,-0.011018,-0.052729,0.804668,-0.753127,-11.237051,-38.098198,-3.324172,,,,,,,
1505916297.820549,-1.165717,1.500494,2.638688,-0.815236,-2.207098,0.043607,-0.064559,-0.997530,-0.027683,0.284042,-0.380186,-0.067181,-11.501441,-37.989750,-3.645525,,,,,,,
1505916297.840517,-1.110642,1.493367,2.549459,-0.291633,-1.188455,0.242442,-0.069306,-0.997004,-0.034351,-0.242614,0.058298,0.360950,-11.652502,-37.934361,-3.741365,,,,,,,
1505916297.860470,-1.085168,1.484762,2.514879,-0.366140,-0.052349,0.300254,-0.075993,-0.996301,-0.040108,-0.098201,0.081461,0.138542,-12.082685,-37.798183,-3.755026,,,,,,,
1505916297.880449,-1.023650,1.477447,2.457762,-0.434835,0.403258,0.149442,-0.079606,-0.995646,-0.048495,-0.120940,0.085337,0.029345,-12.220078,-37.730358,-3.985468,,,,,,,
1505916297.900392,-0.972788,1.472879,2.410476,-0.235674,0.101355,0.001018,-0.080795,-0.995210,-0.055039,-0.042801,0.279954,-0.123107,-12.284250,-37.677826,-4.274648,,,,,,,
1505916297.920376,-0.943152,1.472684,2.381520,-0.051700,0.040543,-0.101062,-0.079286,-0.995191,-0.057523,0.033662,0.170835,0.014661,-12.263349,-37.651947,-4.553603,,,,,,,
1505916297.940346,-0.933282,1.474218,2.373798,0.021131,0.155352,-0.066734,-0.077487,-0.995340,-0.057394,0.043781,0.074411,0.043539,-12.204008,-37.668774,-4.573809,,,,,,,
1505916297.960298,-0.908836,1.474480,2.352714,-0.137370,0.142428,-0.099889,-0.075856,-0.995365,-0.059111,-0.028713,0.089710,0.064146,-12.155343,-37.682121,-4.593424,,,,,,,
1505916297.980252,-0.861797,1.474871,2.307103,-0.138828,0.091581,-0.139830,-0.072697,-0.995403,-0.062359,-0.048839,0.025020,0.017162,-12.004824,-37.706581,-4.784561,,,,,,,
1505916298.000227,-0.823711,1.472096,2.273779,-0.334568,0.437508,0.143822,-0.072296,-0.995133,-0.066958,-0.079849,-0.093368,0.067996,-11.935688,-37.715199,-4.888477,,,,,,,
1505916298.020204,-0.740829,1.453196,2.214047,-1.347511,1.642354,0.554142,-0.079186,-0.993093,-0.086579,-0.281563,0.266973,0.124100,-11.977499,-37.663952,-5.173038,,,,,,,
1505916298.040154,-0.609114,1.432113,2.091358,-0.997385,-0.758496,-0.381420,-0.079092,-0.990399,-0.113378,0.091193,-0.134037,-0.144908,-12.161185,-37.316425,-6.955873,,,,,,,
1505916298.060133,-0.485894,1.424695,1.948965,-0.578313,-0.499036,-0.663299,-0.067987,-0.989346,-0.128732,0.007104,-0.166248,0.004846,-11.851610,-37.323887,-7.433765,,,,,,,
1505916298.080084,-0.405209,1.426251,1.876965,0.078811,0.764336,-0.449338,-0.056783,-0.989571,-0.132378,0.056814,-0.336936,-0.116783,-11.634527,-37.361969,-7.583882,,,,,,,
1505916298.100060,-0.355419,1.435444,1.831074,0.373481,-0.221509,-0.487792,-0.046957,-0.990854,-0.126506,0.023077,-0.017371,-0.078130,-10.996778,-37.544079,-7.635911,,,,,,,
1505916298.120042,-0.299798,1.443500,1.762781,0.121237,-0.690385,-0.592799,-0.037493,-0.991909,-0.121290,-0.034819,0.021129,0.066221,-10.756878,-37.664974,-7.377909,,,,,,,
1505916298.139982,-0.229226,1.445302,1.680757,-0.144918,-0.484324,-0.439999,-0.028440,-0.992136,-0.121891,0.053358,-0.133703,0.123951,-10.413234,-37.800797,-7.173464,,,,,,,
1505916298.159970,-0.191569,1.442586,1.634238,-0.213911,-0.399650,-0.162519,-0.024344,-0.991792,-0.125521,0.035865,-0.029066,0.085222,-10.150741,-37.865345,-7.209175,,,,,,,
1505916298.179941,-0.179964,1.437998,1.615541,-0.247914,-0.308902,-0.031516,-0.023700,-0.991195,-0.130270,-0.060620,0.241210,0.058920,-10.121157,-37.852848,-7.315622,,,,,,,
1505916298.199891,-0.189992,1.434640,1.620461,-0.076063,-0.290132,0.120631,-0.025634,-0.990745,-0.133294,-0.048798,0.267997,-0.017845,-10.136639,-37.836681,-7.377544,,,,,,,
1505916298.219867,-0.230204,1.433207,1.655029,-0.001577,-0.333385,0.307165,-0.031296,-0.990549,-0.133538,0.070496,-0.120031,-0.023933,-10.371923,-37.771229,-7.385893,,,,,,,
1505916298.239841,-0.290969,1.430744,1.709910,-0.043158,-0.234177,0.444599,-0.040047,-0.990209,-0.133727,0.085534,-0.189967,0.077514,-10.606616,-37.716255,-7.333348,,,,,,,
1505916298.259782,-0.350069,1.427295,1.771473,0.017136,0.241112,0.459606,-0.049047,-0.989721,-0.134335,0.023519,-0.153620,0.093808,-10.880257,-37.640583,-7.321249,,,,,,,
1505916298.279751,-0.407534,1.427131,1.833281,0.226440,0.125975,0.390550,-0.056745,-0.989698,-0.131446,0.016645,0.100156,0.044913,-11.342528,-37.504711,-7.316943,,,,,,,
1505916298.299740,-0.463432,1.427689,1.892138,0.143281,0.158821,0.378470,-0.063754,-0.989778,-0.127577,0.021655,0.008882,0.101713,-11.542719,-37.465336,-7.204755,,,,,,,
1505916298.319690,-0.570462,1.435353,2.004622,0.170785,0.292867,0.370887,-0.072919,-0.990842,-0.113648,-0.049365,0.018368,-0.020385,-11.735211,-37.416050,-7.149693,,,,,,,
1505916298.339670,-0.657925,1.436696,2.094217,0.567808,-0.134507,0.537755,-0.081754,-0.991022,-0.105791,0.060468,-0.005789,0.014375,-12.232496,-37.375084,-6.501032,,,,,,,
1505916298.359615,-0.787013,1.438283,2.221952,0.563548,-0.012501,0.590943,-0.093578,-0.991233,-0.093276,0.042613,-0.116250,0.124404,-12.565138,-37.328857,-6.121083,,,,,,,
1505916298.379579,-0.891299,1.435699,2.328656,0.402175,0.010872,0.524790,-0.104771,-0.990888,-0.084638,-0.026958,-0.235308,-0.039401,-13.004107,-37.241112,-5.725993,,,,,,,
1505916298.399563,-0.984936,1.435927,2.419290,0.588467,-0.273291,0.215750,-0.112038,-0.990919,-0.074346,-0.051246,-0.113009,-0.068461,-13.440066,-37.151058,-5.287468,,,,,,,
1505916298.419538,-1.080955,1.441922,2.509462,0.681996,-0.348338,-0.063665,-0.113405,-0.991707,-0.060466,-0.049742,-0.084449,0.035701,-13.557720,-37.183708,-4.728020,,,,,,,
1505916298.439479,-1.149880,1.450096,2.572410,0.413692,-0.313862,-0.276042,-0.109897,-0.992725,-0.049198,-0.033825,-0.077939,0.071445,-13.541039,-37.225830,-4.435298,,,,,,,
1505916298.459469,-1.167742,1.457905,2.583482,0.106315,-0.356710,-0.340255,-0.103624,-0.993635,-0.044185,0.021975,-0.134127,0.037960,-13.272915,-37.383503,-3.885566,,,,,,,
1505916298.479413,-1.150503,1.463287,2.559022,-0.082304,-0.346747,-0.279206,-0.097963,-0.994227,-0.043782,0.005632,-0.102758,0.032048,-13.111136,-37.450878,-3.784712,,,,,,,
1505916298.499391,-1.095535,1.465975,2.496524,-0.346003,-0.384589,-0.258521,-0.093034,-0.994511,-0.047876,-0.016311,-0.084911,0.010324,-12.929293,-37.514381,-3.781382,,,,,,,
1505916298.519342,-0.995528,1.465828,2.390951,-0.533024,-0.156257,-0.286107,-0.087912,-0.994496,-0.057004,-0.011423,-0.104335,0.011060,-12.714226,-37.559116,-4.056554,,,,,,,
1505916298.539335,-0.894916,1.466128,2.287068,-0.344115,-0.192722,-0.363379,-0.081509,-0.994527,-0.065359,0.001095,-0.133906,-0.048502,-12.552458,-37.584496,-4.316879,,,,,,,
1505916298.559302,-0.818342,1.469060,2.206110,-0.173640,-0.117962,-0.361909,-0.074141,-0.994829,-0.069410,0.017806,-0.153150,0.033979,-12.290309,-37.649124,-4.503987,,,,,,,
1505916298.579268,-0.757420,1.470105,2.144184,-0.214052,-0.109179,-0.212161,-0.069063,-0.994935,-0.073040,0.099763,-0.019561,-0.165059,-12.002164,-37.724152,-4.650882,,,,,,,
1505916298.599226,-0.703524,1.467162,2.082613,-0.367510,-0.380132,-0.085125,-0.066922,-0.994635,-0.078886,0.064908,0.043051,-0.080965,-11.915770,-37.738857,-4.752608,,,,,,,
1505916298.619200,-0.665176,1.461608,2.047647,-0.306772,0.525892,0.124186,-0.067257,-0.994045,-0.085740,0.059994,0.151165,0.145630,-11.893268,-37.718815,-4.963413,,,,,,,
1505916298.639166,-0.663881,1.452260,2.056206,-0.356661,0.265057,0.405052,-0.072869,-0.992983,-0.093141,-0.036415,0.117815,-0.186415,-12.028296,-37.612976,-5.420158,,,,,,,
1505916298.659131,-0.680580,1.441970,2.069250,-0.351802,-0.420422,0.350612,-0.080839,-0.991713,-0.099848,-0.016786,0.213057,-0.167882,-12.249590,-37.510078,-5.633446,,,,,,,
1505916298.679090,-0.684112,1.433149,2.067230,-0.338064,-0.022021,0.191380,-0.086717,-0.990542,-0.106338,0.027040,0.245089,0.123885,-12.548196,-37.385632,-5.800973,,,,,,,
1505916298.699059,-0.661095,1.426910,2.047478,-0.337534,0.109456,0.041168,-0.088039,-0.989666,-0.113181,0.005810,0.083233,-0.103478,-12.677068,-37.288704,-6.135026,,,,,,,
1505916298.719032,-0.633292,1.422567,2.017108,-0.294327,-0.255620,-0.079652,-0.087402,-0.989034,-0.119048,-0.010972,0.095968,-0.146363,-12.674801,-37.258324,-6.321475,,,,,,,
1505916298.738998,-0.607906,1.419906,1.983831,-0.231050,-0.382708,-0.157150,-0.085855,-0.988638,-0.123389,-0.030417,0.130514,-0.003748,-12.645686,-37.244476,-6.459855,,,,,,,
1505916298.758964,-0.574894,1.417145,1.945659,-0.310602,-0.162777,-0.160584,-0.083219,-0.988219,-0.128445,-0.060198,0.001067,-0.031085,-12.551349,-37.252449,-6.596429,,,,,,,
1505916298.778930,-0.543538,1.411831,1.907901,-0.436726,-0.470689,-0.075375,-0.081866,-0.987392,-0.135484,-0.078290,-0.099202,-0.123366,-12.490552,-37.245800,-6.747654,,,,,,,
1505916298.798898,-0.522252,1.404530,1.872351,-0.446727,-0.716319,-0.071561,-0.082558,-0.986210,-0.143440,-0.043129,-0.089962,0.028526,-12.510299,-37.202858,-6.945066,,,,,,,
1505916298.818862,-0.500006,1.398967,1.842147,-0.318216,-0.112139,-0.080001,-0.081975,-0.985274,-0.150053,-0.036219,-0.133196,0.066389,-12.536413,-37.155220,-7.149972,,,,,,,
1505916298.838830,-0.476648,1.394658,1.821094,-0.278093,0.217339,-0.040290,-0.080396,-0.984528,-0.155698,-0.016208,-0.067459,0.002728,-12.477453,-37.131176,-7.374491,,,,,,,
1505916298.858797,-0.455395,1.389306,1.803586,-0.305126,0.201192,-0.009491,-0.079385,-0.983576,-0.162101,0.017191,0.008005,-0.010994,-12.449166,-37.113911,-7.507988,,,,,,,
1505916298.878762,-0.409304,1.378139,1.759977,-0.382276,0.022821,0.133532,-0.076199,-0.981499,-0.175652,-0.026676,-0.085670,-0.073188,-12.268318,-37.030174,-8.188332,,,,,,,
1505916298.898727,-0.410812,1.367626,1.759809,-0.531685,-0.104525,0.245394,-0.080580,-0.979432,-0.184987,0.037825,-0.022094,-0.002223,-12.410198,-36.911354,-8.504884,,,,,,,
1505916298.918694,-0.397229,1.352896,1.741650,-0.325405,-0.356198,0.271868,-0.083633,-0.976353,-0.199348,0.049239,-0.007793,0.004218,-12.512758,-36.834122,-8.687499,,,,,,,
1505916298.938656,-0.416609,1.347094,1.754818,-0.144778,-0.290799,0.233716,-0.089771,-0.975083,-0.202867,0.043628,0.052155,0.021394,-12.766367,-36.632095,-9.159891,,,,,,,
1505916298.958626,-0.403240,1.342887,1.738219,-0.133062,-0.226913,0.220221,-0.088660,-0.974141,-0.207820,0.058402,0.064152,-0.008321,-12.927289,-36.570057,-9.182064,,,,,,,
1505916298.978571,-0.420388,1.338500,1.748154,-0.165858,-0.443612,0.166240,-0.093953,-0.973140,-0.210168,0.010015,0.053844,0.013513,-12.890316,-36.542900,-9.340782,,,,,,,
1505916298.998558,-0.427842,1.334511,1.749214,-0.176896,-0.177316,0.054257,-0.097127,-0.972214,-0.212992,0.002370,0.117798,0.063944,-13.104869,-36.459248,-9.369094,,,,,,,
1505916299.018507,-0.425534,1.332141,1.745027,-0.099406,-0.091778,-0.015448,-0.097586,-0.971657,-0.215314,0.021262,0.085792,-0.019290,-13.138921,-36.430878,-9.431552,,,,,,,
1505916299.038476,-0.401182,1.316660,1.716840,-0.035847,-0.208475,-0.041483,-0.098177,-0.967881,-0.231447,-0.022428,0.078217,0.140856,-13.160835,-36.256111,-10.053907,,,,,,,
1505916299.058433,-0.399546,1.315483,1.711707,-0.131796,-0.273564,-0.032811,-0.098241,-0.967584,-0.232657,-0.034525,-0.000967,0.011145,-13.168099,-36.256195,-10.044069,,,,,,,
1505916299.078427,-0.419906,1.315663,1.725804,-0.189334,-0.264469,0.041884,-0.102887,-0.967630,-0.230450,-0.035541,-0.056922,0.040799,-13.175882,-36.251747,-10.049934,,,,,,,
1505916299.098391,-0.426035,1.311384,1.726183,-0.197690,-0.349944,0.128067,-0.106007,-0.966541,-0.233583,0.007100,-0.094174,-0.014402,-13.408322,-36.197346,-9.937958,,,,,,,
1505916299.118356,-0.439200,1.309813,1.731543,-0.178003,-0.393372,0.102219,-0.109719,-0.966137,-0.233542,0.016884,0.041622,0.047095,-13.623019,-36.104095,-9.985077,,,,,,,
1505916299.138309,-0.443526,1.306592,1.727775,-0.164698,-0.407686,-0.013453,-0.112063,-0.965301,-0.235874,0.066637,0.052718,0.021382,-13.630957,-36.127728,-9.888299,,,,,,,
1505916299.158289,-0.444012,1.304637,1.722156,-0.070887,-0.126936,0.011291,-0.112988,-0.964788,-0.237524,0.002316,0.036535,0.119482,-13.750315,-36.079475,-9.899222,,,,,,,
1505916299.178256,-0.450879,1.311243,1.729919,0.082986,0.100824,0.026435,-0.111837,-0.966505,-0.231001,0.031041,0.040693,-0.023897,-13.724710,-36.149971,-9.675029,,,,,,,
1505916299.198195,-0.453209,1.312911,1.729818,0.050122,-0.250684,-0.073340,-0.111668,-0.966932,-0.229289,0.054372,0.050367,-0.061269,-13.724613,-36.152164,-9.666962,,,,,,,
1505916299.218189,-0.447738,1.314467,1.720166,-0.038757,-0.133222,0.006080,-0.109761,-0.967327,-0.228541,-0.001064,0.007717,0.074656,-13.640254,-36.220577,-9.529297,,,,,,,
1505916299.238154,-0.451840,1.311881,1.724555,-0.109147,0.040047,0.208047,-0.111789,-0.966668,-0.230338,0.050510,-0.133109,0.021766,-13.659149,-36.215031,-9.523301,,,,,,,
1505916299.258101,-0.474242,1.306625,1.745787,-0.088973,-0.106515,0.409699,-0.119239,-0.965309,-0.232293,-0.012902,-0.092522,-0.019416,-13.728951,-36.172729,-9.583511,,,,,,,
1505916299.278088,-0.506610,1.301594,1.775582,-0.029508,-0.276781,0.469002,-0.129049,-0.963983,-0.232556,-0.049265,-0.065787,-0.047198,-14.185780,-35.981392,-9.638328,,,,,,,
1505916299.298053,-0.535504,1.296764,1.799148,-0.073700,-0.277333,0.341289,-0.138088,-0.962688,-0.232732,-0.066899,-0.039159,0.009435,-14.378669,-35.911362,-9.613647,,,,,,,
1505916299.318007,-0.576180,1.292549,1.836457,-0.210490,-0.106735,0.402566,-0.149648,-0.961538,-0.230325,0.011784,-0.012507,0.057901,-15.006519,-35.716999,-9.375203,,,,,,,
1505916299.337987,-0.593662,1.283020,1.853645,-0.283175,-0.034938,0.477533,-0.158769,-0.958877,-0.235258,0.005251,0.011932,0.041594,-15.236677,-35.596359,-9.462401,,,,,,,
1505916299.357953,-0.607798,1.271317,1.865895,-0.292832,-0.216965,0.521355,-0.168476,-0.955490,-0.242187,0.011524,-0.009598,-0.038987,-15.771951,-35.290340,-9.727872,,,,,,,
1505916299.377901,-0.631210,1.260109,1.884826,-0.289224,-0.251250,0.579002,-0.180408,-0.952124,-0.246806,-0.051190,-0.025476,-0.013234,-16.070940,-35.109707,-9.890779,,,,,,,
1505916299.397886,-0.655906,1.248985,1.907570,-0.200993,-0.110018,0.653207,-0.192895,-0.948664,-0.250655,-0.043921,-0.139516,-0.044862,-16.524378,-34.865181,-10.007907,,,,,,,
1505916299.417851,-0.684139,1.238097,1.936495,-0.090426,0.051834,0.647350,-0.206410,-0.945164,-0.253100,-0.120097,-0.068218,0.009768,-17.122135,-34.539852,-10.130416,,,,,,,
1505916299.437809,-0.708879,1.230189,1.962879,-0.003398,-0.041050,0.541284,-0.217467,-0.942552,-0.253582,-0.059999,0.040635,-0.041965,-17.460653,-34.360100,-10.163830,,,,,,,
1505916299.457784,-0.726736,1.216970,1.977998,-0.003098,-0.373291,0.427910,-0.230219,-0.938054,-0.258948,-0.057012,0.020528,-0.133386,-17.838657,-34.171364,-10.143677,,,,,,,
1505916299.477751,-0.754753,1.213367,2.000697,0.209778,-0.278322,0.445820,-0.239697,-0.936799,-0.254857,-0.036304,-0.092650,-0.086085,-18.380749,-33.875664,-10.167677,,,,,,,
1505916299.497694,-0.789779,1.206973,2.026782,0.039548,-0.695009,0.582587,-0.252724,-0.934543,-0.250519,0.028801,-0.133267,0.079422,-18.686237,-33.761051,-9.990491,,,,,,,
1505916299.517683,-0.815202,1.203352,2.040903,-0.087818,-0.739347,0.461594,-0.261472,-0.933248,-0.246333,0.093412,-0.031153,0.026164,-19.177601,-33.562874,-9.723550,,,,,,,
1505916299.537650,-0.839850,1.193281,2.053157,-0.190838,-0.589020,0.553988,-0.274447,-0.929584,-0.246075,0.094210,-0.050321,0.086087,-19.628017,-33.377163,-9.460457,,,,,,,
1505916299.557600,-0.860747,1.183373,2.064524,-0.159926,-0.535373,0.463464,-0.286500,-0.925885,-0.246280,0.122163,0.098234,0.022815,-19.976292,-33.190010,-9.389627,,,,,,,
1505916299.577583,-0.877171,1.177007,2.068056,-0.132979,-0.721013,0.160492,-0.295032,-0.923462,-0.245304,0.140736,0.289017,-0.000393,-20.364197,-32.987324,-9.269846,,,,,,,
1505916299.597548,-0.887382,1.176717,2.065854,0.021365,-0.488741,-0.105999,-0.297729,-0.923351,-0.242448,0.083908,0.299434,0.046846,-20.592321,-32.919632,-9.002683,,,,,,,
1505916299.617507,-0.919844,1.177048,2.099088,0.364344,0.440385,0.056984,-0.305198,-0.923478,-0.232472,-0.138039,0.152192,0.106587,-20.865833,-32.851974,-8.611546,,,,,,,
1505916299.637480,-0.918141,1.183733,2.108544,0.265269,0.397060,-0.268375,-0.299891,-0.926021,-0.229237,-0.037649,0.170055,0.054448,-20.833614,-32.883373,-8.569623,,,,,,,
1505916299.657447,-0.908246,1.190291,2.101651,0.035147,0.137411,-0.317368,-0.292813,-0.928477,-0.228453,0.096463,0.018824,0.061476,-20.475334,-33.109146,-8.563831,,,,,,,
1505916299.677413,-0.899456,1.195209,2.094679,0.078615,0.044808,-0.275898,-0.287215,-0.930292,-0.228174,0.044829,-0.034506,-0.002050,-20.263708,-33.231403,-8.593616,,,,,,,
1505916299.697380,-0.897347,1.200274,2.092094,0.117793,-0.027971,-0.156154,-0.283046,-0.932138,-0.225838,0.032680,-0.039953,0.018349,-20.169825,-33.295021,-8.568180,,,,,,,
1505916299.717343,-0.898685,1.201762,2.091967,-0.004068,-0.106372,-0.040620,-0.282263,-0.932676,-0.224596,-0.105570,-0.151568,-0.039931,-20.041794,-33.402481,-8.449549,,,,,,,
1505916299.737288,-0.898310,1.201934,2.088240,-0.050533,-0.171216,-0.062708,-0.282053,-0.932738,-0.224601,-0.090368,-0.092027,-0.010537,-20.036430,-33.413742,-8.417690,,,,,,,
1505916299.757278,-0.910525,1.202594,2.097721,0.093085,-0.031664,-0.060990,-0.284289,-0.932976,-0.220762,-0.058759,-0.039543,0.025464,-20.027014,-33.424248,-8.398367,,,,,,,
1505916299.777219,-0.917880,1.204215,2.104826,0.151353,-0.090610,0.064306,-0.284703,-0.933558,-0.217746,0.025228,0.036570,-0.038052,-20.115086,-33.431095,-8.157169,,,,,,,
1505916299.797194,-0.918092,1.202785,2.103114,0.023075,-0.187112,0.183966,-0.285810,-0.933045,-0.218496,0.030484,0.009018,-0.041804,-20.131397,-33.421963,-8.154344,,,,,,,
1505916299.817152,-0.916964,1.195725,2.098698,-0.166024,-0.189398,0.363807,-0.290785,-0.930482,-0.222819,0.014845,-0.038696,-0.064717,-20.217819,-33.379021,-8.116341,,,,,,,
1505916299.837117,-0.924873,1.182960,2.104002,-0.477949,-0.228251,0.805090,-0.301999,-0.925730,-0.227644,-0.099109,-0.262366,-0.080477,-20.607342,-33.083420,-8.343799,,,,,,,
1505916299.857110,-0.932449,1.162575,2.110299,-0.251963,0.286180,0.706730,-0.318805,-0.917828,-0.236547,0.020374,0.093427,0.218923,-21.244783,-32.604321,-8.626218,,,,,,,
1505916299.877075,-0.939214,1.154488,2.116696,-0.112600,-0.258744,0.211630,-0.326378,-0.914588,-0.238759,-0.006553,0.213523,-0.074809,-21.434408,-32.446800,-8.750176,,,,,,,
1505916299.897042,-0.940786,1.153481,2.114760,-0.033884,-0.094694,-0.049298,-0.327497,-0.914180,-0.238788,0.033598,0.063274,0.043720,-21.659962,-32.299721,-8.738897,,,,,,,
1505916299.917006,-0.941071,1.152960,2.112829,-0.052156,-0.136666,0.051011,-0.327950,-0.913969,-0.238975,0.065575,-0.012163,-0.034691,-21.652361,-32.307148,-8.730267,,,,,,,
1505916299.936975,-0.949552,1.150232,2.114633,-0.046046,-0.458170,0.144425,-0.331991,-0.912859,-0.237636,0.038549,-0.043593,-0.094487,-21.732742,-32.266277,-8.681558,,,,,,,
1505916299.956940,-0.967564,1.146187,2.123855,-0.010469,-0.345161,0.091787,-0.339255,-0.911200,-0.233710,-0.083840,-0.037180,0.016654,-21.931244,-32.187759,-8.471286,,,,,,,
1505916299.976882,-0.973122,1.145299,2.125179,-0.002871,-0.153529,0.039439,-0.341218,-0.910833,-0.232277,-0.073210,-0.014429,0.064796,-22.117414,-32.101799,-8.311951,,,,,,,
1505916299.996875,-0.973936,1.143870,2.124655,-0.078384,0.015244,0.064638,-0.342483,-0.910243,-0.232730,-0.070008,0.006343,0.047550,-22.168720,-32.080116,-8.258812,,,,,,,
1505916300.016840,-0.972235,1.142940,2.125629,-0.125650,0.204091,0.128678,-0.342786,-0.909857,-0.233789,0.029111,0.033408,0.038477,-22.219303,-32.015781,-8.371758,,,,,,,
1505916300.036788,-0.966707,1.139257,2.123983,-0.125523,0.204136,0.119040,-0.344244,-0.908323,-0.237582,-0.029429,0.020658,0.027652,-22.240227,-31.974916,-8.471789,,,,,,,
1505916300.056772,-0.959441,1.138254,2.120962,-0.048092,0.220171,-0.092452,-0.343255,-0.907903,-0.240600,0.021019,0.079351,0.011001,-22.252388,-31.932938,-8.597265,,,,,,,
1505916300.076740,-0.944321,1.141525,2.108657,0.009733,0.070004,-0.237601,-0.337170,-0.909269,-0.244020,0.048367,0.029936,-0.035277,-22.040928,-32.018539,-8.820696,,,,,,,
1505916300.096695,-0.940028,1.144546,2.106161,0.134469,0.245067,-0.107283,-0.333899,-0.910523,-0.243844,-0.039605,-0.043030,-0.024253,-21.938353,-32.085793,-8.832025,,,,,,,
1505916300.116673,-0.938028,1.150001,2.115002,0.326412,0.539159,-0.164336,-0.329401,-0.912764,-0.241570,-0.128256,0.039000,-0.062339,-21.853107,-32.140110,-8.845860,,,,,,,
1505916300.136636,-0.932374,1.157425,2.117446,0.257759,0.416573,-0.351835,-0.322579,-0.915772,-0.239384,-0.045585,0.143006,0.076802,-21.553778,-32.337296,-8.861614,,,,,,,
1505916300.156594,-0.919965,1.167599,2.115618,0.283361,0.603252,-0.473718,-0.312155,-0.919811,-0.237711,-0.008524,0.111065,0.046183,-21.305475,-32.495487,-8.883358,,,,,,,
1505916300.176572,-0.901863,1.179956,2.113157,0.417023,0.920783,-0.566321,-0.298861,-0.924589,-0.236255,0.003420,0.067091,0.055606,-20.995499,-32.681644,-8.938304,,,,,,,
1505916300.196530,-0.880755,1.197488,2.113779,0.640102,1.203680,-0.716430,-0.281262,-0.931126,-0.232155,-0.015521,0.082066,0.098092,-20.154335,-33.169735,-9.075551,,,,,,,
1505916300.216475,-0.865093,1.217553,2.117239,0.704400,0.772193,-0.722931,-0.263316,-0.938256,-0.224367,0.036250,-0.046577,0.021777,-19.639149,-33.476311,-9.079353,,,,,,,
1505916300.236470,-0.853010,1.236746,2.118819,0.606121,0.664458,-0.689898,-0.246974,-0.944722,-0.215648,0.004664,-0.035991,0.041316,-19.017857,-33.879356,-8.905301,,,,,,,
1505916300.256434,-0.834455,1.254640,2.112432,0.446936,0.559458,-0.812502,-0.230367,-0.950438,-0.208805,0.020375,-0.053972,-0.015728,-18.270304,-34.336151,-8.718878,,,,,,,
1505916300.276381,-0.807087,1.272243,2.085889,0.245483,-0.278009,-0.965480,-0.212449,-0.955763,-0.203428,0.110703,-0.116213,-0.276202,-17.770596,-34.618587,-8.634437,,,,,,,
1505916300.296370,-0.794177,1.288001,2.050162,0.161761,-1.505775,-0.817022,-0.199036,-0.960279,-0.195572,0.160096,-0.171175,-0.381241,-17.175991,-34.994213,-8.317724,,,,,,,
1505916300.316334,-0.807687,1.295842,2.032001,0.049305,-1.358754,-0.251335,-0.196212,-0.962438,-0.187655,0.006256,-0.141795,0.062335,-16.896442,-35.301567,-7.556694,,,,,,,
1505916300.336301,-0.819364,1.297373,2.028594,0.015577,-0.419069,-0.005972,-0.197313,-0.962852,-0.184345,-0.090528,-0.064934,0.192035,-16.936472,-35.355896,-7.204911,,,,,,,
1505916300.356267,-0.830619,1.296272,2.034648,0.028428,-0.294202,0.124445,-0.200158,-0.962554,-0.182828,-0.038031,-0.025117,0.045529,-16.969397,-35.353626,-7.138252,,,,,,,
1505916300.376234,-0.841976,1.296193,2.039239,0.066849,-0.308260,-0.034985,-0.202279,-0.962533,-0.180593,0.078438,0.026925,0.007223,-17.132423,-35.313053,-6.947107,,,,,,,
1505916300.396199,-0.845816,1.299434,2.036714,0.078898,-0.525540,-0.172236,-0.200634,-0.963407,-0.177746,-0.050388,-0.148196,-0.065067,-17.090763,-35.361412,-6.802259,,,,,,,
1505916300.416167,-0.855169,1.303909,2.030157,0.065887,-0.836714,-0.249159,-0.199032,-0.964597,-0.173031,-0.077793,-0.203433,0.030239,-17.064129,-35.398834,-6.673221,,,,,,,
1505916300.436131,-0.853722,1.306703,2.016243,-0.112266,-0.408922,-0.184457,-0.196749,-0.965330,-0.171547,-0.009824,0.064100,0.160545,-16.957268,-35.525093,-6.262016,,,,,,,
1505916300.456099,-0.843505,1.305584,2.003515,-0.173698,-0.002788,0.014684,-0.195794,-0.965037,-0.174266,0.014519,0.040247,0.042430,-16.905788,-35.548298,-6.269527,,,,,,,
1505916300.476044,-0.845071,1.301632,2.002177,-0.112378,-0.289535,0.201812,-0.198918,-0.963993,-0.176490,0.020069,0.060566,-0.043863,-16.914854,-35.528755,-6.355258,,,,,,,
1505916300.496032,-0.865929,1.296735,2.013213,0.016634,-0.430171,0.320614,-0.206149,-0.962680,-0.175359,0.036700,0.201724,0.120549,-17.210886,-35.399601,-6.280756,,,,,,,
1505916300.515997,-0.898180,1.292255,2.044374,0.275744,0.184994,0.519718,-0.215067,-0.961457,-0.171306,0.028132,0.026231,0.213298,-17.521948,-35.278004,-6.102293,,,,,,,
1505916300.535950,-0.937636,1.287612,2.091097,0.436899,0.266906,0.579008,-0.225253,-0.960171,-0.165328,0.026980,-0.126179,0.109786,-17.698963,-35.200581,-6.038202,,,,,,,
1505916300.555907,-0.975854,1.283790,2.137164,0.342728,0.322338,0.507024,-0.234443,-0.959096,-0.158657,-0.013466,-0.193141,-0.018666,-18.238094,-34.972954,-5.749663,,,,,,,
1505916300.575892,-0.995632,1.277576,2.168107,0.160386,0.599403,0.518315,-0.242531,-0.957318,-0.157228,-0.025245,0.121503,0.114106,-18.538740,-34.816734,-5.736230,,,,,,,
