timestamp(unix),attitude_roll(radians),attitude_pitch(radians),attitude_yaw(radians),rotation_rate_x(radians/s),rotation_rate_y(radians/s),rotation_rate_z(radians/s),gravity_x(G),gravity_y(G),gravity_z(G),user_acc_x(G),user_acc_y(G),user_acc_z(G),magnetic_field_x(microteslas),magnetic_field_y(microteslas),magnetic_field_z(microteslas),latitude(degree),longitude(degree),altitude(meter),speed(m/s),course(degree),timestamp(unix),User Mark
1505840934.359039,0.020706,0.002080,2.597153,0.001095,-0.001289,-0.000514,0.020704,-0.002080,-0.999783,-0.000929,-0.004497,-0.004184,-8.498389,4.367660,-41.751499,,,,,,,
1505840934.379023,0.020714,0.002087,2.597142,0.000031,-0.002354,-0.000527,0.020713,-0.002087,-0.999783,0.001382,-0.000324,-0.005664,-8.498133,4.364714,-41.751862,,,,,,,
,,,,,,,,,,,,,,,,42.293409,-71.264211,59.843155,-1.000000,-1.000000,1505840921.978444,
1505840934.398992,0.020700,0.001970,2.597137,0.000021,0.000835,-0.000507,0.020698,-0.001970,-0.999784,0.000649,0.004656,-0.002902,-8.499136,4.364435,-41.751686,,,,,,,
,,,,,,,,,,,,,,,,42.293409,-71.264211,59.843155,-1.000000,-1.000000,1505840912.978444,
1505840934.418945,0.020687,0.001902,2.597137,0.001073,0.000832,0.000570,0.020686,-0.001902,-0.999784,-0.000193,-0.000127,-0.002444,-8.499103,4.371995,-41.750900,,,,,,,
,,,,,,,,,,,,,,,,42.293409,-71.264211,59.843155,-1.000000,-1.000000,1505840921.978444,
1505840934.438931,0.020717,0.001939,2.597116,0.001091,-0.000226,-0.000507,0.020716,-0.001939,-0.999784,0.001776,-0.001784,-0.004352,-8.498976,4.371991,-41.750923,,,,,,,
1505840934.458902,0.020732,0.001999,2.597109,0.001089,-0.000307,-0.000594,0.020730,-0.001999,-0.999783,0.000724,-0.000228,-0.006412,-8.497679,4.367969,-41.751610,,,,,,,
1505840934.478850,0.020732,0.001945,2.597098,-0.001049,0.000752,-0.000600,0.020730,-0.001945,-0.999783,-0.000528,0.002098,-0.004154,-8.496767,4.367399,-41.751854,,,,,,,
1505840934.498842,0.020689,0.001922,2.597074,0.001095,-0.002433,-0.000606,0.020688,-0.001922,-0.999784,0.001041,0.001586,-0.003619,-8.497544,4.369565,-41.751472,,,,,,,
1505840934.518811,0.020677,0.001931,2.597052,-0.001046,-0.000311,-0.000606,0.020676,-0.001931,-0.999784,0.000290,-0.000449,-0.003389,-8.499845,4.370028,-41.750957,,,,,,,
1505840934.538757,0.020650,0.001992,2.597045,-0.001042,-0.001374,-0.000613,0.020648,-0.001992,-0.999785,-0.000293,-0.000617,-0.002931,-8.499709,4.369796,-41.751007,,,,,,,
,,,,,,,,,,,,,,,,42.293431,-71.264317,59.843155,-1.000000,-1.000000,1505840934.489190,
1505840934.558732,0.020618,0.002002,2.597022,-0.001045,-0.000311,-0.000606,0.020617,-0.002002,-0.999785,-0.000262,0.000583,-0.005494,-8.500961,4.367390,-41.751007,,,,,,,
1505840934.578711,0.020635,0.001946,2.597016,0.000010,-0.001377,0.000464,0.020634,-0.001946,-0.999785,0.001049,0.001641,-0.003526,-8.502244,4.367309,-41.750748,,,,,,,
,,,,,,,,,,,,,,,,42.293391,-71.264378,59.843155,-1.000000,-1.000000,1505840934.545218,
1505840934.598673,0.020659,0.001874,2.596992,0.000030,0.000704,-0.001717,0.020657,-0.001874,-0.999785,0.000537,0.000806,-0.004594,-8.501624,4.368851,-41.750717,,,,,,,
,,,,,,,,,,,,,,,,42.293352,-71.264437,59.843155,-1.000000,-1.000000,1505840934.573197,
,,,,,,,,,,,,,,,,42.293314,-71.264495,59.843155,-1.000000,-1.000000,1505840934.579611,
1505840934.618637,0.020677,0.001975,2.596990,0.001076,-0.001431,0.000419,0.020675,-0.001975,-0.999784,0.000992,-0.001854,-0.003176,-8.500469,4.368986,-41.750935,,,,,,,
1505840934.638629,0.020682,0.001988,2.596977,-0.001058,-0.001435,0.000406,0.020680,-0.001988,-0.999784,0.000789,-0.002041,-0.002840,-8.500216,4.368318,-41.751057,,,,,,,
1505840934.658600,0.020668,0.001959,2.596959,-0.002100,-0.000364,-0.001736,0.020666,-0.001959,-0.999785,-0.000311,0.000387,-0.003084,-8.499854,4.366745,-41.751297,,,,,,,
1505840934.678568,0.020657,0.002036,2.596934,0.002157,-0.001424,-0.000646,0.020655,-0.002036,-0.999785,0.000005,-0.002130,-0.003588,-8.500148,4.366731,-41.751236,,,,,,,
1505840934.698540,0.020669,0.002022,2.596927,0.000020,-0.000365,-0.000652,0.020668,-0.002022,-0.999784,0.001457,-0.000831,-0.005495,-8.500993,4.365180,-41.751228,,,,,,,
1505840934.718509,0.020688,0.002058,2.596897,0.001115,-0.000352,-0.002787,0.020686,-0.002058,-0.999784,-0.000438,-0.000841,-0.004046,-8.499378,4.364112,-41.751671,,,,,,,
1505840934.738477,0.020655,0.002041,2.596890,0.001079,-0.002494,0.000413,0.020654,-0.002041,-0.999785,-0.000100,0.001400,-0.004137,-8.500348,4.362556,-41.751633,,,,,,,
1505840934.758449,0.020661,0.002040,2.596865,-0.001041,-0.001479,-0.000708,0.020660,-0.002040,-0.999784,0.000519,-0.000554,-0.004671,-8.501216,4.363670,-41.751343,,,,,,,
1505840934.778417,0.020691,0.002059,2.596862,-0.001044,-0.000416,-0.000702,0.020689,-0.002059,-0.999784,0.000215,-0.000718,-0.003680,-8.499995,4.363098,-41.751648,,,,,,,
1505840934.798388,0.020699,0.002057,2.596848,-0.002114,0.000645,-0.000702,0.020698,-0.002057,-0.999784,0.000390,-0.001025,-0.003833,-8.500409,4.362864,-41.751587,,,,,,,
1505840934.818358,0.020708,0.002043,2.596834,0.000026,-0.001477,-0.000702,0.020706,-0.002043,-0.999784,0.000625,-0.000139,-0.003421,-8.498850,4.363313,-41.751862,,,,,,,
1505840934.838327,0.020679,0.002004,2.596820,-0.001038,-0.002542,-0.000715,0.020678,-0.002004,-0.999784,0.000563,0.001119,-0.004580,-8.500473,4.363516,-41.751507,,,,,,,
1505840934.858297,0.020680,0.002015,2.596806,0.000025,-0.001477,-0.000702,0.020678,-0.002015,-0.999784,0.001096,-0.000854,-0.004137,-8.500880,4.364491,-41.751324,,,,,,,
,,,,,,,,,,,,,,,,42.293765,-71.264143,60.414902,-1.000000,-1.000000,1505840934.857280,
1505840934.878267,0.020677,0.002005,2.596771,0.000030,0.001718,-0.001754,0.020675,-0.002005,-0.999784,0.000214,0.000906,-0.004214,-8.501144,4.363401,-41.751385,,,,,,,
1505840934.898237,0.020683,0.001989,2.596757,0.001112,-0.002569,-0.001807,0.020681,-0.001989,-0.999784,0.000559,0.000447,-0.002993,-8.500589,4.364599,-41.751369,,,,,,,
1505840934.918206,0.020661,0.001994,2.596747,-0.002106,-0.001518,-0.000749,0.020659,-0.001994,-0.999785,0.000459,-0.000265,-0.001970,-8.501420,4.364174,-41.751244,,,,,,,
1505840934.938177,0.020667,0.002021,2.596738,-0.001060,0.000606,0.000341,0.020665,-0.002021,-0.999784,-0.000341,0.000114,-0.005404,-8.501318,4.362621,-41.751431,,,,,,,
1505840934.958146,0.020687,0.002009,2.596719,-0.001039,-0.001516,-0.000743,0.020686,-0.002009,-0.999784,0.000066,0.000880,-0.003603,-8.500415,4.362556,-41.751621,,,,,,,
1505840934.978115,0.020664,0.002067,2.596715,0.001084,-0.002580,0.000335,0.020663,-0.002067,-0.999784,-0.000064,-0.002725,-0.004229,-8.500515,4.363417,-41.751507,,,,,,,
1505840934.998059,0.020610,0.002051,2.596705,0.000028,-0.001514,-0.000736,0.020608,-0.002051,-0.999786,0.000113,0.001609,-0.003632,-8.502628,4.360185,-41.751415,,,,,,,
1505840935.018035,0.020632,0.002064,2.596691,-0.001045,0.000610,-0.000730,0.020630,-0.002064,-0.999785,-0.000153,-0.000911,-0.004976,-8.503116,4.361389,-41.751194,,,,,,,
1505840935.038011,0.020604,0.002057,2.596666,0.000042,-0.001509,-0.001807,0.020602,-0.002057,-0.999786,0.000745,-0.000201,-0.002000,-8.503531,4.361068,-41.751141,,,,,,,
1505840935.057996,0.020577,0.002124,2.596645,0.001101,-0.002604,-0.000766,0.020576,-0.002124,-0.999786,0.000588,0.000171,-0.002289,-8.505714,4.360062,-41.750801,,,,,,,
1505840935.077941,0.020555,0.002125,2.596619,-0.001033,-0.002609,-0.000779,0.020553,-0.002125,-0.999786,0.001053,-0.000072,-0.002807,-8.506827,4.357413,-41.750854,,,,,,,
1505840935.097917,0.020518,0.002092,2.596614,-0.002116,-0.006874,0.001331,0.020516,-0.002092,-0.999787,0.002280,0.011217,0.000382,-8.506994,4.358328,-41.750725,,,,,,,
1505840935.117902,0.020218,0.001611,2.596579,-0.001084,0.013336,-0.000683,0.020217,-0.001611,-0.999794,0.013749,-0.010307,0.012001,-8.511950,4.379641,-41.747482,,,,,,,
1505840935.137872,0.019977,0.001914,2.596563,0.003266,-0.008977,-0.001862,0.019975,-0.001914,-0.999799,-0.003389,-0.014047,-0.035205,-8.522512,4.378537,-41.745445,,,,,,,
1505840935.157823,0.019477,0.002340,2.596508,-0.001054,-0.004752,0.001350,0.019476,-0.002340,-0.999808,0.024698,-0.020320,-0.002451,-8.553956,4.347348,-41.742268,,,,,,,
1505840935.177808,0.018938,0.002487,2.596483,-0.002150,0.014390,-0.000683,0.018937,-0.002487,-0.999818,0.016494,-0.002182,-0.026565,-8.555385,4.341603,-41.742577,,,,,,,
1505840935.197783,0.018845,0.002622,2.596499,0.000056,-0.018573,0.001274,0.018843,-0.002622,-0.999819,0.004853,-0.006503,0.005221,-8.575670,4.341347,-41.738441,,,,,,,
1505840935.217729,0.018477,0.002887,2.596521,0.001101,-0.011130,0.001325,0.018476,-0.002887,-0.999825,0.004061,-0.020199,-0.016242,-8.580929,4.335916,-41.737926,,,,,,,
1505840935.237712,0.018314,0.003953,2.596536,0.001087,-0.003712,0.001343,0.018313,-0.003953,-0.999824,-0.000598,-0.024475,-0.001640,-8.598179,4.303570,-41.737724,,,,,,,
1505840935.257692,0.018424,0.004484,2.596520,-0.001026,-0.000517,-0.000792,0.018423,-0.004484,-0.999820,0.003367,-0.025026,-0.003308,-8.599185,4.281520,-41.739780,,,,,,,
1505840935.277617,0.018466,0.005080,2.596537,-0.002101,-0.001587,0.000266,0.018464,-0.005079,-0.999817,0.002120,-0.033540,-0.004074,-8.596246,4.259123,-41.742680,,,,,,,
1505840935.297603,0.018424,0.006021,2.596569,0.000026,-0.006908,0.002388,0.018423,-0.006021,-0.999812,0.001719,-0.069311,-0.002706,-8.594193,4.195118,-41.749584,,,,,,,
1505840935.317584,0.018243,0.005997,2.596648,-0.001066,-0.007984,0.004517,0.018242,-0.005996,-0.999816,-0.000374,-0.082077,-0.010087,-8.601220,4.196585,-41.747986,,,,,,,
1505840935.337554,0.018064,0.008088,2.596724,-0.002074,-0.010097,0.001285,0.018063,-0.008088,-0.999804,-0.001370,-0.091766,-0.001630,-8.604116,4.198133,-41.747234,,,,,,,
1505840935.357509,0.018048,0.008073,2.596799,0.001076,-0.002659,0.003491,0.018046,-0.008073,-0.999805,0.000722,-0.107283,-0.009396,-8.609642,4.112108,-41.754658,,,,,,,
1505840935.377494,0.018015,0.008054,2.596906,-0.000015,-0.003754,0.005598,0.018013,-0.008054,-0.999805,0.000374,-0.100864,0.013309,-8.609899,4.112752,-41.754539,,,,,,,
1505840935.397460,0.017948,0.010797,2.597040,-0.001100,-0.002703,0.007740,0.017946,-0.010797,-0.999781,0.001341,-0.111380,0.007059,-8.610831,4.113835,-41.754242,,,,,,,
1505840935.417415,0.017893,0.010778,2.597195,-0.001122,-0.004840,0.009869,0.017891,-0.010778,-0.999782,0.001473,-0.119654,-0.018010,-8.613824,4.002585,-41.764435,,,,,,,
1505840935.437402,0.017836,0.010866,2.597445,0.004143,-0.000597,0.014210,0.017834,-0.010865,-0.999782,-0.001461,-0.119292,0.006069,-8.615509,4.002982,-41.764050,,,,,,,
1505840935.457366,0.017594,0.013988,2.597698,0.000985,-0.000594,0.012049,0.017591,-0.013988,-0.999747,-0.009382,-0.113438,-0.013711,-8.624907,3.873907,-41.774281,,,,,,,
1505840935.477316,0.018005,0.016709,2.597858,-0.002174,0.008989,0.007804,0.018001,-0.016708,-0.999698,0.005467,-0.101074,-0.005184,-8.615023,3.876133,-41.776112,,,,,,,
1505840935.497312,0.018365,0.021482,2.598064,0.003207,-0.027175,0.014044,0.018360,-0.021480,-0.999601,0.007061,-0.085530,-0.018069,-8.592289,3.658567,-41.800411,,,,,,,
1505840935.517265,0.017553,0.023706,2.598492,0.006248,-0.003817,0.021700,0.017547,-0.023704,-0.999565,-0.015808,-0.077889,0.015480,-8.596106,3.565241,-41.807686,,,,,,,
1505840935.537251,0.017088,0.027789,2.598879,-0.001225,0.017426,0.018551,0.017081,-0.027785,-0.999468,0.004984,-0.075517,-0.020704,-8.648893,3.389552,-41.811413,,,,,,,
1505840935.557220,0.017640,0.031005,2.599354,0.003116,-0.030433,0.024713,0.017630,-0.031000,-0.999364,0.009683,-0.056127,-0.029292,-8.617901,3.237811,-41.829834,,,,,,,
1505840935.577178,0.016962,0.032521,2.599699,0.007446,-0.011249,0.016287,0.016953,-0.032516,-0.999327,-0.007263,-0.058579,0.011168,-8.619225,3.182658,-41.833794,,,,,,,
1505840935.597161,0.016404,0.034443,2.600100,0.008413,-0.003837,0.022765,0.016393,-0.034436,-0.999272,-0.003072,-0.063876,-0.038752,-8.662012,3.045596,-41.835159,,,,,,,
1505840935.617130,0.016522,0.034448,2.600721,0.008227,0.020575,0.031478,0.016512,-0.034441,-0.999270,-0.019380,-0.047255,0.024402,-8.663194,3.049259,-41.834652,,,,,,,
1505840935.637100,0.017248,0.034568,2.601141,-0.004516,0.052499,0.019814,0.017237,-0.034561,-0.999254,-0.016917,-0.052552,-0.040922,-8.643399,3.047859,-41.838848,,,,,,,
1505840935.657050,0.016989,0.035607,2.601651,-0.014934,-0.076212,0.029685,0.016977,-0.035599,-0.999222,0.052588,-0.052307,0.004700,-8.605768,3.001239,-41.849968,,,,,,,
1505840935.677039,0.016368,0.035662,2.602155,0.004223,-0.022976,0.021553,0.016357,-0.035654,-0.999230,-0.040954,-0.030661,-0.000129,-8.645305,3.013451,-41.840942,,,,,,,
1505840935.697009,0.015816,0.036524,2.602724,0.000723,0.035440,0.031525,0.015804,-0.036515,-0.999208,-0.031826,-0.030120,-0.018202,-8.689995,2.980470,-41.834049,,,,,,,
1505840935.716979,0.016254,0.036629,2.603271,0.003121,-0.011303,0.021600,0.016243,-0.036620,-0.999197,0.016854,-0.029115,-0.020700,-8.652315,2.983020,-41.841675,,,,,,,
1505840935.736948,0.016552,0.037578,2.603556,-0.010556,-0.031483,0.011757,0.016540,-0.037570,-0.999157,-0.015777,-0.025297,0.020016,-8.634133,2.943642,-41.848221,,,,,,,
1505840935.756917,0.016734,0.037721,2.603903,0.016911,0.025947,0.019765,0.016721,-0.037712,-0.999149,-0.039167,-0.017662,0.017734,-8.644466,2.948508,-41.845745,,,,,,,
1505840935.776888,0.018535,0.038207,2.604358,0.001834,0.012035,0.033512,0.018521,-0.038198,-0.999099,0.032749,-0.015208,-0.053468,-8.595528,2.942593,-41.856239,,,,,,,
1505840935.796853,0.019168,0.038649,2.605088,0.040006,0.071626,0.038383,0.019152,-0.038640,-0.999070,-0.053652,-0.024852,0.096024,-8.553880,2.927627,-41.865818,,,,,,,
1505840935.816828,0.019606,0.038506,2.605590,-0.039481,-0.033708,0.021208,0.019591,-0.038496,-0.999067,0.042009,0.023725,-0.095019,-8.489924,2.910051,-41.880062,,,,,,,
1505840935.836797,0.019563,0.038518,2.606086,0.011729,-0.019770,0.018385,0.019547,-0.038508,-0.999067,-0.014893,-0.009969,-0.013796,-8.499141,2.932445,-41.876629,,,,,,,
1505840935.856753,0.018949,0.038527,2.606504,0.014711,0.005699,0.029267,0.018934,-0.038517,-0.999079,-0.005643,0.001133,0.013803,-8.528151,2.936557,-41.870445,,,,,,,
1505840935.876737,0.019696,0.038675,2.607025,0.004974,0.069488,0.025310,0.019680,-0.038665,-0.999058,-0.000759,0.000396,-0.106380,-8.520569,2.932750,-41.872253,,,,,,,
1505840935.896706,0.020041,0.038558,2.607478,-0.007584,-0.007079,0.023702,0.020025,-0.038548,-0.999056,0.026789,-0.007335,0.117907,-8.475522,2.939457,-41.880924,,,,,,,
1505840935.916669,0.019833,0.038446,2.607875,-0.006282,-0.066589,0.019066,0.019817,-0.038436,-0.999065,0.027912,0.014328,-0.170369,-8.460525,2.945612,-41.883526,,,,,,,
1505840935.936646,0.019455,0.038123,2.608368,-0.020480,0.019472,0.024855,0.019440,-0.038114,-0.999084,-0.041809,0.021223,0.016372,-8.502063,2.957479,-41.874279,,,,,,,
1505840935.956615,0.019668,0.038033,2.608825,-0.019281,-0.029435,0.025639,0.019653,-0.038024,-0.999084,0.062028,0.000777,-0.025880,-8.490299,2.971252,-41.875687,,,,,,,
1505840935.976570,0.019308,0.036580,2.609469,0.026400,0.000391,0.033588,0.019294,-0.036572,-0.999145,-0.028983,0.035611,-0.020325,-8.492885,3.045681,-41.869816,,,,,,,
1505840935.996555,0.018931,0.036690,2.610091,-0.000222,0.012063,0.027073,0.018918,-0.036682,-0.999148,-0.012936,0.033645,-0.058423,-8.506742,3.040251,-41.867397,,,,,,,
1505840936.016525,0.019281,0.035488,2.610736,-0.008802,-0.002866,0.033356,0.019268,-0.035480,-0.999185,-0.021801,0.030414,0.084603,-8.493677,3.097114,-41.865883,,,,,,,
1505840936.036481,0.019426,0.035596,2.611489,0.011374,0.000334,0.039922,0.019412,-0.035589,-0.999178,0.007260,0.034429,-0.069929,-8.488741,3.103972,-41.866375,,,,,,,
1505840936.056457,0.020650,0.033767,2.612326,-0.009058,0.051327,0.040107,0.020636,-0.033761,-0.999217,0.019128,0.051217,-0.018422,-8.481429,3.106532,-41.867664,,,,,,,
1505840936.076427,0.019944,0.033931,2.613004,-0.004312,-0.065564,0.029791,0.019931,-0.033925,-0.999226,0.030408,0.024526,0.027058,-8.442477,3.184160,-41.869713,,,,,,,
1505840936.096385,0.019707,0.033636,2.613615,-0.001464,0.014137,0.038857,0.019694,-0.033629,-0.999240,-0.042979,0.045012,0.050296,-8.466405,3.202383,-41.863487,,,,,,,
1505840936.116363,0.019256,0.031954,2.614299,-0.004608,0.068425,0.022031,0.019245,-0.031949,-0.999304,-0.035907,0.035687,0.073706,-8.461452,3.209705,-41.863926,,,,,,,
1505840936.136317,0.019089,0.031795,2.614620,-0.007610,0.016340,0.018486,0.019078,-0.031789,-0.999313,-0.018483,0.055074,0.081237,-8.487895,3.288024,-41.852493,,,,,,,
1505840936.156284,0.018928,0.028604,2.615337,-0.002491,-0.015652,0.040814,0.018920,-0.028600,-0.999412,-0.006133,0.085454,-0.056527,-8.471936,3.297558,-41.854977,,,,,,,
1505840936.176257,0.019900,0.028490,2.615921,-0.033414,0.068370,0.020788,0.019891,-0.028486,-0.999396,-0.037118,0.049925,0.058097,-8.481093,3.427184,-41.842709,,,,,,,
1505840936.196251,0.020019,0.028469,2.616317,0.015017,-0.048453,0.015018,0.020010,-0.028465,-0.999394,0.064646,0.064536,-0.131785,-8.427746,3.447269,-41.851837,,,,,,,
1505840936.216222,0.020033,0.028432,2.616825,0.002797,0.051392,0.029470,0.020024,-0.028428,-0.999395,-0.067494,0.075761,0.085012,-8.445909,3.450341,-41.847923,,,,,,,
1505840936.236191,0.021030,0.026037,2.617002,0.010816,-0.018630,0.002320,0.021022,-0.026034,-0.999440,0.019246,0.070117,-0.018596,-8.445909,3.450341,-41.847923,,,,,,,
1505840936.256160,0.020204,0.025953,2.617265,-0.024646,-0.013471,0.020346,0.020196,-0.025951,-0.999459,-0.029260,0.076320,-0.017432,-8.423197,3.552339,-41.843967,,,,,,,
1505840936.276131,0.020520,0.022575,2.617713,-0.005461,0.001466,0.017337,0.020513,-0.022573,-0.999535,0.000468,0.084539,-0.024361,-8.413552,3.568038,-41.844570,,,,,,,
1505840936.296100,0.020627,0.022579,2.618055,-0.003411,0.005698,0.022730,0.020620,-0.022577,-0.999532,0.011851,0.075785,0.052068,-8.411498,3.705471,-41.833038,,,,,,,
1505840936.316071,0.020963,0.022263,2.618313,-0.007559,0.013182,0.012041,0.020957,-0.022261,-0.999533,0.031228,0.098845,-0.039271,-8.406354,3.710359,-41.833641,,,,,,,
1505840936.336040,0.021284,0.018647,2.618816,-0.011873,-0.043238,0.026667,0.021278,-0.018646,-0.999600,0.012032,0.092437,-0.017719,-8.357371,3.872502,-41.828758,,,,,,,
1505840936.356009,0.021506,0.018481,2.619252,-0.003529,0.010989,0.029186,0.021501,-0.018480,-0.999598,-0.038728,0.118318,-0.060094,-8.381870,3.881314,-41.823040,,,,,,,
1505840936.375966,0.022056,0.014320,2.619746,-0.017187,-0.004917,0.015085,0.022052,-0.014320,-0.999654,0.018689,0.108665,-0.061854,-8.364731,3.890006,-41.825661,,,,,,,
1505840936.395950,0.021858,0.014421,2.620122,0.008323,-0.015543,0.024812,0.021854,-0.014421,-0.999657,0.000455,0.101014,0.068078,-8.340126,4.068140,-41.813625,,,,,,,
1505840936.415918,0.022013,0.014181,2.620554,-0.008780,0.037625,0.015392,0.022009,-0.014180,-0.999657,-0.018683,0.114400,0.015740,-8.348353,4.067807,-41.812019,,,,,,,
1505840936.435889,0.022651,0.008969,2.620826,-0.007646,0.006798,0.015212,0.022648,-0.008969,-0.999703,0.028957,0.130200,0.038903,-8.309911,4.296177,-41.796829,,,,,,,
1505840936.455858,0.021595,0.008934,2.621199,-0.003270,-0.052754,0.020234,0.021592,-0.008934,-0.999727,0.009185,0.150200,-0.018492,-8.327847,4.301709,-41.792690,,,,,,,
1505840936.475827,0.020429,0.002633,2.621655,0.003926,0.022733,0.021802,0.020428,-0.002633,-0.999788,-0.020855,0.157448,0.014024,-8.359556,4.305396,-41.785980,,,,,,,
1505840936.495798,0.021180,0.002548,2.622008,-0.008878,0.051442,0.015472,0.021178,-0.002548,-0.999772,-0.009520,0.158951,0.009950,-8.390075,4.570257,-41.751724,,,,,,,
1505840936.515759,0.022380,-0.003617,2.622236,-0.004458,0.018527,0.008874,0.022378,0.003617,-0.999743,0.013098,0.160186,0.002154,-8.318240,4.833375,-41.736462,,,,,,,
1505840936.535736,0.022327,-0.003637,2.622391,0.003118,-0.008026,0.006617,0.022325,0.003637,-0.999744,0.001616,0.173075,0.007969,-8.313110,4.837016,-41.737061,,,,,,,
1505840936.555707,0.022405,-0.010548,2.622519,-0.001210,-0.009107,0.008725,0.022401,0.010548,-0.999693,0.005339,0.177502,0.001357,-8.317012,4.837622,-41.736214,,,,,,,
1505840936.575665,0.022309,-0.010536,2.622689,-0.001194,-0.004845,0.006609,0.022306,0.010536,-0.999696,0.002123,0.182716,-0.007918,-8.314939,5.125638,-41.702232,,,,,,,
1505840936.595644,0.022234,-0.017631,2.622805,-0.000144,-0.006964,0.005530,0.022229,0.017630,-0.999597,0.002551,0.185022,-0.005316,-8.318810,5.126266,-41.701385,,,,,,,
1505840936.615596,0.022086,-0.017653,2.622863,-0.001164,-0.003757,0.001260,0.022080,0.017652,-0.999600,0.001159,0.180682,-0.008548,-8.324379,5.422725,-41.662762,,,,,,,
1505840936.635586,0.022127,-0.017655,2.622835,-0.000069,0.005834,-0.002960,0.022122,0.017654,-0.999599,0.000492,0.163254,-0.000553,-8.324656,5.422966,-41.662674,,,,,,,
1505840936.655548,0.022287,-0.023158,2.622733,-0.000035,0.010077,-0.007259,0.022279,0.023156,-0.999484,0.000090,0.126716,-0.007993,-8.321185,5.650522,-41.633118,,,,,,,
1505840936.675502,0.022548,-0.023194,2.622547,-0.001086,0.014337,-0.009382,0.022540,0.023192,-0.999477,-0.000369,0.095719,-0.003071,-8.310752,5.649973,-41.635273,,,,,,,
1505840936.695493,0.022877,-0.023232,2.622307,-0.001036,0.016483,-0.013652,0.022868,0.023230,-0.999469,-0.002910,0.087061,-0.007383,-8.298518,5.649486,-41.637783,,,,,,,
1505840936.715454,0.023127,-0.026422,2.622055,-0.002118,0.006902,-0.011575,0.023117,0.026419,-0.999384,0.003906,0.079813,0.001901,-8.291256,5.779322,-41.621407,,,,,,,
1505840936.735408,0.023083,-0.026432,2.621812,0.001155,-0.012223,-0.012742,0.023073,0.026429,-0.999384,-0.007113,0.070251,0.011332,-8.286695,5.777922,-41.622505,,,,,,,
1505840936.755404,0.023117,-0.026438,2.621468,0.001205,0.003760,-0.020142,0.023107,0.026435,-0.999383,-0.010503,0.064828,-0.008490,-8.290002,5.775303,-41.622211,,,,,,,
1505840936.775360,0.023188,-0.026460,2.621093,-0.003055,-0.007954,-0.018096,0.023177,0.026457,-0.999381,0.007386,0.065492,-0.007394,-8.286246,5.772601,-41.623333,,,,,,,
1505840936.795344,0.022760,-0.026481,2.620763,0.002326,-0.037726,-0.015031,0.022750,0.026478,-0.999390,-0.001494,0.075665,-0.008102,-8.299706,5.770564,-41.620937,,,,,,,
1505840936.815313,0.022316,-0.026347,2.620403,0.006562,-0.013250,-0.018071,0.022306,0.026344,-0.999404,-0.011000,0.073067,-0.005341,-8.324839,5.762692,-41.617004,,,,,,,
1505840936.835268,0.022614,-0.026284,2.619990,0.002204,0.035666,-0.022086,0.022604,0.026281,-0.999399,-0.025717,0.074137,0.000513,-8.330531,5.759083,-41.616367,,,,,,,
1505840936.855243,0.024262,-0.034473,2.619586,0.003311,0.018672,-0.024323,0.024245,0.034466,-0.999112,0.020112,0.061923,0.015362,-8.292063,5.981894,-41.592613,,,,,,,
1505840936.875221,0.024991,-0.037923,2.619028,0.007798,-0.022737,-0.033113,0.024970,0.037914,-0.998969,-0.000907,0.044376,-0.032037,-8.215695,6.162456,-41.581406,,,,,,,
1505840936.895190,0.024724,-0.039213,2.618360,-0.001853,-0.022771,-0.029958,0.024702,0.039203,-0.998926,-0.000151,0.035764,0.012888,-8.228938,6.223919,-41.569630,,,,,,,
1505840936.915138,0.023116,-0.043612,2.617772,0.003334,0.000600,-0.025507,0.023092,0.043599,-0.998782,-0.021367,0.039348,-0.026639,-8.276034,6.398841,-41.533707,,,,,,,
1505840936.935114,0.023528,-0.045412,2.617360,0.004361,-0.013242,-0.020229,0.023502,0.045396,-0.998693,0.000012,0.033110,0.033071,-8.291967,6.473582,-41.518944,,,,,,,
1505840936.955088,0.023409,-0.045367,2.616928,0.006615,-0.034480,-0.024627,0.023382,0.045351,-0.998697,0.000131,0.033155,0.033075,-8.291967,6.473582,-41.518944,,,,,,,
1505840936.975050,0.022808,-0.047323,2.616334,0.007639,0.009144,-0.031856,0.022780,0.047305,-0.998621,-0.017196,0.034421,-0.009848,-8.314772,6.558537,-41.501045,,,,,,,
1505840936.995041,0.023347,-0.047336,2.615677,0.002192,0.032507,-0.028534,0.023318,0.047318,-0.998608,0.014127,0.051696,-0.013752,-8.323321,6.587508,-41.494743,,,,,,,
1505840937.015002,0.022850,-0.047078,2.615117,0.002463,-0.048281,-0.031162,0.022823,0.047061,-0.998631,0.044987,0.028318,-0.067394,-8.313720,6.575252,-41.498611,,,,,,,
1505840937.034968,0.022704,-0.048123,2.614627,0.015084,-0.003618,-0.027604,0.022676,0.048104,-0.998585,-0.000535,0.028876,-0.004375,-8.340103,6.611929,-41.487492,,,,,,,
1505840937.054950,0.022774,-0.047940,2.614178,0.014903,0.018667,-0.018903,0.022746,0.047922,-0.998592,0.002614,0.036169,0.046093,-8.345326,6.602261,-41.487976,,,,,,,
1505840937.074918,0.021990,-0.048231,2.613680,-0.015907,0.008006,-0.026649,0.021962,0.048212,-0.998596,-0.019750,0.010748,0.002456,-8.376753,6.602855,-41.481552,,,,,,,
1505840937.094874,0.022578,-0.048461,2.613096,0.000167,-0.001515,-0.029824,0.022550,0.048442,-0.998571,0.040835,0.017674,0.062216,-8.352775,6.608703,-41.485458,,,,,,,
1505840937.114858,0.021654,-0.048578,2.612513,0.007756,-0.041900,-0.030022,0.021627,0.048559,-0.998586,-0.001089,0.005824,-0.036906,-8.354073,6.607425,-41.485397,,,,,,,
1505840937.134828,0.021476,-0.048586,2.611991,0.007510,0.016547,-0.024316,0.021449,0.048567,-0.998590,-0.008266,0.014085,-0.040137,-8.409001,6.604846,-41.474709,,,,,,,
1505840937.154798,0.021424,-0.048087,2.611390,0.002586,-0.072713,-0.035592,0.021398,0.048068,-0.998615,0.018092,-0.004978,-0.006817,-8.404862,6.602338,-41.475948,,,,,,,
1505840937.174767,0.021140,-0.047926,2.610736,0.026877,-0.004639,-0.031824,0.021114,0.047907,-0.998629,0.006581,-0.011637,-0.023497,-8.409717,6.576139,-41.479126,,,,,,,
1505840937.194730,0.020667,-0.047675,2.609934,0.013992,0.046389,-0.036948,0.020642,0.047657,-0.998650,-0.009961,-0.004109,-0.004233,-8.443733,6.559452,-41.474857,,,,,,,
1505840937.214707,0.020225,-0.047427,2.609412,0.025848,-0.054651,-0.023564,0.020201,0.047409,-0.998671,0.029207,-0.002762,0.008589,-8.456308,6.536859,-41.475864,,,,,,,
1505840937.234677,0.017702,-0.046865,2.608608,0.014151,-0.024870,-0.033096,0.017682,0.046847,-0.998746,-0.044964,-0.006351,-0.039356,-8.468390,6.530513,-41.474396,,,,,,,
1505840937.254646,0.018244,-0.046975,2.607899,-0.024490,0.048404,-0.031814,0.018223,0.046958,-0.998731,-0.019535,0.009576,0.074155,-8.571871,6.491514,-41.459255,,,,,,,
1505840937.274616,0.018827,-0.046111,2.607285,-0.002731,-0.071663,-0.036691,0.018806,0.046095,-0.998760,0.022988,-0.020308,-0.109532,-8.548091,6.490691,-41.464294,,,,,,,
1505840937.294558,0.018621,-0.046210,2.606454,0.010947,0.005988,-0.039354,0.018600,0.046194,-0.998759,-0.014298,0.002268,0.036021,-8.547308,6.457748,-41.469601,,,,,,,
1505840937.314554,0.017937,-0.045239,2.605597,0.003405,0.017648,-0.036117,0.017918,0.045224,-0.998816,-0.024220,-0.018307,-0.050851,-8.545226,6.440093,-41.472775,,,,,,,
1505840937.334525,0.018725,-0.045415,2.604922,-0.009428,0.032511,-0.037175,0.018705,0.045399,-0.998794,0.033007,0.000652,0.037032,-8.556233,6.405249,-41.475903,,,,,,,
1505840937.354470,0.018797,-0.045094,2.603953,0.032456,0.015665,-0.054162,0.018776,0.045079,-0.998807,0.007911,-0.030446,-0.122760,-8.553579,6.392396,-41.478432,,,,,,,
1505840937.374464,0.019305,-0.043907,2.603267,0.016059,0.017620,-0.024260,0.019285,0.043893,-0.998850,0.016222,-0.005838,0.104151,-8.534430,6.330271,-41.491901,,,,,,,
1505840937.394433,0.019416,-0.043624,2.602464,-0.003012,0.048493,-0.041323,0.019397,0.043610,-0.998860,-0.013644,-0.024720,-0.039134,-8.541618,6.309855,-41.493534,,,,,,,
1505840937.414377,0.019597,-0.042205,2.601779,0.010858,0.008076,-0.031845,0.019578,0.042192,-0.998918,-0.002901,-0.033922,0.070420,-8.522251,6.301701,-41.498753,,,,,,,
1505840937.434373,0.018474,-0.042306,2.601039,0.004813,-0.096109,-0.035723,0.018457,0.042293,-0.998935,-0.012750,-0.028805,-0.086026,-8.536238,6.243757,-41.504639,,,,,,,
1505840937.454344,0.018512,-0.042649,2.600394,-0.019061,0.028221,-0.032974,0.018494,0.042636,-0.998919,-0.002548,-0.016086,-0.019650,-8.584395,6.246573,-41.494278,,,,,,,
1505840937.474308,0.018916,-0.040762,2.599812,0.014036,0.018717,-0.031761,0.018899,0.040751,-0.998991,-0.061898,-0.045130,-0.054476,-8.559457,6.172041,-41.510578,,,,,,,
1505840937.494281,0.018480,-0.041295,2.598547,-0.077942,-0.119525,-0.065274,0.018464,0.041283,-0.998977,0.061019,-0.110237,-0.111695,-8.551549,6.159809,-41.514027,,,,,,,
1505840937.514238,0.018137,-0.041427,2.597191,0.017930,-0.042757,-0.070664,0.018120,0.041415,-0.998978,0.020210,-0.097812,-0.034470,-8.598235,6.175423,-41.502064,,,,,,,
1505840937.534223,0.017634,-0.041766,2.595825,-0.013130,0.011416,-0.073736,0.017617,0.041754,-0.998973,-0.017114,-0.045691,0.106791,-8.636351,6.170372,-41.494900,,,,,,,
1505840937.554189,0.017271,-0.041883,2.594255,0.003069,-0.049145,-0.075075,0.017255,0.041871,-0.998974,0.004077,-0.053101,0.092282,-8.635628,6.168598,-41.495316,,,,,,,
1505840937.574161,0.016270,-0.042048,2.593072,-0.000508,-0.022680,-0.052446,0.016255,0.042036,-0.998984,-0.026524,-0.035001,0.101187,-8.698709,6.157944,-41.483719,,,,,,,
1505840937.594129,0.016039,-0.039928,2.591925,0.014269,0.062427,-0.058271,0.016025,0.039917,-0.999074,-0.031101,-0.045898,-0.061472,-8.705796,6.150712,-41.483303,,,,,,,
1505840937.614099,0.016409,-0.039952,2.590877,-0.007971,-0.043987,-0.047265,0.016395,0.039941,-0.999067,0.028389,-0.064493,-0.021501,-8.707755,6.052022,-41.497406,,,,,,,
1505840937.634043,0.015397,-0.039966,2.589917,-0.000516,-0.016306,-0.052409,0.015384,0.039955,-0.999083,-0.027973,-0.070046,-0.003709,-8.749931,6.042293,-41.489952,,,,,,,
1505840937.654034,0.014512,-0.038057,2.589077,0.000026,0.067540,-0.028370,0.014501,0.038048,-0.999171,-0.029759,-0.044167,0.086192,-8.808278,5.954534,-41.490295,,,,,,,
1505840937.674008,0.014809,-0.038227,2.588361,-0.008088,-0.030240,-0.038647,0.014798,0.038218,-0.999160,0.045322,-0.065241,-0.032594,-8.783087,5.953444,-41.495792,,,,,,,
1505840937.693959,0.014934,-0.038547,2.587409,-0.002736,0.005963,-0.048036,0.014922,0.038537,-0.999146,0.010698,-0.055871,-0.060241,-8.784748,5.959408,-41.494583,,,,,,,
1505840937.713935,0.014740,-0.034868,2.586612,-0.025302,0.010109,-0.035294,0.014730,0.034861,-0.999284,-0.017431,-0.074763,0.061600,-8.797205,5.794512,-41.515293,,,,,,,
1505840937.733916,0.014866,-0.034751,2.585742,0.012328,-0.010999,-0.052332,0.014856,0.034744,-0.999286,-0.002573,-0.054244,0.084201,-8.794417,5.798761,-41.515289,,,,,,,
1505840937.753886,0.015432,-0.034953,2.584900,-0.018016,0.061144,-0.032801,0.015422,0.034946,-0.999270,-0.038738,-0.080891,0.154696,-8.786543,5.783326,-41.519115,,,,,,,
1505840937.773847,0.015478,-0.034814,2.584185,0.018639,-0.061039,-0.034389,0.015468,0.034807,-0.999274,0.075810,-0.086611,-0.099145,-8.762363,5.778504,-41.524891,,,,,,,
1505840937.793826,0.015125,-0.034844,2.583453,-0.004910,-0.006836,-0.040629,0.015115,0.034837,-0.999279,-0.019860,-0.096223,-0.071186,-8.790481,5.770511,-41.520061,,,,,,,
1505840937.813797,0.015116,-0.031695,2.582749,-0.022977,-0.080285,-0.028328,0.015108,0.031690,-0.999384,0.052229,-0.073850,-0.094321,-8.779496,5.626993,-41.542076,,,,,,,
1505840937.833766,0.014694,-0.031692,2.582113,0.014172,0.020828,-0.036064,0.014686,0.031687,-0.999390,-0.057487,-0.064539,0.124985,-8.820539,5.628912,-41.533119,,,,,,,
1505840937.853729,0.014528,-0.031695,2.581334,-0.016560,-0.029181,-0.040833,0.014520,0.031690,-0.999392,0.020118,-0.092237,-0.089856,-8.814930,5.615559,-41.536121,,,,,,,
1505840937.873707,0.014261,-0.031820,2.580571,0.013220,-0.007869,-0.038385,0.014253,0.031815,-0.999392,0.004332,-0.060608,0.051852,-8.839162,5.619589,-41.530426,,,,,,,
1505840937.893659,0.013587,-0.028324,2.579944,-0.013585,0.004792,-0.029901,0.013581,0.028320,-0.999507,-0.010285,-0.076859,-0.004598,-8.848543,5.609429,-41.529804,,,,,,,
1505840937.913644,0.013337,-0.028363,2.579143,0.005949,-0.044008,-0.044001,0.013332,0.028359,-0.999509,0.030659,-0.089349,-0.106479,-8.873163,5.464375,-41.543880,,,,,,,
1505840937.933614,0.011335,-0.024673,2.578351,-0.028452,0.002642,-0.033216,0.011331,0.024671,-0.999631,-0.031824,-0.085660,0.045805,-8.909867,5.461364,-41.536423,,,,,,,
1505840937.953583,0.011829,-0.024740,2.577988,0.007456,0.039833,-0.013499,0.011825,0.024737,-0.999624,0.000168,-0.091525,0.010565,-8.968745,5.301429,-41.544472,,,,,,,
1505840937.973554,0.012005,-0.024880,2.577608,-0.006217,0.002626,-0.020231,0.012001,0.024877,-0.999618,0.015022,-0.095952,0.038361,-8.947759,5.298073,-41.549427,,,,,,,
1505840937.993525,0.012174,-0.020770,2.577132,0.006673,0.013318,-0.027587,0.012171,0.020768,-0.999710,-0.009043,-0.094270,-0.006561,-8.945983,5.131940,-41.570656,,,,,,,
1505840938.013473,0.012747,-0.020655,2.576597,0.000067,0.034517,-0.016789,0.012744,0.020653,-0.999705,-0.001361,-0.127602,-0.063893,-8.932183,5.118159,-41.575321,,,,,,,
1505840938.033462,0.014100,-0.015808,2.576446,-0.001881,-0.028216,-0.015037,0.014098,0.015807,-0.999776,0.041612,-0.114989,0.052647,-8.856891,4.913019,-41.616158,,,,,,,
1505840938.053434,0.013637,-0.015845,2.576040,0.001385,-0.021801,-0.021405,0.013635,0.015844,-0.999781,-0.007699,-0.126898,-0.089101,-8.880925,4.911544,-41.611206,,,,,,,
1505840938.073377,0.012812,-0.009715,2.575687,0.007724,-0.009055,-0.017006,0.012811,0.009715,-0.999871,-0.011438,-0.152110,0.002419,-8.919132,4.654959,-41.632523,,,,,,,
1505840938.093372,0.012898,-0.009795,2.575311,-0.013704,0.016413,-0.015910,0.012897,0.009795,-0.999869,-0.012058,-0.158156,-0.010416,-8.924095,4.649175,-41.632107,,,,,,,
1505840938.113342,0.013319,-0.002400,2.575221,-0.009500,0.013191,-0.007336,0.013319,0.002400,-0.999908,0.000231,-0.169468,0.016129,-8.914205,4.653142,-41.633785,,,,,,,
1505840938.133310,0.013742,-0.002485,2.574975,-0.000923,0.013223,-0.010498,0.013741,0.002485,-0.999902,0.007682,-0.181135,-0.006201,-8.887796,4.345881,-41.672615,,,,,,,
1505840938.153280,0.013896,0.005210,2.574951,-0.000974,-0.002775,0.000115,0.013895,-0.005210,-0.999890,0.003897,-0.180551,-0.001819,-8.883458,4.346194,-41.673512,,,,,,,
1505840938.173233,0.013794,0.005297,2.574840,0.000196,0.000457,-0.008427,0.013793,-0.005297,-0.999891,-0.005981,-0.185346,-0.010516,-8.883155,4.021271,-41.706181,,,,,,,
1505840938.193201,0.014021,0.005240,2.574733,-0.003085,0.013193,-0.005156,0.014020,-0.005240,-0.999888,-0.002759,-0.181742,0.006602,-8.876868,4.021819,-41.707470,,,,,,,
1505840938.213165,0.014391,0.012726,2.574617,-0.004082,0.003623,-0.005221,0.014389,-0.012726,-0.999815,0.005585,-0.177765,-0.015581,-8.871583,4.022647,-41.708515,,,,,,,
1505840938.233149,0.014437,0.012633,2.574556,-0.004120,0.006802,-0.003060,0.014435,-0.012632,-0.999816,-0.000596,-0.173159,-0.000367,-8.858564,3.712329,-41.740044,,,,,,,
1505840938.253116,0.014457,0.012603,2.574495,0.000143,0.003616,-0.001982,0.014455,-0.012603,-0.999816,0.004145,-0.166367,0.005508,-8.857203,3.713052,-41.740265,,,,,,,
1505840938.273071,0.014622,0.019785,2.574499,0.000179,-0.004899,0.000108,0.014618,-0.019783,-0.999697,0.003341,-0.159965,0.005313,-8.857206,3.713682,-41.740211,,,,,,,
1505840938.293055,0.014835,0.030773,2.574514,0.000195,-0.004914,0.003321,0.014828,-0.030768,-0.999417,0.004520,-0.110941,-0.009327,-8.845652,3.164656,-41.787868,,,,,,,
1505840938.313039,0.014915,0.035433,2.574588,0.003412,-0.011296,0.005443,0.014905,-0.035425,-0.999261,0.005237,-0.112738,-0.004462,-8.842251,2.956858,-41.803806,,,,,,,
1505840938.333008,0.014892,0.039488,2.574669,0.004478,-0.003851,0.005494,0.014880,-0.039478,-0.999110,0.002789,-0.101498,-0.013860,-8.838979,2.763510,-41.817730,,,,,,,
1505840938.352961,0.015252,0.050374,2.574816,0.000206,-0.001753,0.009765,0.015232,-0.050353,-0.998615,0.004604,-0.092530,-0.009258,-8.827526,2.282165,-41.849174,,,,,,,
1505840938.372947,0.015266,0.057416,2.575020,0.000191,-0.002836,0.014042,0.015240,-0.057384,-0.998236,0.001773,-0.098087,-0.000757,-8.821091,1.992477,-41.865318,,,,,,,
1505840938.392900,0.015167,0.060673,2.575276,-0.001904,-0.004962,0.012946,0.015138,-0.060636,-0.998045,0.001769,-0.098208,-0.007509,-8.821635,1.851503,-41.871677,,,,,,,
1505840938.412879,0.015269,0.066529,2.575510,0.001382,-0.027285,0.013901,0.015235,-0.066480,-0.997671,0.001764,-0.091540,-0.010233,-8.821045,1.592461,-41.882454,,,,,,,
1505840938.432856,0.014375,0.072001,2.575893,0.001270,-0.017759,0.022527,0.014337,-0.071939,-0.997306,-0.008401,-0.084784,0.004951,-8.836060,1.361933,-41.887421,,,,,,,
1505840938.452809,0.013802,0.074409,2.576308,0.002390,-0.002844,0.016199,0.013764,-0.074340,-0.997138,-0.007202,-0.074784,-0.002557,-8.854013,1.249800,-41.887123,,,,,,,
1505840938.472773,0.013830,0.080186,2.576679,0.005540,-0.008189,0.023682,0.013785,-0.080100,-0.996692,0.004312,-0.064599,-0.000211,-8.875585,0.994707,-41.889397,,,,,,,
1505840938.492764,0.013025,0.082741,2.577364,-0.005298,0.024712,0.030245,0.012980,-0.082647,-0.996494,-0.009776,-0.040721,-0.001232,-8.894670,0.860823,-41.888309,,,,,,,
1505840938.512726,0.013629,0.084051,2.577923,0.006491,0.004533,0.031264,0.013581,-0.083952,-0.996377,0.013702,-0.047029,-0.020621,-8.894670,0.860823,-41.888309,,,,,,,
1505840938.532681,0.013775,0.087465,2.578528,0.001141,0.006639,0.033386,0.013722,-0.087354,-0.996083,-0.004140,-0.038028,0.046422,-8.862651,0.676767,-41.898472,,,,,,,
1505840938.552674,0.013847,0.087992,2.579001,-0.001790,-0.034777,0.022407,0.013793,-0.087878,-0.996036,0.019563,-0.024686,-0.069608,-8.868688,0.632431,-41.897892,,,,,,,
1505840938.572629,0.013213,0.087765,2.579571,-0.009392,-0.032711,0.032013,0.013162,-0.087652,-0.996064,0.007499,-0.014231,-0.058852,-8.869601,0.614514,-41.897964,,,,,,,
1505840938.592597,0.012087,0.088450,2.580277,0.017151,0.010926,0.032438,0.012039,-0.088335,-0.996018,-0.008850,-0.012511,-0.033218,-8.931240,0.606771,-41.884979,,,,,,,
1505840938.612581,0.011939,0.088460,2.580870,-0.004086,-0.017817,0.031067,0.011892,-0.088345,-0.996019,0.013285,0.001736,0.001726,-8.928865,0.607526,-41.885475,,,,,,,
1505840938.632552,0.011807,0.088406,2.581460,0.028998,-0.017745,0.030194,0.011761,-0.088291,-0.996025,0.005726,0.018299,0.003288,-8.935896,0.610325,-41.883934,,,,,,,
1505840938.652522,0.011743,0.088512,2.582181,0.001003,0.030000,0.038882,0.011697,-0.088396,-0.996017,-0.004189,0.030718,-0.041901,-8.941442,0.618405,-41.882633,,,,,,,
1505840938.672492,0.012079,0.087715,2.582940,0.009627,-0.012524,0.038654,0.012033,-0.087603,-0.996083,0.002707,0.027102,0.008671,-8.915195,0.660625,-41.887585,,,,,,,
1505840938.692461,0.011892,0.087719,2.583672,-0.000072,0.015093,0.039833,0.011846,-0.087607,-0.996085,-0.014425,0.033484,-0.034265,-8.922632,0.661488,-41.885986,,,,,,,
1505840938.712432,0.012186,0.087022,2.584680,0.001920,0.018241,0.049503,0.012140,-0.086913,-0.996142,0.005759,0.053603,-0.062101,-8.909659,0.703808,-41.888062,,,,,,,
1505840938.732401,0.011928,0.086856,2.585326,-0.014808,-0.006149,0.028908,0.011882,-0.086747,-0.996159,-0.003612,0.058488,0.063741,-8.912515,0.714220,-41.887276,,,,,,,
1505840938.752370,0.012690,0.087497,2.586080,0.050968,0.074735,0.039427,0.012641,-0.087385,-0.996094,-0.047828,0.062071,0.166749,-8.912515,0.714220,-41.887276,,,,,,,
1505840938.772340,0.014372,0.085488,2.586887,-0.023659,0.010758,0.048231,0.014319,-0.085384,-0.996245,0.033059,0.065364,0.025573,-8.865591,0.694230,-41.897568,,,,,,,
1505840938.792295,0.014103,0.085621,2.587612,0.010790,-0.002898,0.028006,0.014051,-0.085517,-0.996238,-0.007367,0.024283,0.022437,-8.812119,0.792656,-41.907097,,,,,,,
1505840938.812279,0.013898,0.085515,2.588317,0.005437,-0.019945,0.033226,0.013847,-0.085410,-0.996250,0.009255,0.049979,-0.006665,-8.812119,0.792656,-41.907097,,,,,,,
1505840938.832248,0.014180,0.083909,2.588972,-0.006568,0.019322,0.044098,0.014130,-0.083811,-0.996382,-0.030273,0.069574,0.076795,-8.790732,0.867757,-41.910107,,,,,,,
1505840938.852218,0.014487,0.084094,2.589791,0.022356,0.013036,0.036736,0.014436,-0.083995,-0.996362,0.029388,0.065227,-0.072868,-8.803444,0.875892,-41.907269,,,,,,,
1505840938.872189,0.013923,0.084122,2.590385,0.006530,-0.041211,0.035244,0.013873,-0.084023,-0.996367,0.015378,0.094780,0.029342,-8.792607,0.876872,-41.909519,,,,,,,
1505840938.892159,0.013117,0.081897,2.591187,0.004298,0.009837,0.030184,0.013073,-0.081806,-0.996563,-0.014980,0.077961,-0.070851,-8.812447,0.877668,-41.905334,,,,,,,
1505840938.912102,0.012775,0.081923,2.591799,-0.003164,-0.006140,0.033256,0.012732,-0.081832,-0.996565,-0.001166,0.079146,0.152800,-8.843862,0.981672,-41.896412,,,,,,,
1505840938.932096,0.012333,0.082194,2.592468,0.006528,-0.045467,0.035219,0.012291,-0.082102,-0.996548,0.026283,0.073938,0.021908,-8.849236,0.985403,-41.895191,,,,,,,
1505840938.952067,0.013200,0.079955,2.593164,-0.001296,0.058696,0.037942,0.013158,-0.079870,-0.996718,0.006007,0.070272,0.000045,-8.847673,0.980930,-41.895622,,,,,,,
1505840938.972036,0.012346,0.079806,2.594005,-0.000104,-0.039171,0.050210,0.012307,-0.079722,-0.996741,0.012947,0.101496,-0.030740,-8.850226,1.092137,-41.892330,,,,,,,
1505840938.992006,0.010326,0.077199,2.595022,-0.000159,0.020406,0.039863,0.010295,-0.077122,-0.996969,-0.047419,0.083912,-0.007884,-8.875769,1.093484,-41.886894,,,,,,,
1505840939.011976,0.011292,0.077426,2.595769,0.016945,0.018324,0.037811,0.011258,-0.077349,-0.996940,0.052524,0.067355,0.013771,-8.898570,1.212153,-41.878788,,,,,,,
1505840939.031944,0.009604,0.074605,2.596485,0.011831,-0.023115,0.028965,0.009577,-0.074535,-0.997172,-0.031748,0.087261,0.002910,-8.902226,1.211933,-41.878017,,,,,,,
1505840939.051914,0.010043,0.074764,2.597074,-0.014121,0.040566,0.040974,0.010015,-0.074694,-0.997156,-0.024587,0.066958,-0.037344,-8.963357,1.331044,-41.861359,,,,,,,
1505840939.071885,0.010991,0.075320,2.598072,0.061410,0.084275,0.048115,0.010960,-0.075249,-0.997105,-0.048802,0.064659,0.136356,-8.914794,1.330482,-41.871746,,,,,,,
1505840939.091838,0.011281,0.075044,2.598657,-0.031812,-0.046582,0.026420,0.011249,-0.074974,-0.997122,0.074704,0.121482,-0.115473,-8.872566,1.328953,-41.880764,,,,,,,
1505840939.111824,0.011031,0.075206,2.599295,0.008654,-0.012471,0.024726,0.011000,-0.075135,-0.997113,-0.001905,0.069154,0.262188,-8.885414,1.337799,-41.877758,,,,,,,
1505840939.131766,0.010642,0.073689,2.599944,0.007216,0.065084,0.034826,0.010613,-0.073623,-0.997230,-0.025811,0.051330,0.085700,-8.874790,1.329273,-41.880280,,,,,,,
1505840939.151746,0.011847,0.073554,2.600442,-0.000916,0.010933,0.016244,0.011815,-0.073488,-0.997226,0.084910,0.082353,-0.164624,-8.864143,1.412479,-41.879810,,,,,,,
1505840939.171721,0.011184,0.073313,2.600871,-0.025420,-0.038060,0.024370,0.011154,-0.073247,-0.997251,0.046036,0.054937,0.063764,-8.854902,1.416186,-41.881641,,,,,,,
1505840939.191678,0.010441,0.073242,2.601438,-0.012834,0.001266,0.032179,0.010413,-0.073176,-0.997265,-0.052985,0.069316,0.090694,-8.905325,1.433871,-41.870346,,,,,,,
1505840939.211652,0.009878,0.069561,2.602096,0.000034,-0.004006,0.026872,0.009854,-0.069504,-0.997533,0.059924,0.084122,-0.059901,-8.884985,1.449376,-41.874134,,,,,,,
1505840939.231640,0.009037,0.069329,2.602657,0.007524,-0.011433,0.026872,0.009015,-0.069273,-0.997557,0.062427,0.091826,-0.059694,-8.935026,1.602162,-41.857914,,,,,,,
1505840939.251611,0.008481,0.069501,2.603106,-0.008323,-0.020988,0.017081,0.008460,-0.069445,-0.997550,-0.003562,0.096682,-0.068643,-8.975201,1.607290,-41.849121,,,,,,,
1505840939.271558,0.008827,0.065485,2.603431,-0.012732,0.004507,0.020421,0.008808,-0.065438,-0.997818,-0.008823,0.097619,0.115112,-8.981959,1.618117,-41.847256,,,,,,,
1505840939.291551,0.009050,0.065515,2.603911,0.011758,0.010924,0.022748,0.009031,-0.065469,-0.997814,-0.008237,0.109277,-0.000447,-8.957239,1.785805,-41.845734,,,,,,,
1505840939.311521,0.009684,0.065524,2.604368,-0.009763,0.076801,0.021945,0.009663,-0.065477,-0.997807,0.005962,0.108492,0.051335,-8.939686,1.784618,-41.849541,,,,,,,
1505840939.331464,0.011324,0.060956,2.604680,0.012979,-0.059238,0.024472,0.011303,-0.060918,-0.998079,0.053959,0.093434,0.047304,-8.922076,1.790765,-41.853035,,,,,,,
1505840939.351459,0.010927,0.060685,2.605105,-0.001059,0.010916,0.021599,0.010906,-0.060648,-0.998100,-0.009091,0.113779,-0.037759,-8.870493,1.990041,-41.855000,,,,,,,
1505840939.371429,0.011522,0.060290,2.605520,-0.021398,0.071515,0.013275,0.011501,-0.060253,-0.998117,-0.020626,0.123257,-0.043418,-8.856463,2.011892,-41.856926,,,,,,,
1505840939.391400,0.010899,0.055409,2.605762,-0.019934,-0.056047,0.009302,0.010882,-0.055380,-0.998406,-0.007876,0.113684,-0.018424,-8.840392,2.022156,-41.859829,,,,,,,
1505840939.411368,0.010748,0.055329,2.606181,-0.020232,-0.027418,0.025537,0.010732,-0.055301,-0.998412,-0.007726,0.113604,-0.018418,-8.862467,2.224171,-41.844910,,,,,,,
1505840939.431338,0.011553,0.055278,2.606692,-0.001352,0.056583,0.031511,0.011535,-0.055250,-0.998406,-0.008758,0.103422,0.047097,-8.868819,2.234791,-41.842999,,,,,,,
1505840939.451298,0.013765,0.050303,2.607024,0.002157,0.001375,0.018347,0.013747,-0.050282,-0.998640,0.036195,0.109547,-0.040636,-8.803607,2.253323,-41.855774,,,,,,,
1505840939.471264,0.013164,0.050385,2.607290,-0.009445,-0.024143,0.013840,0.013147,-0.050364,-0.998644,0.004523,0.107691,-0.055189,-8.750070,2.446321,-41.856167,,,,,,,
1505840939.491248,0.014065,0.050473,2.607741,0.008441,0.054560,0.015492,0.014047,-0.050452,-0.998628,-0.017648,0.108481,0.047319,-8.736716,2.448499,-41.858829,,,,,,,
1505840939.511213,0.015794,0.045512,2.607605,0.009902,-0.001684,-0.004116,0.015777,-0.045497,-0.998840,0.035462,0.113993,-0.035355,-8.714976,2.449976,-41.863274,,,,,,,
1505840939.531186,0.015249,0.045407,2.607830,-0.022310,-0.017787,0.014872,0.015232,-0.045392,-0.998853,0.039379,0.101727,-0.032366,-8.655005,2.650119,-41.863522,,,,,,,
1505840939.551157,0.015389,0.045178,2.608145,-0.001050,0.007771,0.015153,0.015373,-0.045163,-0.998861,-0.008049,0.120968,-0.020563,-8.669886,2.671242,-41.859104,,,,,,,
1505840939.571124,0.015783,0.040235,2.608342,0.004366,-0.000692,0.008708,0.015770,-0.040225,-0.999066,0.021645,0.103533,0.040036,-8.650856,2.880666,-41.849148,,,,,,,
1505840939.591094,0.015657,0.040171,2.608494,-0.004179,0.012059,0.006592,0.015644,-0.040160,-0.999071,-0.005192,0.127685,-0.050139,-8.654058,2.881172,-41.848450,,,,,,,
1505840939.611060,0.016261,0.034686,2.608639,-0.003160,-0.015613,0.013927,0.016250,-0.034679,-0.999266,0.023316,0.116115,0.030699,-8.627320,3.106772,-41.837833,,,,,,,
1505840939.631034,0.015562,0.034655,2.609070,-0.009625,-0.027356,0.021314,0.015552,-0.034648,-0.999279,-0.000842,0.117565,-0.038228,-8.651700,3.116655,-41.832062,,,,,,,
1505840939.651004,0.014791,0.028929,2.609356,-0.005461,0.038604,0.012097,0.014784,-0.028925,-0.999472,-0.028487,0.132395,-0.040292,-8.658528,3.123227,-41.830154,,,,,,,
1505840939.670974,0.014711,0.028933,2.609748,-0.001090,-0.033721,0.020255,0.014705,-0.028929,-0.999473,0.004354,0.137083,-0.001976,-8.683135,3.363299,-41.806435,,,,,,,
1505840939.690943,0.014369,0.021919,2.609985,-0.009557,-0.002853,0.005382,0.014365,-0.021918,-0.999657,0.002466,0.162253,-0.034187,-8.702937,3.656578,-41.777687,,,,,,,
1505840939.710912,0.014394,0.021852,2.610111,-0.005371,0.005640,0.009742,0.014390,-0.021851,-0.999658,0.003341,0.156616,0.016671,-8.702937,3.656578,-41.777687,,,,,,,
1505840939.730881,0.014912,0.014780,2.610329,-0.009700,0.013075,0.009761,0.014910,-0.014780,-0.999780,0.007795,0.168588,-0.021247,-8.698415,3.664192,-41.777962,,,,,,,
1505840939.750852,0.014820,0.014681,2.610540,-0.004292,-0.011367,0.009646,0.014818,-0.014680,-0.999782,0.015654,0.203523,0.008312,-8.680262,3.964020,-41.754356,,,,,,,
1505840939.770821,0.014661,0.006129,2.610661,-0.003204,-0.015596,0.005343,0.014660,-0.006129,-0.999874,0.005481,0.205608,-0.008427,-8.680262,3.964020,-41.754356,,,,,,,
1505840939.790766,0.014476,0.006099,2.610801,-0.000063,-0.004969,0.007567,0.014476,-0.006099,-0.999877,0.009191,0.202891,0.014037,-8.690814,4.322520,-41.716572,,,,,,,
1505840939.810760,0.014690,-0.002129,2.610893,-0.002195,-0.007083,0.004329,0.014689,0.002129,-0.999890,0.009572,0.204750,0.007367,-8.685966,4.667017,-41.680450,,,,,,,
1505840939.830719,0.014517,-0.002118,2.610942,0.002122,-0.004928,0.000084,0.014516,0.002118,-0.999892,0.009852,0.208880,-0.008698,-8.689154,4.668303,-41.679638,,,,,,,
1505840939.870649,0.015017,-0.009192,2.610821,0.000001,0.005731,-0.006291,0.015015,0.009192,-0.999845,0.008681,0.150109,-0.005892,-8.681258,4.961084,-41.647449,,,,,,,
1505840939.850672,0.014871,-0.009191,2.610919,-0.001109,0.005714,-0.003085,0.014870,0.009190,-0.999847,0.008827,0.150111,-0.005890,-8.681258,4.961084,-41.647449,,,,,,,
1505840939.890625,0.015194,-0.009195,2.610701,-0.000036,0.013168,-0.005175,0.015192,0.009194,-0.999842,0.006475,0.122809,-0.010640,-8.673708,4.960119,-41.649139,,,,,,,
1505840939.910597,0.015860,-0.014361,2.610591,0.001062,0.002551,-0.007374,0.015858,0.014361,-0.999771,0.011806,0.116148,-0.014877,-8.658567,4.957784,-41.652569,,,,,,,
1505840939.930580,0.015878,-0.014283,2.610464,0.003205,-0.000635,-0.007381,0.015875,0.014283,-0.999772,0.006372,0.123412,0.005418,-8.639665,5.170233,-41.630657,,,,,,,
1505840939.950542,0.015878,-0.014227,2.610188,0.003312,0.001532,-0.015935,0.015875,0.014227,-0.999773,0.007883,0.139017,-0.014998,-8.640905,5.167181,-41.630779,,,,,,,
1505840939.970515,0.016183,-0.020675,2.609972,0.004281,-0.011256,-0.008509,0.016179,0.020673,-0.999655,0.005900,0.160021,0.013709,-8.649930,5.158912,-41.629929,,,,,,,
1505840939.990488,0.016018,-0.020614,2.609780,0.004249,-0.000625,-0.008445,0.016014,0.020612,-0.999659,-0.004021,0.156985,0.000437,-8.637528,5.426620,-41.598457,,,,,,,
1505840940.010437,0.016200,-0.020457,2.609664,0.007416,0.005755,-0.007317,0.016196,0.020456,-0.999660,0.005853,0.142386,-0.021153,-8.637499,5.422884,-41.598949,,,,,,,
1505840940.030421,0.017211,-0.026645,2.609397,-0.005274,-0.000600,-0.017069,0.017204,0.026642,-0.999497,0.010765,0.135406,-0.015518,-8.620597,5.416743,-41.603256,,,,,,,
1505840940.050398,0.017779,-0.031223,2.609108,0.011834,-0.027144,-0.016055,0.017769,0.031218,-0.999355,0.022300,0.111436,-0.009572,-8.598586,5.666732,-41.574505,,,,,,,
1505840940.070343,0.017380,-0.034938,2.608602,-0.003079,0.014346,-0.028747,0.017369,0.034931,-0.999239,-0.014332,0.086957,-0.000136,-8.592703,6.009423,-41.527569,,,,,,,
1505840940.090327,0.017747,-0.034812,2.608161,0.016090,-0.006913,-0.021264,0.017735,0.034805,-0.999237,0.039196,0.069886,-0.062943,-8.573372,6.001672,-41.532684,,,,,,,
1505840940.110306,0.017711,-0.038043,2.607716,0.002177,-0.008013,-0.019212,0.017697,0.038034,-0.999120,-0.009961,0.086279,0.068822,-8.577037,6.128217,-41.513447,,,,,,,
1505840940.130249,0.017677,-0.037869,2.607234,0.010770,-0.003718,-0.024489,0.017663,0.037860,-0.999127,0.010794,0.069287,-0.060764,-8.581343,6.125400,-41.512974,,,,,,,
1505840940.150226,0.017900,-0.039982,2.606859,0.013932,-0.023939,-0.018166,0.017885,0.039971,-0.999041,-0.011461,0.044379,0.024187,-8.570028,6.202809,-41.503811,,,,,,,
1505840940.170215,0.018159,-0.040155,2.606469,-0.000051,0.028142,-0.021148,0.018143,0.040144,-0.999029,-0.007371,0.063585,-0.079660,-8.576734,6.201082,-41.502686,,,,,,,
1505840940.190185,0.017214,-0.040207,2.606092,-0.007226,-0.060103,-0.023865,0.017199,0.040196,-0.999044,0.042432,0.043209,0.069036,-8.579145,6.199121,-41.502480,,,,,,,
1505840940.210155,0.016855,-0.043133,2.605608,-0.010710,-0.009119,-0.015011,0.016839,0.043120,-0.998928,-0.030877,0.043169,-0.046192,-8.622538,6.316161,-41.475834,,,,,,,
1505840940.230124,0.016823,-0.042879,2.605243,0.023673,-0.052599,-0.023635,0.016807,0.042866,-0.998939,0.020318,0.057476,0.093880,-8.613775,6.315378,-41.477772,,,,,,,
1505840940.250093,0.016037,-0.042767,2.604586,0.019328,0.015479,-0.032889,0.016022,0.042754,-0.998957,-0.034118,0.044176,-0.096120,-8.665329,6.301947,-41.469074,,,,,,,
1505840940.269992,0.016534,-0.043470,2.603942,0.013855,0.060124,-0.032651,0.016518,0.043456,-0.998919,-0.027718,0.019944,-0.024732,-8.657185,6.320417,-41.467968,,,,,,,
1505840940.289958,0.016353,-0.043157,2.603555,0.029888,-0.024975,-0.015933,0.016337,0.043143,-0.998935,0.054906,0.014550,-0.068264,-8.637074,6.310001,-41.473743,,,,,,,
1505840940.309949,0.015641,-0.042885,2.603042,0.011826,-0.021792,-0.022447,0.015626,0.042871,-0.998958,0.006026,0.006643,0.108166,-8.669563,6.288606,-41.470215,,,,,,,
1505840940.329919,0.015531,-0.042345,2.602565,-0.015125,0.053612,-0.017872,0.015517,0.042332,-0.998983,0.012819,0.026088,0.108785,-8.703995,6.254435,-41.468170,,,,,,,
1505840940.349861,0.014813,-0.042248,2.602160,-0.000850,-0.048386,-0.025898,0.014799,0.042235,-0.998998,-0.021025,0.001710,-0.053172,-8.714221,6.249956,-41.466702,,,,,,,
1505840940.369858,0.015144,-0.042117,2.601575,0.025645,0.019718,-0.027471,0.015130,0.042104,-0.998999,-0.010934,0.008250,0.001318,-8.722158,6.249849,-41.465046,,,,,,,
1505840940.389828,0.014939,-0.040962,2.600980,-0.013881,0.048349,-0.029678,0.014926,0.040951,-0.999050,-0.005587,-0.022778,-0.094639,-8.734096,6.183285,-41.472515,,,,,,,
1505840940.409798,0.015575,-0.041083,2.600313,0.018324,0.019749,-0.038226,0.015561,0.041071,-0.999035,0.007312,-0.016291,0.024563,-8.704520,6.189069,-41.477867,,,,,,,
1505840940.429767,0.015491,-0.040792,2.599515,-0.011542,-0.005851,-0.033204,0.015477,0.040780,-0.999048,0.025889,-0.047876,-0.117422,-8.701020,6.173759,-41.480885,,,,,,,
1505840940.449737,0.014817,-0.039682,2.598799,0.015193,-0.001523,-0.038374,0.014805,0.039671,-0.999103,-0.029408,-0.039671,0.023975,-8.738184,6.116367,-41.481575,,,,,,,
1505840940.469706,0.015154,-0.039375,2.598014,0.017301,-0.002592,-0.036226,0.015142,0.039365,-0.999110,0.002452,-0.035688,0.074290,-8.727535,6.096694,-41.486713,,,,,,,
1505840940.489675,0.014331,-0.039438,2.597311,0.000562,-0.107872,-0.038031,0.014319,0.039428,-0.999120,0.055276,-0.038619,0.037129,-8.725280,6.089312,-41.488274,,,,,,,
1505840940.509646,0.012810,-0.039480,2.596668,-0.017022,0.026003,-0.028763,0.012800,0.039470,-0.999139,-0.017591,-0.007243,0.017983,-8.802032,6.093604,-41.471424,,,,,,,
1505840940.529614,0.012918,-0.039235,2.596188,0.012785,0.019654,-0.022197,0.012908,0.039225,-0.999147,-0.038421,-0.020945,-0.074324,-8.833412,6.072268,-41.467880,,,,,,,
1505840940.549584,0.011767,-0.039881,2.595256,-0.079209,-0.169678,-0.043167,0.011758,0.039870,-0.999136,0.136588,-0.093764,-0.231882,-8.815790,6.063533,-41.472912,,,,,,,
1505840940.569555,0.010830,-0.039935,2.594354,0.012276,-0.057841,-0.047300,0.010821,0.039924,-0.999144,0.001493,-0.107688,-0.134630,-8.911350,6.085065,-41.449322,,,,,,,
1505840940.589498,0.010997,-0.040476,2.593483,-0.015889,0.069665,-0.043487,0.010988,0.040465,-0.999121,-0.032564,-0.047026,-0.085596,-8.943089,6.089485,-41.441841,,,,,,,
1505840940.609493,0.011852,-0.037992,2.592442,-0.013237,-0.064245,-0.051773,0.011843,0.037983,-0.999208,0.059324,-0.049061,-0.168791,-8.871035,5.982752,-41.472862,,,,,,,
1505840940.629459,0.011197,-0.037978,2.591680,0.003407,0.006943,-0.035180,0.011189,0.037968,-0.999216,-0.041981,-0.032674,0.114237,-8.921584,5.976696,-41.462887,,,,,,,
1505840940.649404,0.012623,-0.037810,2.590738,-0.004064,0.078234,-0.050859,0.012614,0.037801,-0.999206,0.052023,-0.051549,-0.121766,-8.898780,5.965437,-41.469414,,,,,,,
1505840940.669379,0.012456,-0.037342,2.589888,0.001498,-0.033422,-0.042930,0.012447,0.037334,-0.999225,0.009068,-0.015804,0.023578,-8.873104,5.962119,-41.475388,,,,,,,
1505840940.689370,0.012186,-0.037548,2.589055,-0.014793,0.029235,-0.035153,0.012178,0.037539,-0.999221,-0.053819,-0.024081,-0.016206,-8.896662,5.930515,-41.474873,,,,,,,
1505840940.709341,0.014504,-0.035394,2.588482,-0.016843,-0.007983,-0.032174,0.014495,0.035387,-0.999269,0.041429,-0.051897,-0.108672,-8.891649,5.932017,-41.475735,,,,,,,
1505840940.729309,0.014764,-0.035603,2.587702,0.003515,0.012283,-0.040504,0.014754,0.035595,-0.999257,0.025575,-0.051296,-0.062754,-8.800769,5.840258,-41.508125,,,,,,,
1505840940.749253,0.014294,-0.035643,2.587177,-0.011616,-0.012295,-0.020395,0.014284,0.035635,-0.999263,0.012312,-0.056906,0.090724,-8.809123,5.834053,-41.507225,,,,,,,
1505840940.769247,0.014093,-0.032953,2.586459,0.020663,0.000633,-0.042613,0.014085,0.032947,-0.999358,-0.031847,-0.092288,-0.133775,-8.812264,5.835562,-41.506348,,,,,,,
1505840940.789219,0.015003,-0.033130,2.585875,-0.007449,0.045144,-0.024307,0.014994,0.033124,-0.999339,-0.030130,-0.089352,-0.074743,-8.805762,5.717364,-41.524178,,,,,,,
1505840940.809190,0.014921,-0.033081,2.585336,0.008837,-0.006873,-0.034162,0.014912,0.033075,-0.999342,0.038372,-0.067254,0.033201,-8.782636,5.718563,-41.528908,,,,,,,
1505840940.829153,0.013927,-0.033695,2.584700,-0.048682,-0.075069,-0.026349,0.013919,0.033688,-0.999335,0.014584,-0.094754,0.139899,-8.806135,5.714972,-41.524422,,,,,,,
1505840940.849128,0.012165,-0.031433,2.584073,0.025823,0.015469,-0.031784,0.012159,0.031428,-0.999432,-0.027601,-0.043604,-0.058200,-8.914010,5.647168,-41.510681,,,,,,,
1505840940.869099,0.012119,-0.031654,2.583279,-0.010173,-0.011111,-0.047154,0.012113,0.031648,-0.999426,-0.004026,-0.088579,0.016149,-8.915486,5.633775,-41.512184,,,,,,,
1505840940.889059,0.012063,-0.031757,2.582479,0.003454,0.027144,-0.037203,0.012056,0.031752,-0.999423,0.000639,-0.102461,-0.038709,-8.928726,5.634294,-41.509270,,,,,,,
1505840940.909037,0.012289,-0.027677,2.581766,-0.014525,-0.002644,-0.040702,0.012284,0.027673,-0.999542,0.004470,-0.096704,-0.062638,-8.913073,5.451247,-41.537064,,,,,,,
1505840940.929008,0.012034,-0.027790,2.580965,-0.016624,-0.014343,-0.040785,0.012029,0.027786,-0.999542,0.003199,-0.115845,0.016204,-8.916218,5.453850,-41.536049,,,,,,,
1505840940.948965,0.012581,-0.022221,2.580325,0.007578,0.033468,-0.023215,0.012577,0.022219,-0.999674,0.009807,-0.121187,0.032023,-8.940298,5.462614,-41.529720,,,,,,,
1505840940.968946,0.013115,-0.022341,2.579807,-0.019978,-0.003771,-0.028960,0.013112,0.022340,-0.999664,0.014629,-0.109330,-0.049667,-8.892323,5.210556,-41.572388,,,,,,,
1505840940.988917,0.013694,-0.022329,2.579091,0.008941,0.019741,-0.042568,0.013690,0.022327,-0.999657,-0.000568,-0.098133,0.024834,-8.874017,5.211766,-41.576149,,,,,,,
1505840941.008871,0.014022,-0.017238,2.578287,-0.009392,0.043035,-0.030756,0.014019,0.017237,-0.999753,0.006565,-0.114054,-0.125033,-8.876675,4.990000,-41.602779,,,,,,,
1505840941.028854,0.013921,-0.017501,2.577702,-0.010198,-0.034566,-0.033370,0.013918,0.017500,-0.999750,0.025511,-0.080824,0.064432,-8.854659,4.989616,-41.607517,,,,,,,
1505840941.048826,0.013113,-0.017351,2.576976,0.003653,-0.023902,-0.034294,0.013110,0.017350,-0.999764,-0.011111,-0.104035,0.037010,-8.877240,4.991468,-41.602482,,,,,,,
1505840941.088753,0.013093,-0.012801,2.575930,-0.013628,0.036640,-0.029748,0.013091,0.012801,-0.999832,-0.004775,-0.105254,-0.079010,-8.926523,4.782085,-41.616531,,,,,,,
1505840941.068794,0.012569,-0.012612,2.576399,0.007716,-0.008015,-0.020251,0.012568,0.012612,-0.999841,-0.004252,-0.105065,-0.079001,-8.926523,4.782085,-41.616531,,,,,,,
1505840941.108734,0.013367,-0.012765,2.575484,0.008734,-0.005902,-0.017019,0.013366,0.012765,-0.999829,0.024079,-0.098321,-0.042117,-8.897713,4.779854,-41.622955,,,,,,,
1505840941.128703,0.013248,-0.008105,2.574982,-0.009295,0.000474,-0.024585,0.013247,0.008105,-0.999879,0.036390,-0.118838,-0.044859,-8.905711,4.578227,-41.643906,,,,,,,
1505840941.148672,0.012447,-0.008348,2.574665,-0.008100,-0.075042,-0.017536,0.012446,0.008348,-0.999888,0.048528,-0.126451,0.024180,-8.905711,4.578227,-41.643906,,,,,,,
1505840941.168643,0.011422,-0.002268,2.574180,0.007839,-0.009061,-0.024539,0.011422,0.002268,-0.999932,-0.059395,-0.140177,-0.021506,-8.957219,4.336931,-41.658684,,,,,,,
1505840941.188613,0.014373,0.005059,2.573906,-0.000956,0.035525,-0.011472,0.014372,-0.005059,-0.999884,0.046449,-0.163260,-0.005808,-8.957627,4.326196,-41.659714,,,,,,,
1505840941.208581,0.014198,0.004890,2.573625,-0.004921,-0.036747,-0.018357,0.014197,-0.004890,-0.999887,0.037164,-0.148842,-0.013998,-8.859349,4.024353,-41.710949,,,,,,,
1505840941.228552,0.013965,0.004849,2.573193,-0.007089,0.002615,-0.024558,0.013965,-0.004849,-0.999891,-0.028689,-0.174686,-0.016375,-8.877607,4.024670,-41.707039,,,,,,,
1505840941.248522,0.013939,0.012678,2.572979,-0.018995,-0.023031,-0.002292,0.013938,-0.012678,-0.999822,0.011178,-0.195452,0.012136,-8.879805,3.692389,-41.737301,,,,,,,
1505840941.268491,0.013497,0.012490,2.572921,0.001298,-0.030433,-0.002216,0.013495,-0.012489,-0.999831,0.002954,-0.191109,-0.010453,-8.891904,3.702584,-41.733822,,,,,,,
1505840941.288448,0.012878,0.020722,2.572941,0.007752,-0.041062,-0.000098,0.012875,-0.020720,-0.999702,-0.008801,-0.199082,0.004738,-8.920160,3.362703,-41.756554,,,,,,,
1505840941.308431,0.012366,0.020865,2.572939,0.006607,-0.019806,0.001094,0.012363,-0.020864,-0.999706,-0.004520,-0.208049,0.001751,-8.945995,3.356431,-41.751530,,,,,,,
1505840941.328400,0.012235,0.020901,2.572967,0.002302,-0.002800,0.000100,0.012232,-0.020899,-0.999707,0.002203,-0.210760,0.003369,-8.952649,3.354721,-41.750240,,,,,,,
